NMEA,$GPGGA,043425.000,3958.723586,N,11628.322995,E,1,06,8.463,26.281,M,0,M,,*46,1747802065000
NMEA,$GPRMC,043425.000,A,3958.723586,N,11628.322995,E,25.321,43.394,210525,,E,A*20,1747802065000
NMEA,$GPGLL,3958.723586,N,11628.322995,E,043425.000,A,A*5D,1747802065000
NMEA,$GPGSA,A,3,17,22,196,194,,,,,,,,,9.937,8.463,5.208*34,1747802065000
NMEA,$BDGSA,A,3,238,229,,,,,,,,,,,9.937,8.463,5.208*21,1747802065000
NMEA,$GAGSA,A,3,,,,,,,,,,,,,9.937,8.463,5.208*21,1747802065000
NMEA,$GPGSV,4,1,16,12,29,305,29.8,17,44,119,39.0,9,26,108,26.7,4,21,70,28.0*4E,1747802065000
NMEA,$GPGSV,4,2,16,22,24,184,27.7,196,40,138,39.7,194,34,162,31.6,3,6,39,0.0*79,1747802065000
NMEA,$GPGSV,4,3,16,6,69,342,0.0,11,46,280,0.0,14,6,173,0.0,19,72,99,0.0*46,1747802065000
NMEA,$GPGSV,4,4,16,20,27,221,0.0,25,4,326,0.0,193,1,,0.0,195,1,,0.0*4A,1747802065000
NMEA,$BDGSV,4,1,16,238,63,205,35.4,222,19,181,18.7,229,37,92,30.1,201,36,139,0.0*66,1747802065000
NMEA,$BDGSV,4,2,16,202,30,223,0.0,203,43,189,0.0,204,27,122,0.0,205,14,246,0.0*6F,1747802065000
NMEA,$BDGSV,4,3,16,207,80,185,0.0,208,53,207,0.0,210,78,267,0.0,213,38,212,0.0*65,1747802065000
NMEA,$BDGSV,4,4,16,219,51,126,0.0,220,35,56,0.0,224,15,295,0.0,226,18,246,0.0*50,1747802065000
NMEA,$GAGSV,1,1,4,104,1,,25.7,96,52,261,0.0,99,1,25,0.0,110,13,173,0.0*64,1747802065000
NMEA,$GPVTG,43.394,T,,M,25.321,N,46.894,K,A*34,1747802065000
NMEA,$RD_RSSI, 705, 823, 0, 0,1747802065000
NMEA,$GPGGA,043426.000,3958.748223,N,11628.310373,E,1,09,7.352,19.344,M,0,M,,*42,1747802065000
NMEA,$GPRMC,043426.000,A,3958.748223,N,11628.310373,E,27.015,38.793,210525,,E,A*2C,1747802066000
NMEA,$GPGLL,3958.748223,N,11628.310373,E,043426.000,A,A*58,1747802066000
NMEA,$GPGSA,A,3,17,22,196,194,,,,,,,,,8.686,7.352,4.626*33,1747802066000
NMEA,$BDGSA,A,3,238,240,207,213,229,,,,,,,,8.686,7.352,4.626*15,1747802066000
NMEA,$GAGSA,A,3,,,,,,,,,,,,,8.686,7.352,4.626*26,1747802066000
NMEA,$GPGSV,4,1,16,12,29,305,29.2,17,44,119,39.5,9,26,108,27.3,4,21,70,27.2*49,1747802066000
NMEA,$GPGSV,4,2,16,22,24,184,28.6,196,40,138,40.0,194,34,162,31.0,3,6,39,0.0*78,1747802066000
NMEA,$GPGSV,4,3,16,6,69,342,0.0,11,46,280,0.0,14,6,173,0.0,19,72,99,0.0*46,1747802066000
NMEA,$GPGSV,4,4,16,20,27,221,0.0,25,4,326,0.0,193,1,,0.0,195,1,,0.0*4A,1747802066000
NMEA,$BDGSV,4,1,16,238,63,205,33.4,240,72,116,27.3,207,80,185,26.3,213,38,212,33.7*6D,1747802066000
NMEA,$BDGSV,4,2,16,222,19,181,19.2,229,37,92,32.0,201,36,139,0.0,202,30,223,0.0*5B,1747802066000
NMEA,$BDGSV,4,3,16,203,43,189,0.0,204,27,122,0.0,205,14,246,0.0,208,53,207,0.0*67,1747802066000
NMEA,$BDGSV,4,4,16,210,78,267,0.0,219,51,126,0.0,220,35,56,0.0,224,15,295,0.0*50,1747802066000
NMEA,$GAGSV,1,1,4,104,1,,22.2,96,52,261,0.0,99,1,25,0.0,110,13,173,0.0*66,1747802066000
NMEA,$GPVTG,38.793,T,,M,27.015,N,50.032,K,A*3E,1747802066000
NMEA,$RD_RSSI, 675, 801, 0, 0,1747802066000
NMEA,$GPGGA,043427.000,3958.731295,N,11628.330797,E,1,12,1.199,36.517,M,0,M,,*48,1747802067000
NMEA,$GPRMC,043427.000,A,3958.731295,N,11628.330797,E,27.114,36.105,210525,,E,A*25,1747802067000
NMEA,$GPGLL,3958.731295,N,11628.330797,E,043427.000,A,A*56,1747802067000
NMEA,$GPGSA,A,3,17,22,196,194,19,,,,,,,,1.946,1.199,1.532*31,1747802067000
NMEA,$BDGSA,A,3,238,240,207,219,213,224,229,,,,,,1.946,1.199,1.532*11,1747802067000
NMEA,$GAGSA,A,3,,,,,,,,,,,,,1.946,1.199,1.532*2C,1747802067000
NMEA,$GPGSV,4,1,16,12,29,305,27.6,17,44,119,39.9,9,26,108,25.2,4,21,70,26.7*48,1747802067000
NMEA,$GPGSV,4,2,16,22,24,184,29.2,196,40,138,39.7,194,34,162,33.0,19,72,99,29.7*48,1747802067000
NMEA,$GPGSV,4,3,16,11,46,280,32.0,3,6,39,0.0,6,69,342,0.0,14,6,173,0.0*75,1747802067000
NMEA,$GPGSV,4,4,16,20,27,221,0.0,25,4,326,0.0,193,1,,0.0,195,1,,0.0*4A,1747802067000
NMEA,$BDGSV,4,1,16,238,63,205,33.0,240,72,116,28.7,207,80,185,27.6,219,51,126,36.2*67,1747802067000
NMEA,$BDGSV,4,2,16,213,38,212,31.6,224,15,295,25.7,222,19,181,19.2,229,37,92,31.8*5D,1747802067000
NMEA,$BDGSV,4,3,16,201,36,139,0.0,202,30,223,0.0,203,43,189,0.0,204,27,122,0.0*61,1747802067000
NMEA,$BDGSV,4,4,16,205,14,246,0.0,208,53,207,0.0,210,78,267,0.0,220,35,56,0.0*5E,1747802067000
NMEA,$GAGSV,1,1,4,104,1,,21.3,96,52,261,0.0,99,1,25,0.0,110,13,173,0.0*64,1747802067000
NMEA,$GPVTG,36.105,T,,M,27.114,N,50.216,K,A*3D,1747802067000
NMEA,$RD_RSSI, 691, 767, 0, 0,1747802067000
NMEA,$GPGGA,043428.000,3958.735739,N,11628.339587,E,1,14,1.036,31.428,M,0,M,,*42,1747802068000
NMEA,$GPRMC,043428.000,A,3958.735739,N,11628.339587,E,25.494,38.497,210525,,E,A*28,1747802068000
NMEA,$GPGLL,3958.735739,N,11628.339587,E,043428.000,A,A*54,1747802068000
NMEA,$GPGSA,A,3,17,22,196,194,19,11,,,,,,,1.735,1.036,1.392*33,1747802068000
NMEA,$BDGSA,A,3,238,240,207,219,213,226,224,229,,,,,1.735,1.036,1.392*25,1747802068000
NMEA,$GAGSA,A,3,,,,,,,,,,,,,1.735,1.036,1.392*2E,1747802068000
NMEA,$GPGSV,4,1,16,12,29,305,25.8,17,44,119,40.2,9,26,108,21.5,4,21,70,25.7*41,1747802068000
NMEA,$GPGSV,4,2,16,22,24,184,28.8,196,40,138,39.0,194,34,162,32.2,19,72,99,28.6*47,1747802068000
NMEA,$GPGSV,4,3,16,11,46,280,28.2,3,6,39,0.0,6,69,342,0.0,14,6,173,0.0*7C,1747802068000
NMEA,$GPGSV,4,4,16,20,27,221,0.0,25,4,326,0.0,193,1,,0.0,195,1,,0.0*4A,1747802068000
NMEA,$BDGSV,4,1,16,238,63,205,33.2,240,72,116,28.8,207,80,185,26.8,219,51,126,37.0*66,1747802068000
NMEA,$BDGSV,4,2,16,213,38,212,28.5,226,18,246,17.7,224,15,295,24.6,222,19,181,22.8*66,1747802068000
NMEA,$BDGSV,4,3,16,229,37,92,32.4,201,36,139,0.0,202,30,223,0.0,203,43,189,0.0*60,1747802068000
NMEA,$BDGSV,4,4,16,204,27,122,0.0,205,14,246,0.0,208,53,207,0.0,210,78,267,0.0*69,1747802068000
NMEA,$GAGSV,1,1,4,104,1,,21.8,96,52,261,0.0,99,1,25,0.0,110,13,173,0.0*6F,1747802068000
NMEA,$GPVTG,38.497,T,,M,25.494,N,47.215,K,A*37,1747802068000
NMEA,$RD_RSSI, 716, 762, 0, 0,1747802068000
NMEA,$GPGGA,043429.000,3958.742538,N,11628.346753,E,1,15,0.998,25.731,M,0,M,,*40,1747802069000
NMEA,$GPRMC,043429.000,A,3958.742538,N,11628.346753,E,25.612,38.524,210525,,E,A*2C,1747802069000
NMEA,$GPGLL,3958.742538,N,11628.346753,E,043429.000,A,A*55,1747802069000
NMEA,$GPGSA,A,3,17,22,196,194,19,11,,,,,,,1.678,0.998,1.348*30,1747802069000
NMEA,$BDGSA,A,3,238,240,207,208,219,213,226,224,229,,,,1.678,0.998,1.348*1C,1747802069000
NMEA,$GAGSA,A,3,,,,,,,,,,,,,1.678,0.998,1.348*2D,1747802069000
NMEA,$GPGSV,4,1,16,12,29,305,25.7,17,44,119,40.9,9,26,108,21.2,4,21,70,25.5*40,1747802069000
NMEA,$GPGSV,4,2,16,22,24,184,28.3,196,40,138,38.9,194,34,162,28.8,19,72,100,30.1*7A,1747802069000
NMEA,$GPGSV,4,3,16,11,46,280,24.2,3,6,39,0.0,6,69,342,0.0,14,6,173,0.0*70,1747802069000
NMEA,$GPGSV,4,4,16,20,27,221,0.0,25,4,326,0.0,193,1,,0.0,195,1,,0.0*4A,1747802069000
NMEA,$BDGSV,4,1,16,238,63,205,31.7,240,72,116,29.5,207,80,185,26.7,208,53,207,28.1*6F,1747802069000
NMEA,$BDGSV,4,2,16,219,51,126,36.7,213,38,212,30.8,226,18,246,17.7,224,15,295,23.7*67,1747802069000
NMEA,$BDGSV,4,3,16,222,19,181,19.6,229,37,92,29.5,201,36,139,0.0,202,30,223,0.0*51,1747802069000
NMEA,$BDGSV,4,4,16,203,43,189,0.0,204,27,122,0.0,205,14,246,0.0,210,78,267,0.0*66,1747802069000
NMEA,$GAGSV,1,1,4,104,1,,21.2,96,52,261,0.0,99,1,25,0.0,110,13,173,0.0*65,1747802069000
NMEA,$GPVTG,38.524,T,,M,25.612,N,47.434,K,A*37,1747802069000
NMEA,$RD_RSSI, 665, 737, 0, 0,1747802069000
NMEA,$GPGGA,043430.000,3958.748855,N,11628.353172,E,1,14,1.037,21.572,M,0,M,,*48,1747802070000
NMEA,$GPRMC,043430.000,A,3958.748855,N,11628.353172,E,26.157,37.034,210525,,E,A*27,1747802070000
NMEA,$GPGLL,3958.748855,N,11628.353172,E,043430.000,A,A*50,1747802070000
NMEA,$GPGSA,A,3,17,22,196,194,19,11,,,,,,,1.735,1.037,1.391*31,1747802070000
NMEA,$BDGSA,A,3,238,240,207,219,213,226,224,229,,,,,1.735,1.037,1.391*27,1747802070000
NMEA,$GAGSA,A,3,,,,,,,,,,,,,1.735,1.037,1.391*2C,1747802070000
NMEA,$GPGSV,4,1,16,12,29,305,23.3,17,44,119,40.9,9,26,108,20.6,4,21,70,24.8*4B,1747802070000
NMEA,$GPGSV,4,2,16,22,24,184,27.2,196,40,138,38.2,194,34,162,31.6,19,72,100,29.1*71,1747802070000
NMEA,$GPGSV,4,3,16,11,46,280,25.7,3,6,39,0.0,6,69,342,0.0,14,6,173,0.0*74,1747802070000
NMEA,$GPGSV,4,4,16,20,27,221,0.0,25,4,326,0.0,193,1,,0.0,195,1,,0.0*4A,1747802070000
NMEA,$BDGSV,4,1,16,238,63,205,33.5,240,72,116,31.3,207,80,185,27.1,208,53,207,28.2*64,1747802070000
NMEA,$BDGSV,4,2,16,219,51,126,38.2,213,38,212,31.8,226,18,246,17.2,224,15,295,24.5*6D,1747802070000
NMEA,$BDGSV,4,3,16,222,19,181,19.2,229,37,93,29.3,201,36,139,0.0,202,30,223,0.0*52,1747802070000
NMEA,$BDGSV,4,4,16,203,43,189,0.0,204,27,122,0.0,205,14,246,0.0,210,78,267,0.0*66,1747802070000
NMEA,$GAGSV,1,1,4,104,1,,20.3,96,52,261,0.0,99,1,25,0.0,110,13,173,0.0*65,1747802070000
NMEA,$GPVTG,37.034,T,,M,26.157,N,48.443,K,A*36,1747802070000
NMEA,$RD_RSSI, 682, 742, 0, 0,1747802070000
NMEA,$GPGGA,043431.000,3958.754867,N,11628.358917,E,1,14,1.037,20.241,M,0,M,,*43,1747802070000
NMEA,$GPRMC,043431.000,A,3958.754867,N,11628.358917,E,26.111,36.835,210525,,E,A*20,1747802071000
NMEA,$GPGLL,3958.754867,N,11628.358917,E,043431.000,A,A*5D,1747802071000
NMEA,$GPGSA,A,3,17,22,196,194,19,11,,,,,,,1.735,1.037,1.391*31,1747802071000
NMEA,$BDGSA,A,3,238,240,207,219,213,226,224,229,,,,,1.735,1.037,1.391*27,1747802071000
NMEA,$GAGSA,A,3,,,,,,,,,,,,,1.735,1.037,1.391*2C,1747802071000
NMEA,$GPGSV,4,1,16,12,29,305,20.6,17,44,119,40.7,9,26,108,16.3,4,21,70,22.5*48,1747802071000
NMEA,$GPGSV,4,2,16,22,24,184,26.3,196,40,138,37.5,194,34,162,31.6,195,1,,20.3*42,1747802071000
NMEA,$GPGSV,4,3,16,19,72,100,28.1,11,46,280,22.7,3,6,39,0.0,6,69,342,0.0*72,1747802071000
NMEA,$GPGSV,4,4,16,14,6,173,0.0,20,27,221,0.0,25,4,326,0.0,193,1,,0.0*40,1747802071000
NMEA,$BDGSV,4,1,16,238,63,205,34.0,240,72,117,30.5,207,80,185,26.6,208,53,207,27.2*69,1747802071000
NMEA,$BDGSV,4,2,16,219,51,126,38.2,213,38,212,32.0,226,17,246,17.7,224,15,295,17.0*69,1747802071000
NMEA,$BDGSV,4,3,16,222,19,181,19.2,229,37,93,31.8,201,36,139,0.0,202,30,223,0.0*50,1747802071000
NMEA,$BDGSV,4,4,16,203,43,189,0.0,204,27,122,0.0,205,14,246,0.0,210,78,267,0.0*66,1747802071000
NMEA,$GAGSV,1,1,4,104,1,,19.1,96,52,261,0.0,99,1,25,0.0,110,13,173,0.0*6D,1747802071000
NMEA,$GPVTG,36.835,T,,M,26.111,N,48.358,K,A*31,1747802071000
NMEA,$RD_RSSI, 676, 727, 0, 0,1747802071000
NMEA,$GPGGA,043432.000,3958.760940,N,11628.364736,E,1,15,0.998,18.948,M,0,M,,*44,1747802071000
NMEA,$GPRMC,043432.000,A,3958.760940,N,11628.364736,E,25.893,36.863,210525,,E,A*21,1747802072000
NMEA,$GPGLL,3958.760940,N,11628.364736,E,043432.000,A,A*5F,1747802072000
NMEA,$GPGSA,A,3,17,22,196,194,19,11,,,,,,,1.677,0.998,1.348*3F,1747802072000
NMEA,$BDGSA,A,3,238,240,207,208,219,213,226,224,229,,,,1.677,0.998,1.348*13,1747802072000
NMEA,$GAGSA,A,3,,,,,,,,,,,,,1.677,0.998,1.348*22,1747802072000
NMEA,$GPGSV,4,1,16,12,29,305,19.6,17,44,119,40.7,9,26,108,22.2,4,21,70,22.6*47,1747802072000
NMEA,$GPGSV,4,2,16,22,24,184,28.6,196,40,138,38.2,194,34,162,30.1,195,1,,24.7*47,1747802072000
NMEA,$GPGSV,4,3,16,19,72,100,30.1,11,46,280,24.2,3,6,39,0.0,6,69,342,0.0*78,1747802072000
NMEA,$GPGSV,4,4,16,14,6,173,0.0,20,27,221,0.0,25,4,326,0.0,193,1,,0.0*40,1747802072000
NMEA,$BDGSV,4,1,16,238,63,205,32.7,240,72,117,31.1,207,80,185,25.1,208,53,207,25.3*6A,1747802072000
NMEA,$BDGSV,4,2,16,219,52,126,36.9,213,38,212,31.2,226,17,246,16.8,224,15,295,15.8*6A,1747802072000
NMEA,$BDGSV,4,3,16,222,19,181,19.0,229,37,93,31.2,201,36,139,0.0,202,30,223,0.0*58,1747802072000
NMEA,$BDGSV,4,4,16,203,43,189,0.0,204,27,122,0.0,205,14,246,0.0,210,78,267,0.0*66,1747802072000
NMEA,$GAGSV,1,1,4,104,1,,20.5,96,52,261,0.0,99,1,25,0.0,110,13,173,0.0*63,1747802072000
NMEA,$GPVTG,36.863,T,,M,25.893,N,47.954,K,A*3B,1747802072000
NMEA,$RD_RSSI, 683, 751, 0, 0,1747802072000
NMEA,$GPGGA,043433.000,3958.766304,N,11628.370872,E,1,15,0.998,22.784,M,0,M,,*44,1747802073000
NMEA,$GPRMC,043433.000,A,3958.766304,N,11628.370872,E,24.522,36.396,210525,,E,A*21,1747802073000
NMEA,$GPGLL,3958.766304,N,11628.370872,E,043433.000,A,A*58,1747802073000
NMEA,$GPGSA,A,3,17,22,196,194,19,11,,,,,,,1.677,0.998,1.348*3F,1747802073000
NMEA,$BDGSA,A,3,238,240,207,208,219,213,226,224,229,,,,1.677,0.998,1.348*13,1747802073000
NMEA,$GAGSA,A,3,,,,,,,,,,,,,1.677,0.998,1.348*22,1747802073000
NMEA,$GPGSV,4,1,16,12,29,305,19.6,17,44,119,40.0,9,26,108,20.1,4,21,70,19.2*4D,1747802073000
NMEA,$GPGSV,4,2,16,22,24,184,30.6,196,40,138,38.7,194,34,162,30.7,195,1,,22.3*4F,1747802073000
NMEA,$GPGSV,4,3,16,19,72,100,29.0,11,46,280,21.5,3,6,39,0.0,6,69,342,0.0*73,1747802073000
NMEA,$GPGSV,4,4,16,14,6,173,0.0,20,27,221,0.0,25,4,326,0.0,193,1,,0.0*40,1747802073000
NMEA,$BDGSV,4,1,16,238,63,205,30.3,240,72,117,30.8,207,80,185,26.0,208,53,207,25.5*60,1747802073000
NMEA,$BDGSV,4,2,16,219,52,126,35.2,213,38,212,27.8,226,17,246,16.2,224,15,295,15.8*65,1747802073000
NMEA,$BDGSV,4,3,16,222,19,181,19.1,229,37,93,30.8,201,36,139,0.0,202,30,223,0.0*52,1747802073000
NMEA,$BDGSV,4,4,16,203,43,189,0.0,204,27,122,0.0,205,14,246,0.0,210,78,267,0.0*66,1747802073000
NMEA,$GAGSV,1,1,4,104,1,,23.7,96,52,261,0.0,99,1,25,0.0,110,13,173,0.0*62,1747802073000
NMEA,$GPVTG,36.396,T,,M,24.522,N,45.416,K,A*35,1747802073000
NMEA,$RD_RSSI, 676, 739, 0, 0,1747802073000
NMEA,$GPGGA,043434.000,3958.771479,N,11628.376479,E,1,15,0.998,22.396,M,0,M,,*4E,1747802074000
NMEA,$GPRMC,043434.000,A,3958.771479,N,11628.376479,E,24.529,36.231,210525,,E,A*2B,1747802074000
NMEA,$GPGLL,3958.771479,N,11628.376479,E,043434.000,A,A*55,1747802074000
NMEA,$GPGSA,A,3,17,22,196,194,19,11,,,,,,,1.677,0.998,1.348*3F,1747802074000
NMEA,$BDGSA,A,3,238,240,207,208,219,213,226,224,229,,,,1.677,0.998,1.348*13,1747802074000
NMEA,$GAGSA,A,3,,,,,,,,,,,,,1.677,0.998,1.348*22,1747802074000
NMEA,$GPGSV,4,1,16,12,29,305,24.7,17,44,119,40.0,9,26,108,19.7,4,21,70,17.1*43,1747802074000
NMEA,$GPGSV,4,2,16,22,24,184,30.5,196,40,138,40.4,194,34,162,31.8,195,1,,22.2*4F,1747802074000
NMEA,$GPGSV,4,3,16,19,72,100,29.0,11,46,280,21.3,3,6,39,0.0,6,69,342,0.0*75,1747802074000
NMEA,$GPGSV,4,4,16,14,6,173,0.0,20,27,221,0.0,25,4,326,0.0,193,1,,0.0*40,1747802074000
NMEA,$BDGSV,4,1,16,238,63,205,26.6,240,72,117,31.7,207,80,185,25.1,208,53,207,23.8*65,1747802074000
NMEA,$BDGSV,4,2,16,219,52,126,36.7,213,38,212,26.0,226,17,246,15.8,224,15,295,15.6*6D,1747802074000
NMEA,$BDGSV,4,3,16,222,19,181,19.0,229,37,93,30.2,201,36,139,0.0,202,30,223,0.0*59,1747802074000
NMEA,$BDGSV,4,4,16,203,43,189,0.0,204,27,122,0.0,205,14,246,0.0,210,78,267,0.0*66,1747802074000
NMEA,$GAGSV,1,1,4,104,1,,21.3,96,52,261,0.0,99,1,25,0.0,110,13,173,0.0*64,1747802074000
NMEA,$GPVTG,36.231,T,,M,24.529,N,45.428,K,A*3F,1747802074000
NMEA,$RD_RSSI, 670, 741, 0, 0,1747802074000
NMEA,$GPGGA,043435.000,3958.776425,N,11628.382156,E,1,15,0.998,23.504,M,0,M,,*4E,1747802075000
NMEA,$GPRMC,043435.000,A,3958.776425,N,11628.382156,E,24.707,34.180,210525,,E,A*22,1747802075000
NMEA,$GPGLL,3958.776425,N,11628.382156,E,043435.000,A,A*59,1747802075000
NMEA,$GPGSA,A,3,17,22,196,194,19,11,,,,,,,1.677,0.998,1.348*3F,1747802075000
NMEA,$BDGSA,A,3,238,240,207,208,219,213,226,224,229,,,,1.677,0.998,1.348*13,1747802075000
NMEA,$GAGSA,A,3,,,,,,,,,,,,,1.677,0.998,1.348*22,1747802075000
NMEA,$GPGSV,4,1,16,12,29,305,22.2,17,44,119,40.0,9,26,108,20.3,4,21,70,18.8*48,1747802075000
NMEA,$GPGSV,4,2,16,22,24,184,31.1,196,40,138,40.4,194,34,162,32.0,195,1,,22.8*4B,1747802075000
NMEA,$GPGSV,4,3,16,19,72,100,28.7,11,46,280,16.1,3,6,39,0.0,6,69,342,0.0*75,1747802075000
NMEA,$GPGSV,4,4,16,14,6,173,0.0,20,27,221,0.0,25,4,326,0.0,193,1,,0.0*40,1747802075000
NMEA,$BDGSV,4,1,16,238,63,205,23.6,240,72,117,31.2,207,80,185,22.7,208,53,207,21.2*6C,1747802075000
NMEA,$BDGSV,4,2,16,219,52,126,36.2,213,38,212,23.7,226,17,246,15.5,224,15,295,16.7*65,1747802075000
NMEA,$BDGSV,4,3,16,222,19,181,18.7,229,37,93,30.0,201,36,139,0.0,202,30,223,0.0*5D,1747802075000
NMEA,$BDGSV,4,4,16,203,43,189,0.0,204,27,122,0.0,205,14,246,0.0,210,78,267,0.0*66,1747802075000
NMEA,$GAGSV,1,1,4,104,1,,23.5,96,52,261,0.0,99,1,25,0.0,110,13,173,0.0*60,1747802075000
NMEA,$GPVTG,34.180,T,,M,24.707,N,45.758,K,A*3E,1747802075000
NMEA,$RD_RSSI, 681, 767, 0, 0,1747802075000
NMEA,$GPGGA,043436.000,3958.781892,N,11628.387408,E,1,15,1.018,23.781,M,0,M,,*41,1747802075000
NMEA,$GPRMC,043436.000,A,3958.781892,N,11628.387408,E,24.554,37.061,210525,,E,A*2B,1747802076000
NMEA,$GPGLL,3958.781892,N,11628.387408,E,043436.000,A,A*59,1747802076000
NMEA,$GPGSA,A,3,17,22,196,194,19,11,,,,,,,1.758,1.018,1.432*39,1747802076000
NMEA,$BDGSA,A,3,238,240,207,208,219,213,224,229,,,,,1.758,1.018,1.432*23,1747802076000
NMEA,$GAGSA,A,3,110,,,,,,,,,,,,1.758,1.018,1.432*14,1747802076000
NMEA,$GPGSV,4,1,16,12,29,305,24.0,17,44,119,39.9,9,26,108,23.3,4,21,70,16.7*49,1747802076000
NMEA,$GPGSV,4,2,16,22,24,184,32.2,196,40,138,40.5,194,34,162,31.8,195,1,,21.6*4C,1747802076000
NMEA,$GPGSV,4,3,16,19,72,100,28.7,11,46,280,22.3,3,6,39,0.0,6,69,342,0.0*70,1747802076000
NMEA,$GPGSV,4,4,16,14,6,173,0.0,20,27,221,0.0,25,4,326,0.0,193,1,,0.0*40,1747802076000
NMEA,$BDGSV,4,1,16,238,63,205,20.8,240,72,117,29.7,207,80,185,20.8,208,53,207,19.2*6B,1747802076000
NMEA,$BDGSV,4,2,16,219,52,126,37.4,213,38,212,21.7,224,15,295,26.7,222,19,181,18.7*6E,1747802076000
NMEA,$BDGSV,4,3,16,229,37,93,28.3,201,36,139,0.0,202,30,223,0.0,203,43,189,0.0*6D,1747802076000
NMEA,$BDGSV,4,4,16,204,27,122,0.0,205,14,246,0.0,210,78,267,0.0,220,35,56,0.0*55,1747802076000
NMEA,$GAGSV,1,1,4,104,1,,24.3,110,13,173,10.1,96,52,261,0.0,99,1,25,0.0*51,1747802076000
NMEA,$GPVTG,37.061,T,,M,24.554,N,45.474,K,A*3A,1747802076000
NMEA,$RD_RSSI, 681, 767, 0, 0,1747802076000
NMEA,$GPGGA,043437.000,3958.787329,N,11628.392950,E,1,15,1.018,23.466,M,0,M,,*43,1747802077000
NMEA,$GPRMC,043437.000,A,3958.787329,N,11628.392950,E,23.415,38.548,210525,,E,A*21,1747802077000
NMEA,$GPGLL,3958.787329,N,11628.392950,E,043437.000,A,A*51,1747802077000
NMEA,$GPGSA,A,3,17,22,196,194,19,11,,,,,,,1.757,1.018,1.432*36,1747802077000
NMEA,$BDGSA,A,3,238,240,207,208,219,213,224,229,,,,,1.757,1.018,1.432*2C,1747802077000
NMEA,$GAGSA,A,3,110,,,,,,,,,,,,1.757,1.018,1.432*1B,1747802077000
NMEA,$GPGSV,4,1,16,12,29,305,26.7,17,44,119,39.2,9,26,108,24.7,4,21,70,28.1*4F,1747802077000
NMEA,$GPGSV,4,2,16,22,24,184,33.5,196,40,138,40.2,194,34,162,32.5,195,1,,21.5*40,1747802077000
NMEA,$GPGSV,4,3,16,19,72,100,27.2,11,46,280,22.3,3,6,39,0.0,6,69,342,0.0*7A,1747802077000
NMEA,$GPGSV,4,4,16,14,6,173,0.0,20,27,221,0.0,25,4,326,0.0,193,1,,0.0*40,1747802077000
NMEA,$BDGSV,4,1,16,238,63,205,21.5,240,72,117,27.6,207,80,185,18.5,208,53,207,17.2*60,1747802077000
NMEA,$BDGSV,4,2,16,219,52,126,37.0,213,38,212,19.7,224,15,295,26.3,222,19,181,18.6*64,1747802077000
NMEA,$BDGSV,4,3,16,229,37,93,26.8,201,36,139,0.0,202,30,223,0.0,203,43,189,0.0*68,1747802077000
NMEA,$BDGSV,4,4,16,204,27,122,0.0,205,14,246,0.0,210,78,267,0.0,220,35,56,0.0*55,1747802077000
NMEA,$GAGSV,1,1,4,104,1,,25.2,110,13,173,7.4,96,52,261,0.0,99,1,25,0.0*62,1747802077000
NMEA,$GPVTG,38.548,T,,M,23.415,N,43.364,K,A*38,1747802077000
NMEA,$RD_RSSI, 673, 745, 0, 0,1747802077000
NMEA,$GPGGA,043438.000,3958.792203,N,11628.398279,E,1,15,1.018,23.269,M,0,M,,*42,1747802077000
NMEA,$GPRMC,043438.000,A,3958.792203,N,11628.398279,E,21.933,39.932,210525,,E,A*22,1747802078000
NMEA,$GPGLL,3958.792203,N,11628.398279,E,043438.000,A,A*59,1747802078000
NMEA,$GPGSA,A,3,17,22,196,194,19,11,,,,,,,1.757,1.018,1.432*36,1747802078000
NMEA,$BDGSA,A,3,238,240,207,208,219,213,224,229,,,,,1.757,1.018,1.432*2C,1747802078000
NMEA,$GAGSA,A,3,110,,,,,,,,,,,,1.757,1.018,1.432*1B,1747802078000
NMEA,$GPGSV,4,1,16,12,29,305,24.3,17,44,119,39.5,9,26,108,23.3,4,21,70,28.6*4A,1747802078000
NMEA,$GPGSV,4,2,16,22,24,184,33.0,196,40,138,39.7,194,34,162,31.6,195,1,,22.0*48,1747802078000
NMEA,$GPGSV,4,3,16,19,72,100,26.7,11,46,280,21.3,3,6,39,0.0,6,69,342,0.0*7D,1747802078000
NMEA,$GPGSV,4,4,16,14,6,173,0.0,20,27,221,0.0,25,4,326,0.0,193,1,,0.0*40,1747802078000
NMEA,$BDGSV,4,1,16,238,63,205,21.5,240,72,117,26.5,207,80,185,16.8,208,53,207,16.6*64,1747802078000
NMEA,$BDGSV,4,2,16,219,52,126,38.2,213,38,212,19.2,224,15,295,24.2,222,19,181,22.2*62,1747802078000
NMEA,$BDGSV,4,3,16,229,37,93,28.2,201,36,139,0.0,202,30,223,0.0,203,43,189,0.0*6C,1747802078000
NMEA,$BDGSV,4,4,16,204,27,122,0.0,205,14,246,0.0,210,78,267,0.0,220,35,56,0.0*55,1747802078000
NMEA,$GAGSV,1,1,4,104,1,,26.5,110,13,173,9.5,96,52,261,0.0,99,1,25,0.0*69,1747802078000
NMEA,$GPVTG,39.932,T,,M,21.933,N,40.619,K,A*3F,1747802078000
NMEA,$RD_RSSI, 689, 758, 0, 0,1747802078000
NMEA,$GPGGA,043439.000,3958.796531,N,11628.403556,E,1,16,0.889,23.072,M,0,M,,*44,1747802079000
NMEA,$GPRMC,043439.000,A,3958.796531,N,11628.403556,E,20.692,42.163,210525,,E,A*2B,1747802079000
NMEA,$GPGLL,3958.796531,N,11628.403556,E,043439.000,A,A*55,1747802079000
NMEA,$GPGSA,A,3,17,22,196,194,19,11,,,,,,,1.625,0.889,1.360*33,1747802079000
NMEA,$BDGSA,A,3,238,240,207,208,219,213,220,224,229,,,,1.625,0.889,1.360*19,1747802079000
NMEA,$GAGSA,A,3,110,,,,,,,,,,,,1.625,0.889,1.360*1E,1747802079000
NMEA,$GPGSV,4,1,16,12,29,305,21.5,17,44,119,39.7,9,26,108,22.2,4,21,70,27.2*40,1747802079000
NMEA,$GPGSV,4,2,16,22,24,184,32.9,196,40,138,39.5,194,34,162,30.5,195,1,,21.8*4B,1747802079000
NMEA,$GPGSV,4,3,16,19,72,100,25.6,11,46,280,23.3,3,6,39,0.0,6,69,342,0.0*7D,1747802079000
NMEA,$GPGSV,4,4,16,14,6,173,0.0,20,27,221,0.0,25,4,326,0.0,193,1,,0.0*40,1747802079000
NMEA,$BDGSV,4,1,16,238,63,205,21.3,240,72,117,26.3,207,80,185,16.2,208,53,207,15.8*63,1747802079000
NMEA,$BDGSV,4,2,16,219,52,126,38.5,213,38,212,20.6,220,35,56,26.6,224,15,295,22.2*5A,1747802079000
NMEA,$BDGSV,4,3,16,222,19,181,22.1,229,37,93,28.2,201,36,139,0.0,202,30,223,0.0*59,1747802079000
NMEA,$BDGSV,4,4,16,203,43,189,0.0,204,27,122,0.0,205,14,246,0.0,210,78,267,0.0*66,1747802079000
NMEA,$GAGSV,1,1,4,104,1,,25.0,110,13,173,8.6,96,52,261,0.0,99,1,25,0.0*6D,1747802079000
NMEA,$GPVTG,42.163,T,,M,20.692,N,38.322,K,A*38,1747802079000
NMEA,$RD_RSSI, 673, 746, 0, 0,1747802079000
NMEA,$GPGGA,043440.000,3958.800747,N,11628.408859,E,1,16,0.889,22.547,M,0,M,,*42,1747802080000
NMEA,$GPRMC,043440.000,A,3958.800747,N,11628.408859,E,19.765,41.815,210525,,E,A*27,1747802080000
NMEA,$GPGLL,3958.800747,N,11628.408859,E,043440.000,A,A*51,1747802080000
NMEA,$GPGSA,A,3,17,22,196,194,19,11,,,,,,,1.625,0.889,1.360*33,1747802080000
NMEA,$BDGSA,A,3,238,240,207,208,219,213,220,224,229,,,,1.625,0.889,1.360*19,1747802080000
NMEA,$GAGSA,A,3,110,,,,,,,,,,,,1.625,0.889,1.360*1E,1747802080000
NMEA,$GPGSV,4,1,16,12,29,305,19.7,17,44,119,39.0,9,26,108,25.7,4,21,70,25.8*44,1747802080000
NMEA,$GPGSV,4,2,16,22,24,184,33.4,196,40,138,39.7,194,34,162,30.3,195,1,,21.7*4C,1747802080000
NMEA,$GPGSV,4,3,16,19,72,100,25.3,11,46,280,22.0,3,6,39,0.0,6,69,342,0.0*7A,1747802080000
NMEA,$GPGSV,4,4,16,14,6,173,0.0,20,27,221,0.0,25,4,326,0.0,193,1,,0.0*40,1747802080000
NMEA,$BDGSV,4,1,16,238,63,205,21.1,240,72,117,25.7,207,80,185,16.0,208,53,207,15.3*6F,1747802080000
NMEA,$BDGSV,4,2,16,219,52,126,38.4,213,38,212,16.2,220,35,56,24.8,224,15,295,19.8*54,1747802080000
NMEA,$BDGSV,4,3,16,222,19,181,21.3,229,37,93,27.0,201,36,139,0.0,202,30,223,0.0*55,1747802080000
NMEA,$BDGSV,4,4,16,203,43,189,0.0,204,27,122,0.0,205,14,246,0.0,210,78,267,0.0*66,1747802080000
NMEA,$GAGSV,1,1,4,104,1,,23.7,110,13,173,8.1,96,52,261,0.0,99,1,25,0.0*6B,1747802080000
NMEA,$GPVTG,41.815,T,,M,19.765,N,36.605,K,A*3E,1747802080000
NMEA,$RD_RSSI, 683, 765, 0, 0,1747802080000
NMEA,$GPGGA,043441.000,3958.804683,N,11628.413731,E,1,16,0.889,22.654,M,0,M,,*44,1747802081000
NMEA,$GPRMC,043441.000,A,3958.804683,N,11628.413731,E,18.895,40.648,210525,,E,A*26,1747802081000
NMEA,$GPGLL,3958.804683,N,11628.413731,E,043441.000,A,A*56,1747802081000
NMEA,$GPGSA,A,3,17,22,196,194,19,11,,,,,,,1.625,0.889,1.360*33,1747802081000
NMEA,$BDGSA,A,3,238,240,207,208,219,213,220,224,229,,,,1.625,0.889,1.360*19,1747802081000
NMEA,$GAGSA,A,3,110,,,,,,,,,,,,1.625,0.889,1.360*1E,1747802081000
NMEA,$GPGSV,4,1,16,12,29,305,20.2,17,44,119,39.7,9,26,108,24.3,4,21,70,31.0*44,1747802081000
NMEA,$GPGSV,4,2,16,22,24,184,32.9,196,40,138,39.5,194,34,162,31.3,195,1,,21.6*42,1747802081000
NMEA,$GPGSV,4,3,16,19,72,100,26.8,11,46,280,21.8,3,6,39,0.0,6,69,342,0.0*79,1747802081000
NMEA,$GPGSV,4,4,16,14,6,173,0.0,20,27,221,0.0,25,4,326,0.0,193,1,,0.0*40,1747802081000
NMEA,$BDGSV,4,1,16,238,63,205,22.2,240,72,117,25.2,207,80,185,15.3,208,53,207,14.8*60,1747802081000
NMEA,$BDGSV,4,2,16,219,52,126,38.4,213,38,212,15.6,220,35,56,23.5,224,15,295,22.2*5B,1747802081000
NMEA,$BDGSV,4,3,16,222,19,181,20.8,229,37,93,26.8,201,36,139,0.0,202,30,223,0.0*56,1747802081000
NMEA,$BDGSV,4,4,16,203,43,189,0.0,204,27,122,0.0,205,14,246,0.0,210,78,267,0.0*66,1747802081000
NMEA,$GAGSV,1,1,4,104,1,,26.7,110,13,173,7.6,96,52,261,0.0,99,1,25,0.0*66,1747802081000
NMEA,$GPVTG,40.648,T,,M,18.895,N,34.994,K,A*3D,1747802081000
NMEA,$RD_RSSI, 679, 788, 0, 0,1747802081000
NMEA,$GPGGA,043442.000,3958.808769,N,11628.418460,E,1,16,0.889,21.921,M,0,M,,*4C,1747802082000
NMEA,$GPRMC,043442.000,A,3958.808769,N,11628.418460,E,18.654,40.029,210525,,E,A*22,1747802082000
NMEA,$GPGLL,3958.808769,N,11628.418460,E,043442.000,A,A*50,1747802082000
NMEA,$GPGSA,A,3,17,22,196,194,19,11,,,,,,,1.625,0.889,1.359*39,1747802082000
NMEA,$BDGSA,A,3,238,240,207,208,219,213,220,224,229,,,,1.625,0.889,1.359*13,1747802082000
NMEA,$GAGSA,A,3,110,,,,,,,,,,,,1.625,0.889,1.359*14,1747802082000
NMEA,$GPGSV,4,1,16,12,29,305,20.0,17,44,119,39.0,9,26,108,27.2,4,21,70,30.2*40,1747802082000
NMEA,$GPGSV,4,2,16,22,24,184,33.4,196,40,138,39.9,194,34,162,32.9,195,1,,21.3*4E,1747802082000
NMEA,$GPGSV,4,3,16,19,72,100,28.6,11,46,280,24.1,3,6,39,0.0,6,69,342,0.0*75,1747802082000
NMEA,$GPGSV,4,4,16,14,6,173,0.0,20,27,221,0.0,25,4,326,0.0,193,1,,0.0*40,1747802082000
NMEA,$BDGSV,4,1,16,238,63,205,21.0,240,72,117,27.2,207,80,185,15.5,208,53,207,14.5*68,1747802082000
NMEA,$BDGSV,4,2,16,219,52,126,38.0,213,38,212,15.1,220,35,56,22.7,224,15,295,25.0*5E,1747802082000
NMEA,$BDGSV,4,3,16,222,19,181,20.1,229,37,93,26.7,201,36,139,0.0,202,30,223,0.0*50,1747802082000
NMEA,$BDGSV,4,4,16,203,43,189,0.0,204,27,122,0.0,205,14,246,0.0,210,78,267,0.0*66,1747802082000
NMEA,$GAGSV,1,1,4,104,1,,25.2,110,13,173,6.1,96,52,261,0.0,99,1,25,0.0*66,1747802082000
NMEA,$GPVTG,40.029,T,,M,18.654,N,34.548,K,A*32,1747802082000
NMEA,$RD_RSSI, 681, 751, 0, 0,1747802082000
NMEA,$GPGGA,043443.000,3958.812653,N,11628.422794,E,1,16,0.889,21.958,M,0,M,,*41,1747802083000
NMEA,$GPRMC,043443.000,A,3958.812653,N,11628.422794,E,19.674,38.126,210525,,E,A*23,1747802083000
NMEA,$GPGLL,3958.812653,N,11628.422794,E,043443.000,A,A*53,1747802083000
NMEA,$GPGSA,A,3,17,22,196,194,19,11,,,,,,,1.625,0.889,1.359*39,1747802083000
NMEA,$BDGSA,A,3,238,240,207,208,219,213,220,224,229,,,,1.625,0.889,1.359*13,1747802083000
NMEA,$GAGSA,A,3,110,,,,,,,,,,,,1.625,0.889,1.359*14,1747802083000
NMEA,$GPGSV,4,1,16,12,29,305,20.0,17,44,119,39.7,9,26,108,26.1,4,21,70,30.0*47,1747802083000
NMEA,$GPGSV,4,2,16,22,24,184,35.9,196,40,138,39.7,194,34,162,33.4,195,1,,22.0*47,1747802083000
NMEA,$GPGSV,4,3,16,19,72,100,27.6,11,46,280,22.1,3,6,39,0.0,6,69,342,0.0*7C,1747802083000
NMEA,$GPGSV,4,4,16,14,6,173,0.0,20,27,221,0.0,25,4,326,0.0,193,1,,0.0*40,1747802083000
NMEA,$BDGSV,4,1,16,238,63,205,20.7,240,72,117,25.7,207,80,185,15.5,208,53,207,10.3*6B,1747802083000
NMEA,$BDGSV,4,2,16,219,52,126,37.2,213,38,212,15.1,220,35,56,22.1,224,15,295,22.8*5A,1747802083000
NMEA,$BDGSV,4,3,16,222,19,181,20.1,229,37,93,29.0,201,36,139,0.0,202,30,223,0.0*58,1747802083000
NMEA,$BDGSV,4,4,16,203,43,189,0.0,204,27,122,0.0,205,14,246,0.0,210,78,267,0.0*66,1747802083000
NMEA,$GAGSV,1,1,4,104,1,,27.2,110,13,173,6.1,96,52,261,0.0,99,1,25,0.0*64,1747802083000
NMEA,$GPVTG,38.126,T,,M,19.674,N,36.437,K,A*3B,1747802083000
NMEA,$RD_RSSI, 676, 746, 0, 0,1747802083000
NMEA,$GPGGA,043444.000,3958.816987,N,11628.427388,E,1,16,0.889,21.858,M,0,M,,*49,1747802084000
NMEA,$GPRMC,043444.000,A,3958.816987,N,11628.427388,E,19.361,37.993,210525,,E,A*22,1747802084000
NMEA,$GPGLL,3958.816987,N,11628.427388,E,043444.000,A,A*5A,1747802084000
NMEA,$GPGSA,A,3,17,22,196,194,19,11,,,,,,,1.624,0.889,1.359*38,1747802084000
NMEA,$BDGSA,A,3,238,240,207,208,219,213,220,224,229,,,,1.624,0.889,1.359*12,1747802084000
NMEA,$GAGSA,A,3,110,,,,,,,,,,,,1.624,0.889,1.359*15,1747802084000
NMEA,$GPGSV,4,1,16,12,29,305,24.1,17,44,119,40.2,9,26,108,22.6,4,21,70,29.1*43,1747802084000
NMEA,$GPGSV,4,2,16,22,24,184,36.4,196,40,138,39.7,194,34,162,34.0,195,1,,24.2*4E,1747802084000
NMEA,$GPGSV,4,3,16,19,72,100,25.7,11,46,280,24.0,3,6,39,0.0,6,69,342,0.0*78,1747802084000
NMEA,$GPGSV,4,4,16,14,6,173,0.0,20,27,221,0.0,25,4,326,0.0,193,1,,0.0*40,1747802084000
NMEA,$BDGSV,4,1,16,238,63,205,20.7,240,72,117,26.2,207,80,185,15.1,208,53,207,10.6*6C,1747802084000
NMEA,$BDGSV,4,2,16,219,52,126,37.2,213,38,212,15.6,220,35,56,22.0,224,15,295,21.7*50,1747802084000
NMEA,$BDGSV,4,3,16,222,19,181,20.2,229,37,93,29.6,201,36,139,0.0,202,30,223,0.0*5D,1747802084000
NMEA,$BDGSV,4,4,16,203,43,189,0.0,204,27,122,0.0,205,14,246,0.0,210,78,267,0.0*66,1747802084000
NMEA,$GAGSV,2,1,5,104,1,,28.7,110,13,173,6.1,124,1,,22.5,96,52,261,0.0*69,1747802084000
NMEA,$GAGSV,2,2,5,99,1,25,0.0*45,1747802084000
NMEA,$GPVTG,37.993,T,,M,19.361,N,35.857,K,A*3A,1747802084000
NMEA,$RD_RSSI, 677, 756, 0, 0,1747802084000
NMEA,$GPGGA,043445.000,3958.821449,N,11628.432182,E,1,16,0.889,20.957,M,0,M,,*40,1747802084000
NMEA,$GPRMC,043445.000,A,3958.821449,N,11628.432182,E,20.772,38.311,210525,,E,A*27,1747802085000
NMEA,$GPGLL,3958.821449,N,11628.432182,E,043445.000,A,A*5C,1747802085000
NMEA,$GPGSA,A,3,17,22,196,194,19,11,,,,,,,1.624,0.889,1.359*38,1747802085000
NMEA,$BDGSA,A,3,238,240,207,208,219,213,220,224,229,,,,1.624,0.889,1.359*12,1747802085000
NMEA,$GAGSA,A,3,110,,,,,,,,,,,,1.624,0.889,1.359*15,1747802085000
NMEA,$GPGSV,4,1,16,12,29,305,23.8,17,44,119,41.2,9,26,108,25.2,4,21,70,28.2*4D,1747802085000
NMEA,$GPGSV,4,2,16,22,24,184,35.0,196,40,138,40.2,194,34,162,34.5,195,1,,23.8*4A,1747802085000
NMEA,$GPGSV,4,3,16,19,72,100,25.5,11,46,280,24.6,3,6,39,0.0,6,69,342,0.0*7C,1747802085000
NMEA,$GPGSV,4,4,16,14,6,173,0.0,20,27,221,0.0,25,4,326,0.0,193,1,,0.0*40,1747802085000
NMEA,$BDGSV,4,1,16,238,63,205,24.0,240,72,117,26.8,207,80,185,14.6,208,53,207,14.3*62,1747802085000
NMEA,$BDGSV,4,2,16,219,52,126,37.5,213,38,212,17.8,220,35,56,28.7,224,15,295,22.3*51,1747802085000
NMEA,$BDGSV,4,3,16,222,19,181,19.8,229,37,93,29.8,201,36,139,0.0,202,30,223,0.0*53,1747802085000
NMEA,$BDGSV,4,4,16,203,43,189,0.0,204,27,122,0.0,205,14,246,0.0,210,78,267,0.0*66,1747802085000
NMEA,$GAGSV,2,1,5,104,1,,29.2,110,13,173,6.0,124,1,,20.1,96,52,261,0.0*6A,1747802085000
NMEA,$GAGSV,2,2,5,99,1,25,0.0*45,1747802085000
NMEA,$GPVTG,38.311,T,,M,20.772,N,38.470,K,A*3D,1747802085000
NMEA,$RD_RSSI, 662, 782, 0, 0,1747802085000
NMEA,$GPGGA,043446.000,3958.826241,N,11628.437250,E,1,16,0.889,20.195,M,0,M,,*45,1747802086000
NMEA,$GPRMC,043446.000,A,3958.826241,N,11628.437250,E,20.725,37.716,210525,,E,A*2A,1747802086000
NMEA,$GPGLL,3958.826241,N,11628.437250,E,043446.000,A,A*5F,1747802086000
NMEA,$GPGSA,A,3,17,22,196,194,19,11,,,,,,,1.624,0.889,1.359*38,1747802086000
NMEA,$BDGSA,A,3,238,240,207,208,219,213,220,224,229,,,,1.624,0.889,1.359*12,1747802086000
NMEA,$GAGSA,A,3,110,,,,,,,,,,,,1.624,0.889,1.359*15,1747802086000
NMEA,$GPGSV,4,1,16,12,29,305,22.1,17,44,119,40.2,9,26,108,22.8,4,21,70,28.1*4A,1747802086000
NMEA,$GPGSV,4,2,16,22,24,184,35.5,196,40,138,39.4,194,34,162,32.9,195,1,,22.2*46,1747802086000
NMEA,$GPGSV,4,3,16,19,72,100,26.6,11,46,280,22.0,3,6,39,0.0,6,69,342,0.0*7C,1747802086000
NMEA,$GPGSV,4,4,16,14,6,173,0.0,20,27,221,0.0,25,4,326,0.0,193,1,,0.0*40,1747802086000
NMEA,$BDGSV,4,1,16,238,63,205,21.6,240,72,117,25.0,207,80,185,15.1,208,53,207,17.7*6B,1747802086000
NMEA,$BDGSV,4,2,16,219,52,126,37.4,213,38,212,18.7,220,35,56,29.8,224,15,295,22.2*5F,1747802086000
NMEA,$BDGSV,4,3,16,222,19,181,22.1,229,37,93,30.7,201,36,139,0.0,202,30,223,0.0*55,1747802086000
NMEA,$BDGSV,4,4,16,203,43,189,0.0,204,27,122,0.0,205,14,246,0.0,210,78,267,0.0*66,1747802086000
NMEA,$GAGSV,2,1,5,104,1,,28.1,110,13,173,5.5,124,1,,22.1,96,52,261,0.0*6C,1747802086000
NMEA,$GAGSV,2,2,5,99,1,25,0.0*45,1747802086000
NMEA,$GPVTG,37.716,T,,M,20.725,N,38.383,K,A*38,1747802086000
NMEA,$RD_RSSI, 661, 749, 0, 0,1747802086000
NMEA,$GPGGA,043447.000,3958.830805,N,11628.441987,E,1,16,0.889,20.173,M,0,M,,*41,1747802087000
NMEA,$GPRMC,043447.000,A,3958.830805,N,11628.441987,E,20.473,38.885,210525,,E,A*2C,1747802087000
NMEA,$GPGLL,3958.830805,N,11628.441987,E,043447.000,A,A*53,1747802087000
NMEA,$GPGSA,A,3,17,22,196,194,19,11,,,,,,,1.624,0.889,1.359*38,1747802087000
NMEA,$BDGSA,A,3,238,240,207,208,219,213,220,224,229,,,,1.624,0.889,1.359*12,1747802087000
NMEA,$GAGSA,A,3,110,,,,,,,,,,,,1.624,0.889,1.359*15,1747802087000
NMEA,$GPGSV,4,1,16,12,29,305,21.6,17,44,119,40.7,9,26,108,24.7,4,21,70,26.0*4D,1747802087000
NMEA,$GPGSV,4,2,16,22,24,184,35.2,196,40,138,39.7,194,34,162,31.2,195,1,,25.3*4C,1747802087000
NMEA,$GPGSV,4,3,16,19,72,100,25.7,11,46,280,22.0,3,6,39,0.0,6,69,342,0.0*7E,1747802087000
NMEA,$GPGSV,4,4,16,14,6,173,0.0,20,27,221,0.0,25,4,326,0.0,193,1,,0.0*40,1747802087000
NMEA,$BDGSV,4,1,16,238,63,205,21.2,240,72,117,24.0,207,80,185,15.8,208,53,207,17.7*67,1747802087000
NMEA,$BDGSV,4,2,16,219,52,126,37.7,213,38,212,19.0,220,35,56,27.3,224,15,295,22.1*5C,1747802087000
NMEA,$BDGSV,4,3,16,222,19,181,21.6,229,37,93,31.2,201,36,139,0.0,202,30,223,0.0*55,1747802087000
NMEA,$BDGSV,4,4,16,203,43,189,0.0,204,27,122,0.0,205,14,246,0.0,210,78,267,0.0*66,1747802087000
NMEA,$GAGSV,2,1,5,104,1,,26.2,110,13,173,5.8,124,1,,26.5,96,52,261,0.0*6C,1747802087000
NMEA,$GAGSV,2,2,5,99,1,25,0.0*45,1747802087000
NMEA,$GPVTG,38.885,T,,M,20.473,N,37.917,K,A*3A,1747802087000
NMEA,$RD_RSSI, 673, 751, 0, 0,1747802087000
NMEA,$GPGGA,043448.000,3958.835388,N,11628.446971,E,1,16,0.889,19.957,M,0,M,,*4F,1747802087000
NMEA,$GPRMC,043448.000,A,3958.835388,N,11628.446971,E,21.643,36.748,210525,,E,A*26,1747802088000
NMEA,$GPGLL,3958.835388,N,11628.446971,E,043448.000,A,A*59,1747802088000
NMEA,$GPGSA,A,3,17,22,196,194,19,11,,,,,,,1.624,0.889,1.359*38,1747802088000
NMEA,$BDGSA,A,3,238,240,207,208,219,213,220,224,229,,,,1.624,0.889,1.359*12,1747802088000
NMEA,$GAGSA,A,3,110,,,,,,,,,,,,1.624,0.889,1.359*15,1747802088000
NMEA,$GPGSV,4,1,16,12,29,305,21.8,17,44,119,41.2,9,26,108,27.2,4,21,70,27.2*42,1747802088000
NMEA,$GPGSV,4,2,16,22,23,184,33.9,196,40,138,40.5,194,34,162,30.7,195,1,,21.8*41,1747802088000
NMEA,$GPGSV,4,3,16,19,72,100,27.3,11,46,280,22.3,3,6,39,0.0,6,69,343,0.0*7A,1747802088000
NMEA,$GPGSV,4,4,16,14,6,173,0.0,20,27,221,0.0,25,4,326,0.0,193,1,,0.0*40,1747802088000
NMEA,$BDGSV,4,1,16,238,63,205,23.6,240,72,117,25.6,207,80,185,15.3,208,53,207,17.7*6D,1747802088000
NMEA,$BDGSV,4,2,16,219,52,126,37.5,213,38,212,19.0,220,35,56,26.8,224,15,295,22.0*55,1747802088000
NMEA,$BDGSV,4,3,16,222,19,181,21.7,229,37,93,29.2,201,36,139,0.0,202,30,223,0.0*5D,1747802088000
NMEA,$BDGSV,4,4,16,203,43,189,0.0,204,27,122,0.0,205,14,246,0.0,210,78,267,0.0*66,1747802088000
NMEA,$GAGSV,2,1,5,104,1,,25.7,110,13,173,6.0,124,1,,26.1,96,52,261,0.0*65,1747802088000
NMEA,$GAGSV,2,2,5,99,1,25,0.0*45,1747802088000
NMEA,$GPVTG,36.748,T,,M,21.643,N,40.083,K,A*3E,1747802088000
NMEA,$RD_RSSI, 706, 765, 0, 0,1747802088000
NMEA,$GPGGA,043449.000,3958.840191,N,11628.451880,E,1,16,0.889,20.102,M,0,M,,*4D,1747802089000
NMEA,$GPRMC,043449.000,A,3958.840191,N,11628.451880,E,23.373,37.699,210525,,E,A*2E,1747802089000
NMEA,$GPGLL,3958.840191,N,11628.451880,E,043449.000,A,A*59,1747802089000
NMEA,$GPGSA,A,3,17,22,196,194,19,11,,,,,,,1.624,0.889,1.358*39,1747802089000
NMEA,$BDGSA,A,3,238,240,207,208,219,213,220,224,229,,,,1.624,0.889,1.358*13,1747802089000
NMEA,$GAGSA,A,3,110,,,,,,,,,,,,1.624,0.889,1.358*14,1747802089000
NMEA,$GPGSV,4,1,16,12,29,305,22.7,17,44,119,40.7,9,26,108,26.2,4,21,70,27.5*4C,1747802089000
NMEA,$GPGSV,4,2,16,22,23,184,32.0,196,40,138,40.4,194,34,162,31.2,195,1,,20.2*47,1747802089000
NMEA,$GPGSV,4,3,16,19,72,100,25.2,11,46,280,22.6,3,6,39,0.0,6,69,343,0.0*7C,1747802089000
NMEA,$GPGSV,4,4,16,14,6,173,0.0,20,27,221,0.0,25,4,326,0.0,193,1,,0.0*40,1747802089000
NMEA,$BDGSV,4,1,16,238,63,205,21.2,240,72,117,26.2,207,80,185,15.5,208,53,207,18.0*62,1747802089000
NMEA,$BDGSV,4,2,16,219,52,126,37.7,213,38,212,18.7,220,35,56,27.0,224,15,295,21.7*5C,1747802089000
NMEA,$BDGSV,4,3,16,222,19,181,24.6,229,37,93,30.3,201,36,139,0.0,202,30,223,0.0*50,1747802089000
NMEA,$BDGSV,4,4,16,203,43,189,0.0,204,27,122,0.0,205,14,246,0.0,210,78,267,0.0*66,1747802089000
NMEA,$GAGSV,2,1,5,104,1,,24.6,110,13,173,14.8,124,1,,30.0,96,52,261,0.0*58,1747802089000
NMEA,$GAGSV,2,2,5,99,1,25,0.0*45,1747802089000
NMEA,$GPVTG,37.699,T,,M,23.373,N,43.287,K,A*33,1747802089000
NMEA,$RD_RSSI, 677, 795, 0, 0,1747802089000
NMEA,$GPGGA,043450.000,3958.845326,N,11628.457159,E,1,16,0.889,20.717,M,0,M,,*47,1747802090000
NMEA,$GPRMC,043450.000,A,3958.845326,N,11628.457159,E,24.525,39.245,210525,,E,A*2F,1747802090000
NMEA,$GPGLL,3958.845326,N,11628.457159,E,043450.000,A,A*51,1747802090000
NMEA,$GPGSA,A,3,17,22,196,194,19,11,,,,,,,1.624,0.889,1.358*39,1747802090000
NMEA,$BDGSA,A,3,238,240,207,208,219,213,220,224,229,,,,1.624,0.889,1.358*13,1747802090000
NMEA,$GAGSA,A,3,110,,,,,,,,,,,,1.624,0.889,1.358*14,1747802090000
NMEA,$GPGSV,4,1,16,12,29,305,20.2,17,44,119,39.7,9,26,108,24.3,4,21,70,29.8*45,1747802090000
NMEA,$GPGSV,4,2,16,22,23,184,32.9,196,40,138,40.0,194,34,162,31.2,195,1,,19.2*40,1747802090000
NMEA,$GPGSV,4,3,16,19,72,100,27.0,11,46,280,23.3,3,6,39,0.0,6,69,343,0.0*78,1747802090000
NMEA,$GPGSV,4,4,16,14,6,173,0.0,20,27,221,0.0,25,4,326,0.0,193,1,,0.0*40,1747802090000
NMEA,$BDGSV,4,1,16,238,63,205,21.0,240,72,117,24.5,207,80,185,15.1,208,53,207,17.7*69,1747802090000
NMEA,$BDGSV,4,2,16,219,52,126,38.0,213,38,212,19.1,220,35,56,23.1,224,15,295,24.7*53,1747802090000
NMEA,$BDGSV,4,3,16,222,19,181,22.7,229,37,93,28.5,201,36,139,0.0,202,30,223,0.0*58,1747802090000
NMEA,$BDGSV,4,4,16,203,43,189,0.0,204,27,122,0.0,205,14,246,0.0,210,78,267,0.0*66,1747802090000
NMEA,$GAGSV,2,1,5,104,1,,25.7,110,13,173,13.0,124,1,,28.7,96,52,261,0.0*59,1747802090000
NMEA,$GAGSV,2,2,5,99,1,25,0.0*45,1747802090000
NMEA,$GPVTG,39.245,T,,M,24.525,N,45.421,K,A*36,1747802090000
NMEA,$RD_RSSI, 700, 791, 0, 0,1747802090000
NMEA,$GPGGA,043451.000,3958.850610,N,11628.462840,E,1,16,0.889,20.235,M,0,M,,*40,1747802091000
NMEA,$GPRMC,043451.000,A,3958.850610,N,11628.462840,E,26.233,39.809,210525,,E,A*2D,1747802091000
NMEA,$GPGLL,3958.850610,N,11628.462840,E,043451.000,A,A*53,1747802091000
NMEA,$GPGSA,A,3,17,22,196,194,19,11,,,,,,,1.624,0.889,1.358*39,1747802091000
NMEA,$BDGSA,A,3,238,240,207,208,219,213,220,224,229,,,,1.624,0.889,1.358*13,1747802091000
NMEA,$GAGSA,A,3,110,,,,,,,,,,,,1.624,0.889,1.358*14,1747802091000
NMEA,$GPGSV,4,1,16,12,29,305,19.7,17,44,119,40.0,9,26,108,24.5,4,21,70,29.8*45,1747802091000
NMEA,$GPGSV,4,2,16,22,23,184,34.0,196,40,138,40.0,194,34,162,32.9,195,1,,22.8*45,1747802091000
NMEA,$GPGSV,4,3,16,19,72,100,27.6,11,46,280,22.1,3,6,39,0.0,6,69,343,0.0*7D,1747802091000
NMEA,$GPGSV,4,4,16,14,6,173,0.0,20,27,221,0.0,25,4,326,0.0,193,1,,0.0*40,1747802091000
NMEA,$BDGSV,4,1,16,238,63,205,20.7,240,72,117,26.1,207,80,185,15.0,208,53,207,17.6*69,1747802091000
NMEA,$BDGSV,4,2,16,219,52,126,38.0,213,38,212,19.1,220,35,56,21.8,224,15,295,22.0*59,1747802091000
NMEA,$BDGSV,4,3,16,222,19,181,23.3,229,37,93,26.5,201,36,139,0.0,202,30,223,0.0*53,1747802091000
NMEA,$BDGSV,4,4,16,203,43,189,0.0,204,27,122,0.0,205,14,246,0.0,210,78,266,0.0*67,1747802091000
NMEA,$GAGSV,2,1,5,104,1,,26.1,110,13,173,12.5,124,1,,27.3,96,52,261,0.0*53,1747802091000
NMEA,$GAGSV,2,2,5,99,1,25,0.0*45,1747802091000
NMEA,$GPVTG,39.809,T,,M,26.233,N,48.583,K,A*32,1747802091000
NMEA,$RD_RSSI, 665, 755, 0, 0,1747802091000
NMEA,$GPGGA,043452.000,3958.856276,N,11628.469178,E,1,15,0.889,19.509,M,0,M,,*49,1747802091000
NMEA,$GPRMC,043452.000,A,3958.856276,N,11628.469178,E,27.222,40.292,210525,,E,A*22,1747802092000
NMEA,$GPGLL,3958.856276,N,11628.469178,E,043452.000,A,A*5B,1747802092000
NMEA,$GPGSA,A,3,17,22,196,194,19,11,,,,,,,1.623,0.889,1.358*3E,1747802092000
NMEA,$BDGSA,A,3,238,240,207,208,219,213,220,224,229,,,,1.623,0.889,1.358*14,1747802092000
NMEA,$GAGSA,A,3,,,,,,,,,,,,,1.623,0.889,1.358*23,1747802092000
NMEA,$GPGSV,4,1,16,12,29,305,19.5,17,44,119,39.9,9,27,108,25.2,4,21,70,30.3*44,1747802092000
NMEA,$GPGSV,4,2,16,22,23,184,34.7,196,40,138,39.9,194,34,162,33.0,195,1,,20.6*41,1747802092000
NMEA,$GPGSV,4,3,16,19,71,100,26.5,11,46,280,22.7,3,6,39,0.0,6,69,343,0.0*7A,1747802092000
NMEA,$GPGSV,4,4,16,14,6,173,0.0,20,27,221,0.0,25,4,326,0.0,193,1,,0.0*40,1747802092000
NMEA,$BDGSV,4,1,16,238,63,205,20.6,240,72,117,27.2,207,80,185,15.6,208,53,207,17.6*6C,1747802092000
NMEA,$BDGSV,4,2,16,219,52,126,38.0,213,38,212,18.7,220,35,56,23.0,224,15,295,21.7*50,1747802092000
NMEA,$BDGSV,4,3,16,222,19,181,23.1,229,37,93,26.5,201,36,139,0.0,202,30,223,0.0*51,1747802092000
NMEA,$BDGSV,4,4,16,203,43,189,0.0,204,27,122,0.0,205,14,246,0.0,210,78,266,0.0*67,1747802092000
NMEA,$GAGSV,2,1,5,104,1,,26.2,124,1,,27.5,96,52,261,0.0,99,1,25,0.0*51,1747802092000
NMEA,$GAGSV,2,2,5,110,13,173,0.0*74,1747802092000
NMEA,$GPVTG,40.292,T,,M,27.222,N,50.416,K,A*31,1747802092000
NMEA,$RD_RSSI, 670, 751, 0, 0,1747802092000
NMEA,$GPGGA,043453.000,3958.862292,N,11628.475888,E,1,15,0.889,18.948,M,0,M,,*46,1747802093000
NMEA,$GPRMC,043453.000,A,3958.862292,N,11628.475888,E,27.342,40.816,210525,,E,A*24,1747802093000
NMEA,$GPGLL,3958.862292,N,11628.475888,E,043453.000,A,A*5C,1747802093000
NMEA,$GPGSA,A,3,17,22,196,194,19,11,,,,,,,1.623,0.889,1.358*3E,1747802093000
NMEA,$BDGSA,A,3,238,240,207,208,219,213,220,224,229,,,,1.623,0.889,1.358*14,1747802093000
NMEA,$GAGSA,A,3,,,,,,,,,,,,,1.623,0.889,1.358*23,1747802093000
NMEA,$GPGSV,4,1,16,12,29,305,19.7,17,44,119,39.7,9,27,108,26.7,4,21,70,29.6*43,1747802093000
NMEA,$GPGSV,4,2,16,22,23,184,35.0,196,40,138,40.2,194,34,162,32.7,195,1,,20.2*40,1747802093000
NMEA,$GPGSV,4,3,16,19,71,100,26.8,11,46,280,22.1,3,6,39,0.0,6,69,343,0.0*71,1747802093000
NMEA,$GPGSV,4,4,16,14,6,173,0.0,20,27,221,0.0,25,4,326,0.0,193,1,,0.0*40,1747802093000
NMEA,$BDGSV,4,1,16,238,63,205,20.3,240,72,117,27.2,207,80,185,16.5,208,53,207,18.2*62,1747802093000
NMEA,$BDGSV,4,2,16,219,52,126,37.9,213,38,212,18.5,220,35,56,24.0,224,15,295,21.5*51,1747802093000
NMEA,$BDGSV,4,3,16,222,19,181,22.8,229,37,93,26.2,201,36,139,0.0,202,30,223,0.0*5E,1747802093000
NMEA,$BDGSV,4,4,16,203,43,189,0.0,204,27,122,0.0,205,14,246,0.0,210,78,266,0.0*67,1747802093000
NMEA,$GAGSV,2,1,5,104,1,,26.3,124,1,,27.0,96,52,261,0.0,99,1,25,0.0*55,1747802093000
NMEA,$GAGSV,2,2,5,110,13,173,0.0*74,1747802093000
NMEA,$GPVTG,40.816,T,,M,27.342,N,50.637,K,A*31,1747802093000
NMEA,$RD_RSSI, 680, 802, 0, 0,1747802093000
NMEA,$GPGGA,043454.000,3958.868108,N,11628.482751,E,1,15,0.889,18.143,M,0,M,,*4B,1747802094000
NMEA,$GPRMC,043454.000,A,3958.868108,N,11628.482751,E,27.474,41.361,210525,,E,A*22,1747802094000
NMEA,$GPGLL,3958.868108,N,11628.482751,E,043454.000,A,A*52,1747802094000
NMEA,$GPGSA,A,3,17,22,196,194,19,11,,,,,,,1.623,0.889,1.358*3E,1747802094000
NMEA,$BDGSA,A,3,238,240,207,208,219,213,220,224,229,,,,1.623,0.889,1.358*14,1747802094000
NMEA,$GAGSA,A,3,,,,,,,,,,,,,1.623,0.889,1.358*23,1747802094000
NMEA,$GPGSV,4,1,16,12,29,305,19.3,17,44,119,40.7,9,27,108,26.2,4,21,70,29.3*49,1747802094000
NMEA,$GPGSV,4,2,16,22,23,184,35.4,196,40,138,39.9,194,34,162,31.2,195,1,,20.1*44,1747802094000
NMEA,$GPGSV,4,3,16,19,71,100,26.6,11,46,280,21.8,3,6,39,0.0,6,69,343,0.0*75,1747802094000
NMEA,$GPGSV,4,4,16,14,6,173,0.0,20,27,221,0.0,25,4,326,0.0,193,1,,0.0*40,1747802094000
NMEA,$BDGSV,4,1,16,238,63,205,20.3,240,72,117,26.0,207,80,185,17.0,208,53,207,18.2*65,1747802094000
NMEA,$BDGSV,4,2,16,219,52,126,38.5,213,38,212,18.3,220,35,56,23.0,224,15,295,21.2*54,1747802094000
NMEA,$BDGSV,4,3,16,222,19,181,21.8,229,37,93,26.8,201,36,139,0.0,202,30,223,0.0*57,1747802094000
NMEA,$BDGSV,4,4,16,203,43,189,0.0,204,27,122,0.0,205,14,246,0.0,210,78,266,0.0*67,1747802094000
NMEA,$GAGSV,2,1,5,104,1,,26.5,124,1,,27.7,96,52,261,0.0,99,1,25,0.0*54,1747802094000
NMEA,$GAGSV,2,2,5,110,13,173,0.0*74,1747802094000
NMEA,$GPVTG,41.361,T,,M,27.474,N,50.882,K,A*39,1747802094000
NMEA,$RD_RSSI, 683, 749, 0, 0,1747802094000
NMEA,$GPGGA,043455.000,3958.873556,N,11628.489315,E,1,15,0.889,18.196,M,0,M,,*48,1747802095000
NMEA,$GPRMC,043455.000,A,3958.873556,N,11628.489315,E,26.079,41.712,210525,,E,A*21,1747802095000
NMEA,$GPGLL,3958.873556,N,11628.489315,E,043455.000,A,A*59,1747802095000
NMEA,$GPGSA,A,3,17,22,196,194,19,11,,,,,,,1.623,0.889,1.358*3E,1747802095000
NMEA,$BDGSA,A,3,238,240,207,208,219,213,220,224,229,,,,1.623,0.889,1.358*14,1747802095000
NMEA,$GAGSA,A,3,,,,,,,,,,,,,1.623,0.889,1.358*23,1747802095000
NMEA,$GPGSV,4,1,16,12,29,305,19.7,17,44,119,40.4,9,27,108,26.8,4,21,70,30.3*4C,1747802095000
NMEA,$GPGSV,4,2,16,22,23,184,34.7,196,40,138,40.0,194,34,162,31.5,195,1,,20.3*44,1747802095000
NMEA,$GPGSV,4,3,16,19,71,100,26.3,11,46,280,21.7,3,6,39,0.0,6,69,343,0.0*7F,1747802095000
NMEA,$GPGSV,4,4,16,14,6,173,0.0,20,27,221,0.0,25,4,326,0.0,193,1,,0.0*40,1747802095000
NMEA,$BDGSV,4,1,16,238,63,205,20.2,240,72,117,26.2,207,80,185,16.8,208,53,207,18.5*68,1747802095000
NMEA,$BDGSV,4,2,16,219,52,126,38.5,213,38,212,21.5,220,35,56,24.6,224,15,295,14.8*55,1747802095000
NMEA,$BDGSV,4,3,16,222,19,181,22.7,229,37,93,27.2,201,36,139,0.0,202,30,223,0.0*50,1747802095000
NMEA,$BDGSV,4,4,16,203,43,189,0.0,204,27,122,0.0,205,14,246,0.0,210,78,266,0.0*67,1747802095000
NMEA,$GAGSV,2,1,5,104,1,,26.2,124,1,,27.2,96,52,261,0.0,99,1,25,0.0*56,1747802095000
NMEA,$GAGSV,2,2,5,110,13,173,0.0*74,1747802095000
NMEA,$GPVTG,41.712,T,,M,26.079,N,48.299,K,A*38,1747802095000
NMEA,$RD_RSSI, 676, 789, 0, 0,1747802095000
NMEA,$GPGGA,043456.000,3958.878759,N,11628.495939,E,1,15,0.889,17.051,M,0,M,,*41,1747802095000
NMEA,$GPRMC,043456.000,A,3958.878759,N,11628.495939,E,24.497,40.715,210525,,E,A*2D,1747802096000
NMEA,$GPGLL,3958.878759,N,11628.495939,E,043456.000,A,A*55,1747802096000
NMEA,$GPGSA,A,3,17,22,196,194,19,11,,,,,,,1.623,0.889,1.357*31,1747802096000
NMEA,$BDGSA,A,3,238,240,207,208,219,213,220,224,229,,,,1.623,0.889,1.357*1B,1747802096000
NMEA,$GAGSA,A,3,,,,,,,,,,,,,1.623,0.889,1.357*2C,1747802096000
NMEA,$GPGSV,4,1,16,12,29,305,19.7,17,44,119,40.0,9,27,108,25.1,4,21,70,30.6*47,1747802096000
NMEA,$GPGSV,4,2,16,22,23,184,36.4,196,40,138,39.7,194,34,162,31.5,195,1,,20.5*4A,1747802096000
NMEA,$GPGSV,4,3,16,19,71,100,24.7,11,46,280,17.2,3,6,39,0.0,6,69,343,0.0*79,1747802096000
NMEA,$GPGSV,4,4,16,14,6,173,0.0,20,27,221,0.0,25,4,326,0.0,193,1,,0.0*40,1747802096000
NMEA,$BDGSV,4,1,16,238,63,205,20.2,240,72,117,24.8,207,80,185,16.7,208,53,207,18.3*69,1747802096000
NMEA,$BDGSV,4,2,16,219,52,125,38.7,213,38,212,18.7,220,35,56,25.8,224,15,295,15.1*5B,1747802096000
NMEA,$BDGSV,4,3,16,222,19,181,23.5,229,37,93,25.2,201,36,139,0.0,202,30,223,0.0*51,1747802096000
NMEA,$BDGSV,4,4,16,203,43,189,0.0,204,27,122,0.0,205,14,246,0.0,210,78,266,0.0*67,1747802096000
NMEA,$GAGSV,2,1,5,104,1,,25.8,124,1,,28.5,96,52,261,0.0,99,1,25,0.0*57,1747802096000
NMEA,$GAGSV,2,2,5,110,13,173,0.0*74,1747802096000
NMEA,$GPVTG,40.715,T,,M,24.497,N,45.370,K,A*33,1747802096000
NMEA,$RD_RSSI, 683, 788, 0, 0,1747802096000
NMEA,$GPGGA,043457.000,3958.883848,N,11628.502109,E,1,15,0.889,15.928,M,0,M,,*4A,1747802096000
NMEA,$GPRMC,043457.000,A,3958.883848,N,11628.502109,E,22.047,39.311,210525,,E,A*22,1747802097000
NMEA,$GPGLL,3958.883848,N,11628.502109,E,043457.000,A,A*5B,1747802097000
NMEA,$GPGSA,A,3,17,22,196,194,19,11,,,,,,,1.623,0.889,1.357*31,1747802097000
NMEA,$BDGSA,A,3,238,240,207,208,219,213,220,224,229,,,,1.623,0.889,1.357*1B,1747802097000
NMEA,$GAGSA,A,3,,,,,,,,,,,,,1.623,0.889,1.357*2C,1747802097000
NMEA,$GPGSV,4,1,16,12,29,305,20.1,17,44,119,40.2,9,27,108,28.1,4,21,70,31.5*46,1747802097000
NMEA,$GPGSV,4,2,16,22,23,184,35.9,196,40,138,39.5,194,34,162,31.2,195,1,,22.6*40,1747802097000
NMEA,$GPGSV,4,3,16,19,71,100,25.3,11,46,280,17.8,3,6,39,0.0,6,69,343,0.0*76,1747802097000
NMEA,$GPGSV,4,4,16,14,6,173,0.0,20,27,221,0.0,25,4,326,0.0,193,1,,0.0*40,1747802097000
NMEA,$BDGSV,4,1,16,238,63,205,20.2,240,72,117,25.2,207,80,185,16.6,208,53,207,18.2*62,1747802097000
NMEA,$BDGSV,4,2,16,219,52,125,38.5,213,38,212,19.5,220,35,56,24.3,224,15,295,15.3*52,1747802097000
NMEA,$BDGSV,4,3,16,222,19,181,21.7,229,37,93,28.0,201,36,139,0.0,202,30,223,0.0*5E,1747802097000
NMEA,$BDGSV,4,4,16,203,43,189,0.0,204,27,122,0.0,205,14,246,0.0,210,78,266,0.0*67,1747802097000
NMEA,$GAGSV,2,1,5,104,1,,26.2,124,1,,28.2,96,52,261,0.0,99,1,25,0.0*59,1747802097000
NMEA,$GAGSV,2,2,5,110,13,173,0.0*74,1747802097000
NMEA,$GPVTG,39.311,T,,M,22.047,N,40.831,K,A*39,1747802097000
NMEA,$RD_RSSI, 684, 775, 0, 0,1747802097000
NMEA,$GPGGA,043458.000,3958.888370,N,11628.506998,E,1,16,0.889,15.892,M,0,M,,*49,1747802098000
NMEA,$GPRMC,043458.000,A,3958.888370,N,11628.506998,E,19.209,41.585,210525,,E,A*26,1747802098000
NMEA,$GPGLL,3958.888370,N,11628.506998,E,043458.000,A,A*5B,1747802098000
NMEA,$GPGSA,A,3,17,22,196,194,19,11,,,,,,,1.623,0.889,1.357*31,1747802098000
NMEA,$BDGSA,A,3,238,240,207,208,219,213,220,224,229,,,,1.623,0.889,1.357*1B,1747802098000
NMEA,$GAGSA,A,3,110,,,,,,,,,,,,1.623,0.889,1.357*1C,1747802098000
NMEA,$GPGSV,4,1,16,12,29,305,20.1,17,44,119,39.9,9,27,108,27.1,4,21,70,31.7*4E,1747802098000
NMEA,$GPGSV,4,2,16,22,23,184,35.4,196,40,138,39.7,194,34,162,31.2,195,1,,22.0*49,1747802098000
NMEA,$GPGSV,4,3,16,19,71,100,25.1,11,46,280,17.2,3,6,39,0.0,6,69,343,0.0*7E,1747802098000
NMEA,$GPGSV,4,4,16,14,6,173,0.0,20,27,221,0.0,25,4,326,0.0,193,1,,0.0*40,1747802098000
NMEA,$BDGSV,4,1,16,238,63,205,20.1,240,72,117,24.1,207,80,185,16.3,208,53,207,13.6*69,1747802098000
NMEA,$BDGSV,4,2,16,219,52,125,37.9,213,38,212,19.3,220,35,56,24.7,224,15,295,14.3*52,1747802098000
NMEA,$BDGSV,4,3,16,222,19,181,24.7,229,37,93,28.6,201,36,139,0.0,202,30,223,0.0*5D,1747802098000
NMEA,$BDGSV,4,4,16,203,43,189,0.0,204,27,122,0.0,205,14,246,0.0,210,78,266,0.0*67,1747802098000
NMEA,$GAGSV,2,1,5,104,1,,26.7,110,13,173,8.3,124,1,,27.6,96,52,261,0.0*6D,1747802098000
NMEA,$GAGSV,2,2,5,99,1,25,0.0*45,1747802098000
NMEA,$GPVTG,41.585,T,,M,19.209,N,35.576,K,A*31,1747802098000
NMEA,$RD_RSSI, 693, 768, 0, 0,1747802098000
NMEA,$GPGGA,043459.000,3958.891807,N,11628.512368,E,1,16,0.889,15.793,M,0,M,,*45,1747802099000
NMEA,$GPRMC,043459.000,A,3958.891807,N,11628.512368,E,16.921,42.901,210525,,E,A*29,1747802099000
NMEA,$GPGLL,3958.891807,N,11628.512368,E,043459.000,A,A*59,1747802099000
NMEA,$GPGSA,A,3,17,22,196,194,19,11,,,,,,,1.623,0.889,1.357*31,1747802099000
NMEA,$BDGSA,A,3,238,240,207,208,219,213,220,224,229,,,,1.623,0.889,1.357*1B,1747802099000
NMEA,$GAGSA,A,3,110,,,,,,,,,,,,1.623,0.889,1.357*1C,1747802099000
NMEA,$GPGSV,4,1,16,12,29,305,22.5,17,44,119,40.0,9,27,108,26.7,4,21,70,32.2*4E,1747802099000
NMEA,$GPGSV,4,2,16,22,23,184,35.5,196,40,138,39.5,194,34,162,31.8,195,1,,20.7*45,1747802099000
NMEA,$GPGSV,4,3,16,19,71,100,24.7,11,46,280,22.0,3,6,39,0.0,6,69,343,0.0*7D,1747802099000
NMEA,$GPGSV,4,4,16,14,6,173,0.0,20,27,221,0.0,25,4,326,0.0,193,1,,0.0*40,1747802099000
NMEA,$BDGSV,4,1,16,238,63,205,20.1,240,72,117,24.3,207,80,185,16.3,208,53,207,12.8*64,1747802099000
NMEA,$BDGSV,4,2,16,219,52,125,37.7,213,38,212,18.7,220,35,56,24.8,224,15,295,14.3*56,1747802099000
NMEA,$BDGSV,4,3,16,222,19,181,22.7,229,37,93,28.7,201,36,139,0.0,202,30,223,0.0*5A,1747802099000
NMEA,$BDGSV,4,4,16,203,43,189,0.0,204,27,122,0.0,205,14,246,0.0,210,78,266,0.0*67,1747802099000
NMEA,$GAGSV,2,1,5,104,1,,26.7,110,13,173,7.5,124,1,,27.7,96,52,261,0.0*65,1747802099000
NMEA,$GAGSV,2,2,5,99,1,25,0.0*45,1747802099000
NMEA,$GPVTG,42.901,T,,M,16.921,N,31.339,K,A*35,1747802099000
NMEA,$RD_RSSI, 669, 807, 0, 0,1747802099000
NMEA,$GPGGA,043500.000,3958.894823,N,11628.516868,E,1,15,0.889,15.294,M,0,M,,*45,1747802099000
NMEA,$GPRMC,043500.000,A,3958.894823,N,11628.516868,E,15.248,43.236,210525,,E,A*21,1747802100000
NMEA,$GPGLL,3958.894823,N,11628.516868,E,043500.000,A,A*58,1747802100000
NMEA,$GPGSA,A,3,17,22,196,194,19,11,,,,,,,1.623,0.889,1.357*31,1747802100000
NMEA,$BDGSA,A,3,238,240,207,208,219,213,220,224,229,,,,1.623,0.889,1.357*1B,1747802100000
NMEA,$GAGSA,A,3,,,,,,,,,,,,,1.623,0.889,1.357*2C,1747802100000
NMEA,$GPGSV,4,1,16,12,29,305,22.3,17,44,119,39.7,9,27,108,22.7,4,21,70,32.0*47,1747802100000
NMEA,$GPGSV,4,2,16,22,23,184,37.0,196,40,138,38.7,194,34,162,32.0,195,1,,20.6*4B,1747802100000
NMEA,$GPGSV,4,3,16,19,71,100,23.6,11,46,280,24.1,3,6,39,0.0,6,69,343,0.0*7C,1747802100000
NMEA,$GPGSV,4,4,16,14,6,173,0.0,20,27,221,0.0,25,4,326,0.0,193,1,,0.0*40,1747802100000
NMEA,$BDGSV,4,1,16,238,63,205,20.1,240,72,117,25.8,207,80,185,16.3,208,53,207,12.3*65,1747802100000
NMEA,$BDGSV,4,2,16,219,52,125,37.2,213,38,212,18.7,220,35,56,25.5,224,15,295,14.1*5D,1747802100000
NMEA,$BDGSV,4,3,16,222,19,181,22.7,229,37,93,29.5,201,36,139,0.0,202,30,223,0.0*59,1747802100000
NMEA,$BDGSV,4,4,16,203,43,189,0.0,204,27,122,0.0,205,14,246,0.0,210,78,266,0.0*67,1747802100000
NMEA,$GAGSV,2,1,5,104,1,,28.8,110,13,173,5.3,124,1,,27.0,96,52,261,0.0*67,1747802100000
NMEA,$GAGSV,2,2,5,99,1,25,0.0*45,1747802100000
NMEA,$GPVTG,43.236,T,,M,15.248,N,28.240,K,A*3B,1747802100000
NMEA,$RD_RSSI, 658, 763, 0, 0,1747802100000
NMEA,$GPGGA,043501.000,3958.897445,N,11628.520913,E,1,15,0.889,14.748,M,0,M,,*46,1747802101000
NMEA,$GPRMC,043501.000,A,3958.897445,N,11628.520913,E,14.013,41.317,210525,,E,A*2A,1747802101000
NMEA,$GPGLL,3958.897445,N,11628.520913,E,043501.000,A,A*5E,1747802101000
NMEA,$GPGSA,A,3,17,22,196,194,19,11,,,,,,,1.622,0.889,1.357*30,1747802101000
NMEA,$BDGSA,A,3,238,240,207,208,219,213,220,224,229,,,,1.622,0.889,1.357*1A,1747802101000
NMEA,$GAGSA,A,3,,,,,,,,,,,,,1.622,0.889,1.357*2D,1747802101000
NMEA,$GPGSV,4,1,16,12,29,305,20.7,17,44,119,40.0,9,27,108,25.6,4,21,70,31.7*4A,1747802101000
NMEA,$GPGSV,4,2,16,22,23,184,37.7,196,40,138,39.4,194,34,162,32.0,195,1,,20.5*4D,1747802101000
NMEA,$GPGSV,4,3,16,19,71,100,26.2,11,46,280,23.6,3,6,39,0.0,6,69,343,0.0*7D,1747802101000
NMEA,$GPGSV,4,4,16,14,6,173,0.0,20,27,221,0.0,25,4,326,0.0,193,1,,0.0*40,1747802101000
NMEA,$BDGSV,4,1,16,238,63,205,20.2,240,72,117,25.2,207,80,185,16.2,208,53,207,11.8*65,1747802101000
NMEA,$BDGSV,4,2,16,219,52,125,37.7,213,38,212,18.7,220,35,56,24.6,224,15,295,13.8*54,1747802101000
NMEA,$BDGSV,4,3,16,222,19,181,22.5,229,37,93,27.3,201,36,139,0.0,202,30,223,0.0*53,1747802101000
NMEA,$BDGSV,4,4,16,203,43,189,0.0,204,27,122,0.0,205,14,246,0.0,210,78,266,0.0*67,1747802101000
NMEA,$GAGSV,2,1,5,104,1,,27.2,124,1,,24.6,96,52,261,0.0,99,1,25,0.0*50,1747802101000
NMEA,$GAGSV,2,2,5,110,13,173,0.0*74,1747802101000
NMEA,$GPVTG,41.317,T,,M,14.013,N,25.953,K,A*32,1747802101000
NMEA,$RD_RSSI, 682, 759, 0, 0,1747802101000
NMEA,$GPGGA,043502.000,3958.900093,N,11628.524364,E,1,15,0.889,14.204,M,0,M,,*46,1747802101000
NMEA,$GPRMC,043502.000,A,3958.900093,N,11628.524364,E,13.134,41.753,210525,,E,A*20,1747802102000
NMEA,$GPGLL,3958.900093,N,11628.524364,E,043502.000,A,A*53,1747802102000
NMEA,$GPGSA,A,3,17,22,196,194,19,11,,,,,,,1.622,0.889,1.357*30,1747802102000
NMEA,$BDGSA,A,3,238,240,207,208,219,213,220,224,229,,,,1.622,0.889,1.357*1A,1747802102000
NMEA,$GAGSA,A,3,,,,,,,,,,,,,1.622,0.889,1.357*2D,1747802102000
NMEA,$GPGSV,4,1,16,12,29,305,20.7,17,44,119,41.0,9,27,108,27.2,4,21,70,30.2*49,1747802102000
NMEA,$GPGSV,4,2,16,22,23,184,36.2,196,40,138,39.5,194,34,162,30.7,195,1,,20.6*4E,1747802102000
NMEA,$GPGSV,4,3,16,19,71,100,26.7,11,46,280,18.7,3,6,39,0.0,6,69,343,0.0*71,1747802102000
NMEA,$GPGSV,4,4,16,14,6,173,0.0,20,27,221,0.0,25,4,326,0.0,193,1,,0.0*40,1747802102000
NMEA,$BDGSV,4,1,16,238,63,205,20.2,240,72,117,25.7,207,80,185,16.1,208,53,208,11.6*62,1747802102000
NMEA,$BDGSV,4,2,16,219,52,125,38.0,213,38,212,14.8,220,35,56,25.1,224,15,295,14.3*55,1747802102000
NMEA,$BDGSV,4,3,16,222,19,181,22.8,229,37,93,29.3,201,36,139,0.0,202,30,223,0.0*50,1747802102000
NMEA,$BDGSV,4,4,16,203,43,189,0.0,204,27,122,0.0,205,14,246,0.0,210,78,266,0.0*67,1747802102000
NMEA,$GAGSV,2,1,5,104,1,,25.5,124,1,,29.2,96,52,261,0.0,99,1,25,0.0*5C,1747802102000
NMEA,$GAGSV,2,2,5,110,13,173,0.0*74,1747802102000
NMEA,$GPVTG,41.753,T,,M,13.134,N,24.324,K,A*3E,1747802102000
NMEA,$RD_RSSI, 682, 771, 0, 0,1747802102000
NMEA,$GPGGA,043503.000,3958.902520,N,11628.527606,E,1,14,0.922,13.423,M,0,M,,*4F,1747802103000
NMEA,$GPRMC,043503.000,A,3958.902520,N,11628.527606,E,11.130,42.711,210525,,E,A*2F,1747802103000
NMEA,$GPGLL,3958.902520,N,11628.527606,E,043503.000,A,A*5F,1747802103000
NMEA,$GPGSA,A,3,17,22,196,194,19,11,,,,,,,1.652,0.922,1.371*33,1747802103000
NMEA,$BDGSA,A,3,238,240,207,219,213,220,224,229,,,,,1.652,0.922,1.371*23,1747802103000
NMEA,$GAGSA,A,3,,,,,,,,,,,,,1.652,0.922,1.371*2E,1747802103000
NMEA,$GPGSV,4,1,16,12,29,305,20.7,17,44,119,39.9,9,27,108,27.1,4,21,70,29.3*45,1747802103000
NMEA,$GPGSV,4,2,16,22,23,184,36.4,196,40,138,38.7,194,34,162,31.5,195,1,,23.0*4D,1747802103000
NMEA,$GPGSV,4,3,16,19,71,100,26.1,11,46,280,23.1,3,6,39,0.0,6,69,343,0.0*79,1747802103000
NMEA,$GPGSV,4,4,16,14,6,173,0.0,20,27,221,0.0,25,4,326,0.0,193,1,,0.0*40,1747802103000
NMEA,$BDGSV,4,1,16,238,63,205,20.1,240,72,117,23.8,207,80,185,16.1,219,52,125,38.0*68,1747802103000
NMEA,$BDGSV,4,2,16,213,38,212,18.5,220,35,56,25.7,224,15,295,14.8,222,19,181,22.3*58,1747802103000
NMEA,$BDGSV,4,3,16,229,37,93,28.5,201,36,139,0.0,202,30,223,0.0,203,43,189,0.0*6B,1747802103000
NMEA,$BDGSV,4,4,16,204,27,122,0.0,205,14,246,0.0,208,53,208,0.0,210,78,266,0.0*67,1747802103000
NMEA,$GAGSV,2,1,5,104,1,,25.8,124,1,,31.1,96,52,261,0.0,99,1,25,0.0*5B,1747802103000
NMEA,$GAGSV,2,2,5,110,13,173,0.0*74,1747802103000
NMEA,$GPVTG,42.711,T,,M,11.130,N,20.613,K,A*38,1747802103000
NMEA,$RD_RSSI, 676, 749, 0, 0,1747802103000
NMEA,$GPGGA,043504.000,3958.904437,N,11628.530209,E,1,14,0.922,14.319,M,0,M,,*4D,1747802104000
NMEA,$GPRMC,043504.000,A,3958.904437,N,11628.530209,E,9.434,45.167,210525,,E,A*1C,1747802104000
NMEA,$GPGLL,3958.904437,N,11628.530209,E,043504.000,A,A*54,1747802104000
NMEA,$GPGSA,A,3,17,22,196,194,19,11,,,,,,,1.652,0.922,1.371*33,1747802104000
NMEA,$BDGSA,A,3,238,240,207,219,213,220,224,229,,,,,1.652,0.922,1.371*23,1747802104000
NMEA,$GAGSA,A,3,,,,,,,,,,,,,1.652,0.922,1.371*2E,1747802104000
NMEA,$GPGSV,4,1,16,12,29,305,23.7,17,44,119,39.5,9,27,108,25.0,4,21,70,29.3*49,1747802104000
NMEA,$GPGSV,4,2,16,22,23,184,36.0,196,40,138,39.0,194,34,162,31.7,195,1,,20.8*46,1747802104000
NMEA,$GPGSV,4,3,16,19,71,100,24.7,11,46,280,21.7,3,6,39,0.0,6,69,343,0.0*79,1747802104000
NMEA,$GPGSV,4,4,16,14,6,173,0.0,20,27,221,0.0,25,4,326,0.0,193,1,,0.0*40,1747802104000
NMEA,$BDGSV,4,1,16,238,63,205,19.7,240,72,117,20.8,207,80,185,16.1,208,53,208,0.5*54,1747802104000
NMEA,$BDGSV,4,2,16,219,52,125,38.0,213,38,212,16.2,220,35,56,24.6,224,15,295,21.5*5B,1747802104000
NMEA,$BDGSV,4,3,16,222,19,181,23.7,229,37,93,27.8,201,36,139,0.0,202,30,223,0.0*5B,1747802104000
NMEA,$BDGSV,4,4,16,203,43,189,0.0,204,27,122,0.0,205,14,246,0.0,210,78,266,0.0*67,1747802104000
NMEA,$GAGSV,2,1,5,104,1,,23.6,110,13,173,29.2,124,1,,31.3,96,52,261,0.0*59,1747802104000
NMEA,$GAGSV,2,2,5,99,1,25,0.0*45,1747802104000
NMEA,$GPVTG,45.167,T,,M,9.434,N,17.471,K,A*02,1747802104000
NMEA,$RD_RSSI, 692, 779, 0, 0,1747802104000
NMEA,$GPGGA,043505.000,3958.906157,N,11628.532483,E,1,14,0.922,15.027,M,0,M,,*44,1747802105000
NMEA,$GPRMC,043505.000,A,3958.906157,N,11628.532483,E,6.749,45.670,210525,,E,A*1D,1747802105000
NMEA,$GPGLL,3958.906157,N,11628.532483,E,043505.000,A,A*52,1747802105000
NMEA,$GPGSA,A,3,17,22,196,194,19,11,,,,,,,1.652,0.922,1.370*32,1747802105000
NMEA,$BDGSA,A,3,238,240,207,219,213,220,224,229,,,,,1.652,0.922,1.370*22,1747802105000
NMEA,$GAGSA,A,3,,,,,,,,,,,,,1.652,0.922,1.370*2F,1747802105000
NMEA,$GPGSV,4,1,16,12,29,305,23.7,17,44,119,40.5,9,27,108,25.2,4,21,70,27.6*4E,1747802105000
NMEA,$GPGSV,4,2,16,22,23,184,35.9,196,40,138,39.2,194,34,162,29.6,195,1,,20.8*46,1747802105000
NMEA,$GPGSV,4,3,16,19,71,100,25.5,11,46,280,21.7,3,6,39,0.0,6,69,343,0.0*7A,1747802105000
NMEA,$GPGSV,4,4,16,14,6,173,0.0,20,27,221,0.0,25,4,326,0.0,193,1,,0.0*40,1747802105000
NMEA,$BDGSV,4,1,16,238,63,205,19.6,240,72,117,20.5,207,80,185,16.0,219,52,125,38.0*6A,1747802105000
NMEA,$BDGSV,4,2,16,213,38,212,16.0,220,35,56,22.7,224,15,295,21.5,222,19,181,22.2*5E,1747802105000
NMEA,$BDGSV,4,3,16,229,37,93,28.5,201,36,139,0.0,202,30,223,0.0,203,43,189,0.0*6B,1747802105000
NMEA,$BDGSV,4,4,16,204,27,122,0.0,205,14,246,0.0,208,53,208,0.0,210,78,266,0.0*67,1747802105000
