     3.04           OBSERVATION DATA    M: Mixed            RINEX VERSION / TYPE
RTKCONV demo5 b34k                      20250523 014913 UTC PGM / RUN BY / DATE 
format: RINEX                                               COMMENT             
log: E:\Proj-ES\GNSS-SPP\RTKLIB-py\data\unisoc\20250521\¸ß¼ÜCOMMENT             
  2\rover.obs                                               COMMENT             
Geo++                                                       MARKER NAME         
                                                            MARKER NUMBER       
                                                            MARKER TYPE         
                                                            OBSERVER / AGENCY   
unknown             UNISOC              uis7865_6h10_go_a32bREC # / TYPE / VERS 
unknown             uis7865_6h10_go_a32b                    ANT # / TYPE        
 -2180416.0612  4378905.1164  4079175.3071                  APPROX POSITION XYZ 
        0.0000        0.0000        0.0000                  ANTENNA: DELTA H/E/N
G    4 C1C L1C D1C S1C                                      SYS / # / OBS TYPES 
E    4 C1C L1C D1C S1C                                      SYS / # / OBS TYPES 
J    4 C1C L1C D1C S1C                                      SYS / # / OBS TYPES 
C    4 C2I L2I D2I S2I                                      SYS / # / OBS TYPES 
  2025    05    21    04    34   42.9996147     GPS         TIME OF FIRST OBS   
  2025    05    21    04    55   54.0000261     GPS         TIME OF LAST OBS    
G L1C                                                       SYS / PHASE SHIFT   
E L1C  0.00000                                              SYS / PHASE SHIFT   
J L1C                                                       SYS / PHASE SHIFT   
C L2I                                                       SYS / PHASE SHIFT   
 24 R01  1 R02 -4 R03  5 R04  6 R05  1 R06 -4 R07  5 R08  6 GLONASS SLOT / FRQ #
    R09 -2 R10 -5 R11  0 R12 -1 R13 -2 R14 -7 R15  0 R16 -1 GLONASS SLOT / FRQ #
    R17  4 R18 -3 R19  3 R20  2 R21  4 R22 -3 R23  3 R24  2 GLONASS SLOT / FRQ #
 C1C    0.000 C1P    0.000 C2C    0.000 C2P    0.000        GLONASS COD/PHS/BIS 
                                                            END OF HEADER       
> 2025 05 21 04 34 42.9996147  0  5                     
C29  23441133.241   122063994.3511      -1777.335          30.000  
C38  36377176.005   189425501.1721        747.003          35.000  
G17  21843731.699   114789451.4551      -1908.759          39.000  
G22  23415920.695   123051356.2601      -3234.763          27.000  
J02  37330670.415   196173996.4641         64.504          31.000  
> 2025 05 21 04 34 43.9995498  0  8                     
C07  35666445.228   185724539.7111        -87.672          26.000  
C13  38076338.293   198273484.9831       1077.143          33.000  
C29  23440337.686   122059823.302       -1775.142          32.000  
C38  36375888.790   189418809.191         744.192          33.000  
C40  35941057.517   187154517.7411        -49.447          27.000  
G17  21842955.031   114785358.505       -1910.110          39.000  
G22  23415395.253   123048589.856       -3234.936          28.000  
J02  37329517.207   196167932.129          63.467          31.000  
> 2025 05 21 04 34 44.9994889  0 12                     
C07  35666525.741   185724927.297         -91.292          27.000  
C13  38076190.664   198272707.787        1076.192          31.000  
C19  22883641.547   119161125.8581       1646.108          36.000  
C24  25350082.366   132004531.0601       -279.495          25.000  
C29  23440736.578   122061897.746       -1776.424          31.000  
C38  36375798.721   189418363.611         744.387          33.000  
C40  35941122.741   187154869.605         -58.604          28.000  
G11  21845095.418   114796750.6521       1825.387          32.000  
G17  21843376.707   114787570.722       -1910.443          39.000  
G19  19980735.587   104999473.7331       -622.748          29.000  
G22  23416069.355   123052126.569       -3237.116          29.000  
J02  37329565.642   196168171.383          63.128          33.000  
> 2025 05 21 04 34 45.9994277  0 13                     
C07  35666519.913   185724850.893         -91.946          26.000  
C13  38075948.900   198271461.020        1077.423          28.000  
C19  22883294.556   119159317.160        1637.363          37.000  
C24  25350103.520   132004636.005        -275.031          24.000  
C26  25428338.259   132412029.2581      -2260.449          17.000  
C29  23441042.835   122063505.163       -1777.084          32.000  
C38  36375629.807   189417448.876         746.066          33.000  
C40  35941102.524   187154761.030         -65.353          28.000  
G11  21844716.049   114794750.444        1832.840          28.000  
G17  21843708.147   114789308.786       -1909.468          40.000  
G19  19980824.194   104999925.773        -624.150          28.000  
G22  23416653.519   123055192.185       -3235.108          28.000  
J02  37329522.341   196167937.497          66.133          32.000  
> 2025 05 21 04 34 46.9993667  0 14                     
C07  35666567.711   185725082.946         -91.654          26.000  
C08  37141917.148   193407709.0821        991.198          28.000  
C13  38075773.653   198270525.741        1078.574          30.000  
C19  22883003.889   119157821.463        1640.153          36.000  
C24  25350183.696   132005054.628        -276.462          23.000  
C26  25428797.672   132414432.3461      -2260.905          17.000  
C29  23441411.411   122065423.057       -1774.446          29.000  
C38  36375515.117   189416843.903         747.485          31.000  
C40  35941139.230   187154970.433         -64.294          29.000  
G11  21844394.803   114793057.514        1824.635          24.000  
G17  21844100.107   114791361.916       -1910.312          40.000  
G19  19980967.327   105000691.039        -619.365          30.000  
G22  23417299.703   123058570.362       -3234.848          28.000  
J02  37329537.461   196168014.804          66.154          28.000  
> 2025 05 21 04 34 47.9993056  0 14                     
C07  35666588.397   185725159.880         -92.057          27.000  
C08  37141722.283   193406705.460         989.154          28.000  
C13  38075564.098   198269433.981        1078.256          31.000  
C19  22882687.008   119156166.709        1639.580          38.000  
C24  25350236.159   132005317.252        -279.907          24.000  
C26  25429227.874   132416676.6301      -2260.634          17.000  
C29  23441754.673   122067182.166       -1777.367          29.000  
C38  36375374.515   189416082.043         745.740          33.000  
C40  35941148.223   187155017.080         -60.303          31.000  
G11  21844047.943   114791217.735        1826.620          25.000  
G17  21844462.556   114793256.668       -1910.512          40.000  
G19  19981082.447   105001293.476        -617.534          29.000  
G22  23417915.177   123061787.703       -3233.051          27.000  
J02  37329523.671   196167935.351          64.557          31.000  
> 2025 05 21 04 34 48.9992446  0 14                     
C07  35666632.054   185725392.408         -92.318          26.000  
C08  37141557.885   193405857.970         987.890          27.000  
C13  38075387.108   198268496.888        1078.115          32.000  
C19  22882403.891   119154668.704        1637.503          38.000  
C24  25350316.991   132005737.0091       -282.451          17.000  
C26  25429686.444   132419076.8171      -2260.851          17.000  
C29  23442123.306   122069101.606       -1780.588          31.000  
C38  36375258.083   189415475.787         746.527          34.000  
C40  35941191.281   187155216.416         -59.208          30.000  
G11  21843728.551   114789533.762        1824.953          22.000  
G17  21844854.272   114795308.575       -1912.417          40.000  
G19  19981226.835   105002051.780        -618.430          28.000  
G22  23418556.621   123065162.071       -3234.198          26.000  
J02  37329539.148   196168013.735          63.591          31.000  
> 2025 05 21 04 34 49.9991836  0 14                     
C07  35666677.567   185725626.260         -92.462          25.000  
C08  37141395.341   193405013.617         988.231          25.000  
C13  38075208.975   198267561.168        1080.194          31.000  
C19  22882119.932   119153175.157        1636.252          36.000  
C24  25350399.677   132006163.3801       -285.037          15.000  
C26  25430149.568   132421480.7521      -2260.079          16.000  
C29  23442494.992   122071023.435       -1780.546          31.000  
C38  36375144.105   189414872.481         745.164          32.000  
C40  35941228.999   187155418.289         -61.443          31.000  
G11  21843411.015   114787853.998        1823.651          24.000  
G17  21845246.944   114797365.312       -1913.803          40.000  
G19  19981372.477   105002815.093        -622.330          30.000  
G22  23419199.619   123068539.703       -3234.307          28.000  
J02  37329557.079   196168095.034          64.485          30.000  
> 2025 05 21 04 34 50.9991226  0 14                     
C07  35666728.007   185725859.435         -91.816          26.000  
C08  37141230.530   193404163.327         991.141          25.000  
C13  38075029.474   198266622.958        1081.465          27.000  
C19  22881834.005   119151682.085        1635.465          35.000  
C24  25350481.895   132006590.3941       -287.535          15.000  
C26  25430612.222   132423881.0401      -2231.162          16.000  
C29  23442863.512   122072947.454       -1782.011          30.000  
C38  36375028.760   189414268.777         746.967          30.000  
C40  35941270.445   187155621.966         -61.998          30.000  
G11  21843095.408   114786175.115        1822.260          21.000  
G17  21845639.147   114799422.148       -1913.536          40.000  
G19  19981517.952   105003580.824        -623.862          29.000  
G22  23419843.648   123071914.833       -3232.577          30.000  
J02  37329572.444   196168173.831          65.939          30.000  
> 2025 05 21 04 34 51.9990615  0 14                     
C07  35666748.280   185725935.934         -91.818          25.000  
C08  37141037.051   193403163.037         986.130          23.000  
C13  38074818.908   198265527.052        1081.280          26.000  
C19  22881517.911   119150031.490        1637.036          36.000  
C24  25350539.043   132006864.4171       -288.823          15.000  
C26  25431041.113   132426096.4621      -2230.754          15.000  
C29  23443203.064   122074714.160       -1780.881          30.000  
C38  36374882.049   189413505.252         750.816          26.000  
C40  35941278.427   187155667.252         -60.810          31.000  
G11  21842747.537   114784338.179        1822.546          21.000  
G17  21846002.384   114801320.428       -1914.165          40.000  
G19  19981636.557   105004188.194        -622.054          29.000  
G22  23420456.911   123075131.094       -3232.562          30.000  
J02  37329557.941   196168094.478          64.464          31.000  
> 2025 05 21 04 34 52.9990005  0 14                     
C07  35666795.554   185726170.342         -91.500          22.000  
C08  37140875.070   193402320.298         985.135          21.000  
C13  38074637.739   198264589.592        1074.719          23.000  
C19  22881230.017   119148538.056        1636.071          36.000  
C24  25350620.793   132007295.6381       -272.306          16.000  
C26  25431500.301   132428468.0831      -2230.190          15.000  
C29  23443575.313   122076635.683       -1779.795          30.000  
C38  36374769.534   189412896.435         753.579          23.000  
C40  35941318.505   187155870.869         -59.219          31.000  
G11  21842431.762   114782660.0991       1822.660          16.000  
G17  21846395.018   114803376.478       -1913.923          40.000  
G19  19981780.664   105004952.609        -620.208          28.000  
G22  23421100.472   123078508.941       -3234.620          31.000  
J02  37329574.336   196168174.236          64.611          32.000  
> 2025 05 21 04 34 53.9989395  0 14                     
C07  35666841.722   185726397.480         -85.894          20.000  
C08  37140714.681   193401478.2201        983.866          19.000  
C13  38074462.960   198263656.202        1082.279          21.000  
C19  22880944.314   119147044.523        1635.991          37.000  
C24  25350694.842   132007711.013        -280.938          26.000  
C29  23443948.255   122078556.604       -1778.259          28.000  
C38  36374653.214   189412284.799         754.073          20.000  
C40  35941361.076   187156071.308         -57.601          29.000  
E16  27458094.619   144293260.6361      -3113.747          10.000  
G11  21842114.281   114780981.265        1822.214          22.000  
G17  21846787.446   114805434.458       -1914.247          39.000  
G19  19981926.962   105005715.118        -620.530          28.000  
G22  23421743.827   123081884.517       -3232.226          32.000  
J02  37329592.024   196168252.767          65.057          31.000  
> 2025 05 21 04 34 54.9988785  0 14                     
C07  35666887.328   185726624.4471        -86.443          18.000  
C08  37140555.828   193400636.8691        983.641          17.000  
C13  38074288.219   198262716.3521       1082.018          19.000  
C19  22880660.149   119145551.403        1634.425          37.000  
C24  25350773.125   132008132.992        -278.039          26.000  
C29  23444320.335   122080479.016       -1783.730          26.000  
C38  36374540.530   189411673.546         753.778          21.000  
C40  35941402.185   187156271.476         -61.070          27.000  
E16  27458717.326   144296517.0731      -3114.310           7.000  
G11  21841798.637   114779302.873        1821.696          22.000  
G17  21847180.212   114807490.422       -1914.792          39.000  
G19  19982074.198   105006479.653        -623.474          27.000  
G22  23422386.319   123085258.827       -3232.080          33.000  
J02  37329608.250   196168330.517          66.371          32.000  
> 2025 05 21 04 34 55.9988174  0 14                     
C07  35666906.271   185726703.2971        -92.754          16.000  
C08  37140365.516   193399633.3831        989.727          16.000  
C13  38074079.020   198261621.0431       1081.981          19.000  
C19  22880344.224   119143903.470        1634.355          38.000  
C24  25350825.345   132008394.776        -276.637          24.000  
C29  23444661.855   122082247.893       -1784.119          28.000  
C38  36374399.084   189410906.840         752.583          21.000  
C40  35941409.136   187156318.920         -64.942          26.000  
E16  27459309.172   144299617.8731      -3114.300           9.000  
G11  21841451.234   114777468.070        1820.688          21.000  
G17  21847543.617   114809391.760       -1916.560          39.000  
G19  19982192.372   105007089.778        -625.812          26.000  
G22  23422999.751   123088475.148       -3229.635          33.000  
J02  37329593.017   196168250.255          66.758          31.000  
> 2025 05 21 04 34 56.9987564  0 15                     
C07  35666952.476   185726936.0081        -92.903          16.000  
C08  37140200.968   193398784.7721        989.683          15.000  
C13  38073897.983   198260679.667        1082.854          20.000  
C19  22880057.659   119142409.627        1634.751          38.000  
C20  23967693.005   124806066.4731      -1207.011          26.000  
C24  25350908.125   132008812.825        -276.098          22.000  
C29  23445030.937   122084173.198       -1785.813          28.000  
C38  36374282.802   189410294.845         753.604          21.000  
C40  35941453.543   187156522.735         -61.935          26.000  
E16  27459933.078   144302872.3331      -3114.843           8.000  
G11  21841133.492   114775790.271        1820.318          23.000  
G17  21847936.682   114811448.650       -1915.221          39.000  
G19  19982339.308   105007858.148        -627.397          25.000  
G22  23423642.543   123091844.056       -3226.119          32.000  
J02  37329608.344   196168324.175          69.388          30.000  
> 2025 05 21 04 34 57.9986954  0 15                     
C07  35666996.021   185727170.4321        -92.752          16.000  
C08  37140038.855   193397932.1351        995.160          15.000  
C13  38073716.383   198259739.3621       1083.188          16.000  
C19  22879775.030   119140917.802        1634.204          38.000  
C20  23967952.700   124807416.135       -1208.701          24.000  
C24  25350990.044   132009225.6961       -270.939          19.000  
C29  23445400.656   122086100.692       -1785.786          27.000  
C38  36374163.260   189409683.551         754.582          21.000  
C40  35941491.092   187156723.550         -59.699          25.000  
E16  27460557.321   144306130.0431      -3115.243           8.000  
G11  21840814.587   114774113.279        1821.608          22.000  
G17  21848329.185   114813506.464       -1916.017          39.000  
G19  19982487.780   105008628.154        -625.911          25.000  
G22  23424285.973   123095213.548       -3224.108          33.000  
J02  37329625.207   196168399.046          69.969          30.000  
> 2025 05 21 04 34 58.9986343  0 15                     
C07  35667013.315   185727245.9921        -92.775          15.000  
C08  37139847.494   193396922.4821        995.219          14.000  
C13  38073506.135   198258641.7491       1083.706          15.000  
C19  22879457.456   119139269.829        1633.209          38.000  
C20  23968184.046   124808610.511       -1210.990          23.000  
C24  25351043.313   132009481.923        -269.348          22.000  
C29  23445743.225   122088136.754       -1787.538          26.000  
C38  36374018.366   189408914.251         755.388          22.000  
C40  35941500.592   187156769.651         -61.630          25.000  
E16  27461149.017   144309229.1281      -3115.399           7.000  
G11  21840468.233   114772276.830        1823.232          21.000  
G17  21848692.140   114815407.047       -1916.560          39.000  
G19  19982605.205   105009236.709        -626.382          26.000  
G22  23424897.156   123098420.535       -3222.885          32.000  
J02  37329609.824   196168313.808          71.181          31.000  
> 2025 05 21 04 34 59.9985733  0 15                     
C07  35667061.694   185727749.3481        -92.567          15.000  
C08  37139684.219   193396071.9321        995.132          14.000  
C13  38073327.271   198257702.0111       1085.027          15.000  
C19  22879171.866   119137781.275        1632.982          38.000  
C20  23968446.777   124809967.081       -1214.003          22.000  
C24  25351124.969   132009892.842        -266.804          25.000  
C29  23446116.879   122090066.636       -1785.198          26.000  
C38  36373905.757   189408303.166         755.100          21.000  
C40  35941545.973   187156975.058         -61.150          27.000  
E16  27461772.698   144312490.1821      -3115.472           6.000  
G11  21840148.467   114770598.598        1824.755          24.000  
G17  21849085.880   114817470.050       -1917.681          39.000  
G19  19982752.816   105010010.037        -626.544          28.000  
G22  23425539.424   123101788.119       -3223.030          33.000  
J02  37329626.725   196168386.816          72.685          32.000  
> 2025 05 21 04 35 00.9985123  0 15                     
C07  35667109.043   185727983.3831        -92.621          15.000  
C08  37139520.814   193395218.9291        995.166          10.000  
C13  38073149.176   198256758.6901       1085.718          15.000  
C19  22878886.445   119136290.286        1632.731          37.000  
C20  23968707.878   124811322.481       -1216.676          22.000  
C24  25351208.292   132010301.576        -268.085          22.000  
C29  23446488.303   122091994.132       -1785.219          29.000  
C38  36373791.517   189407689.896         755.636          20.000  
C40  35941585.227   187157177.067         -61.811          25.000  
E16  27462393.849   144315747.3091      -3115.209           6.000  
G11  21839829.469   114768916.812        1826.094          22.000  
G17  21849479.189   114819527.505       -1916.455          39.000  
G19  19982901.194   105010778.776        -628.365          27.000  
G22  23426180.362   123105153.923       -3225.398          35.000  
J02  37329640.197   196168459.304          69.449          33.000  
> 2025 05 21 04 35 01.9984513  0 15                     
C07  35667154.743   185728216.7841        -92.346          15.000  
C08  37139357.858   193394365.3401        994.888          10.000  
C13  38072965.235   198255813.4841       1087.934          15.000  
C19  22878602.373   119134799.349        1631.952          37.000  
C20  23968968.229   124812672.447       -1210.594          22.000  
C24  25351287.869   132010712.328        -270.082          21.000  
C29  23446854.480   122093919.697       -1787.004          29.000  
C38  36373677.427   189407075.787         754.948          20.000  
C40  35941621.933   187157378.217         -59.978          26.000  
E16  27463014.850   144319003.7301      -3115.178           6.000  
G11  21839509.422   114767233.650        1826.024          24.000  
G17  21849872.048   114821851.996       -1917.458          40.000  
G19  19983046.425   105011549.245        -628.470          25.000  
G22  23426823.248   123108786.328       -3224.790          36.000  
J02  37329653.219   196168531.171          71.383          34.000  
> 2025 05 21 04 35 02.9983902  0 15                     
C07  35667174.210   185728296.5511        -92.289          14.000  
C08  37139164.772   193393359.6491        995.080          14.000  
C13  38072763.755   198254714.6021       1087.811          17.000  
C19  22878288.772   119133156.898        1632.174          37.000  
C20  23969200.549   124813873.608       -1209.555          28.000  
C24  25351344.211   132010968.659        -267.896          22.000  
C29  23447194.127   122095695.317       -1787.869          29.000  
C38  36373530.510   189406311.133         753.029          24.000  
C40  35941635.105   187157426.259         -60.355          26.000  
E16  27463608.721   144322106.3701      -3115.285           6.000  
G11  21839161.644   114765397.396        1823.926          24.000  
G17  21850235.378   114823758.367       -1917.096          41.000  
G19  19983165.124   105012165.314        -626.683          25.000  
G22  23427435.105   123111999.931       -3226.391          35.000  
J02  37329639.110   196168450.867          68.290          34.000  
> 2025 05 21 04 35 03.9983292  0 15                     
C07  35667221.671   185728529.7631        -93.055          15.000  
C08  37139003.878   193392505.1461        995.839          17.000  
C13  38072582.175   198253768.1921       1087.224          18.000  
C19  22878004.362   119131666.353        1630.423          37.000  
C20  23969464.760   124815225.583       -1213.713          29.000  
C24  25351425.848   132011377.663        -269.238          22.000  
C29  23447563.864   122097624.199       -1786.610          30.000  
C38  36373416.083   189405699.349         752.487          21.000  
C40  35941675.371   187157626.859         -61.860          25.000  
E16  27464230.884   144325364.4091      -3115.289           5.000  
G11  21838843.059   114763716.563        1823.207          22.000  
G17  21850628.500   114825817.693       -1918.573          40.000  
G19  19983312.416   105012932.312        -625.370          26.000  
G22  23428077.654   123115366.579       -3226.325          35.000  
J02  37329655.392   196168524.485          68.386          32.000  
> 2025 05 21 04 35 04.9992681  0 15                     
C07  35667259.764   185728701.1081        -93.099          15.000  
C08  37138833.015   193391588.5531        995.034          17.000  
C13  38072392.125   198252759.5041       1087.416          19.000  
C19  22877708.786   119130114.521        1630.324          37.000  
C20  23969719.003   124816521.927       -1216.440          27.000  
C24  25351496.018   132011727.437        -272.542          22.000  
C29  23447928.730   122099490.374       -1786.743          31.000  
C38  36373291.388   189405026.268         750.980          21.000  
C40  35941702.671   187157768.545         -63.417          24.000  
E16  27464841.879   144328561.4511      -3115.479           5.000  
G11  21838513.306   114761971.472        1824.661          22.000  
G17  21851010.454   114827816.745       -1918.365          40.000  
G19  19983447.941   105013638.537        -627.211          25.000  
G22  23428708.436   123118676.555       -3226.831          35.000  
J02  37329658.109   196168535.948          70.223          31.000  
> 2025 05 21 04 35 06.0002070  0 15                     
C07  35667293.228   185728876.5211        -93.728          15.000  
C08  37138661.721   193390674.9511        994.716          17.000  
C13  38072197.447   198251753.3501       1087.380          19.000  
C19  22877412.778   119128565.026        1629.646          37.000  
C20  23969966.519   124817819.187       -1216.621          26.000  
C24  25351568.156   132012082.640        -274.148          22.000  
C29  23448286.270   122101359.226       -1786.438          29.000  
C38  36373160.266   189404358.503         747.912          23.000  
C40  35941734.336   187157912.409         -62.573          25.000  
E16  27465453.643   144331760.9461      -3115.468           6.000  
G11  21838184.321   114760228.039        1823.775          22.000  
G17  21851393.776   114829819.786       -1919.512          41.000  
G19  19983583.934   105014349.592        -628.411          27.000  
G22  23429340.586   123121990.093       -3231.813          33.000  
J02  37329661.594   196168550.666          66.511          30.000  
> 2025 05 21 04 35 07.0001460  0 15                     
C07  35667337.710   185729112.2331        -94.355          15.000  
C08  37138497.547   193389821.8201        993.750          18.000  
C13  38072015.586   198250807.2061       1087.327          18.000  
C19  22877126.589   119127076.793        1629.752          37.000  
C20  23970230.748   124819174.736       -1212.128          27.000  
C24  25351649.512   132012497.293        -277.382          21.000  
C29  23448658.725   122103284.778       -1783.281          30.000  
C38  36373046.458   189403753.191         746.029          21.000  
C40  35941776.719   187158117.213         -63.533          26.000  
E16  27466069.529   144335017.5101      -3111.865          14.000  
G11  21837867.253   114758547.361        1822.367          22.000  
G17  21851786.317   114831878.751       -1917.793          40.000  
G19  19983729.146   105015120.277        -629.044          25.000  
G22  23429984.953   123125364.762       -3233.875          32.000  
J02  37329675.497   196168628.494          63.740          31.000  
> 2025 05 21 04 35 08.0000850  0 15                     
C07  35667389.199   185729346.0641        -94.820          15.000  
C08  37138336.184   193388970.2821        993.287          17.000  
C13  38071835.935   198249862.0401       1085.954          19.000  
C19  22876841.411   119125588.523        1629.998          38.000  
C20  23970494.191   124820525.218       -1207.226          23.000  
C24  25351732.779   132012919.206        -283.692          24.000  
C29  23449028.294   122105206.065       -1780.064          28.000  
C38  36372934.260   189403413.234         745.107          21.000  
C40  35941815.018   187158320.601         -62.411          24.000  
E16  27466694.522   144338271.7451      -3111.674          13.000  
G11  21837548.499   114756870.187        1818.868          23.000  
G17  21852180.169   114833939.361       -1916.922          39.000  
G19  19983878.068   105015892.758        -629.625          27.000  
G22  23430628.532   123128741.078       -3234.357          32.000  
J02  37329694.009   196168708.082          62.892          31.000  
> 2025 05 21 04 35 09.0000239  0 15                     
C07  35667405.463   185729428.0721        -94.572          15.000  
C08  37138145.291   193387965.6821        992.557          17.000  
C13  38071627.055   198248764.2551       1086.044          19.000  
C19  22876528.802   119123947.675        1629.516          38.000  
C20  23970726.305   124821719.139       -1206.499          21.000  
C24  25351792.813   132013192.689        -287.878          22.000  
C29  23449370.732   122106973.575       -1779.149          26.000  
C38  36372792.234   189402657.255         743.081          20.000  
C40  35941823.487   187158369.693         -62.270          26.000  
E16  27467287.586   144341370.8541      -3112.025          12.000  
G11  21837199.915   114755041.060        1815.753          22.000  
G17  21852544.792   114835841.529       -1917.353          40.000  
G19  19983999.259   105016508.907        -628.030          27.000  
G22  23431241.982   123131963.515       -3239.730          34.000  
J02  37329680.594   196168632.579          63.035          32.000  
> 2025 05 21 04 35 09.9999629  0 14                     
C07  35667447.303   185729665.2421        -94.581          15.000  
C08  37137981.473   193387116.8901        991.307          17.000  
C13  38071450.646   198247821.8001       1085.194          18.000  
C19  22876244.768   119122461.758        1628.260          38.000  
C20  23970984.895   124823067.374       -1205.351          23.000  
C24  25351876.324   132013625.713        -293.467          21.000  
C29  23449741.145   122108894.320       -1779.534          26.000  
C38  36372678.481   189402058.109         741.485          20.000  
C40  35941864.428   187158574.621         -61.927          27.000  
G11  21836884.102   114753371.195        1812.793          22.000  
G17  21852938.288   114837902.936       -1918.649          39.000  
G19  19984147.825   105017279.672        -628.699          26.000  
G22  23431886.705   123135347.712       -3241.727          34.000  
J02  37329697.850   196168715.469          60.216          33.000  
> 2025 05 21 04 35 10.9999019  0 14                     
C07  35667493.321   185729902.4961        -94.385          16.000  
C08  37137819.735   193386268.6511        990.499          18.000  
C13  38071272.719   198246879.5551       1085.331          18.000  
C19  22875961.314   119120976.640        1627.885          37.000  
C20  23971244.365   124824413.011       -1203.059          24.000  
C24  25351960.416   132014061.973        -297.315          21.000  
C29  23450110.639   122110815.988       -1780.626          26.000  
C38  36372566.808   189401460.4821        739.672          20.000  
C40  35941901.452   187158778.034         -61.750          27.000  
G11  21836567.072   114751703.686        1811.589          22.000  
G17  21853330.866   114839965.878       -1918.578          39.000  
G19  19984296.072   105018052.709        -631.350          26.000  
G22  23432532.608   123138731.476       -3240.335          35.000  
J02  37329716.288   196168799.932          59.157          32.000  
> 2025 05 21 04 35 11.9998409  0 14                     
C07  35667539.433   185730136.5861        -94.661          17.000  
C08  37137658.990   193385420.6941        989.037          18.000  
C13  38071096.984   198245937.3101       1083.132          18.000  
C19  22875676.455   119119491.012        1626.774          38.000  
C20  23971499.433   124825756.640       -1202.739          23.000  
C24  25352047.899   132014765.697        -300.266          21.000  
C29  23450486.222   122112739.088       -1781.377          26.000  
C38  36372453.131   189400863.1661        738.891          20.000  
C40  35941942.467   187158979.919         -60.376          26.000  
G11  21836250.435   114750036.216        1809.569          21.000  
G17  21853725.037   114842026.297       -1918.999          40.000  
G19  19984446.512   105018827.040        -630.965          26.000  
G22  23433177.105   123142114.714       -3241.013          35.000  
J02  37329732.420   196168883.008          60.190          31.000  
> 2025 05 21 04 35 12.9997798  0 14                     
C07  35667557.963   185730214.9761        -94.498          16.000  
C08  37137466.467   193384417.0131        986.981          18.000  
C13  38070886.774   198244839.593        1080.381          21.000  
C19  22875361.017   119117848.666        1626.795          38.000  
C20  23971732.615   124826943.774       -1205.142          24.000  
C24  25352105.103   132015051.3841       -302.835          14.000  
C29  23450826.431   122114504.074       -1783.467          27.000  
C38  36372310.074   189400108.8981        738.051          20.000  
C40  35941954.703   187159024.183         -62.899          26.000  
G11  21835902.919   114748212.360        1807.214          21.000  
G17  21854088.629   114843928.031       -1920.493          40.000  
G19  19984567.872   105019441.424        -634.042          26.000  
G22  23433792.223   123145339.389       -3238.580          34.000  
J02  37329719.173   196168806.700          61.514          31.000  
> 2025 05 21 04 35 13.9997188  0 14                     
C07  35667605.087   185730453.2551        -94.559          16.000  
C08  37137303.436   193383574.7781        986.137          18.000  
C13  38070712.051   198244187.2021       1078.841          18.000  
C19  22875078.369   119116366.639        1625.271          38.000  
C20  23971987.495   124828294.117       -1208.391          25.000  
C24  25352192.399   132015497.9641       -305.749          15.000  
C29  23451197.930   122116430.808       -1785.480          25.000  
C38  36372199.506   189399514.9401        738.218          20.000  
C40  35941996.430   187159229.884         -63.573          24.000  
G11  21835589.092   114746551.4821       1805.718          17.000  
G17  21854482.013   114845993.366       -1921.492          40.000  
G19  19984718.723   105020221.107        -634.629          24.000  
G22  23434436.833   123148718.962       -3234.225          36.000  
J02  37329736.617   196168889.292          63.153          31.000  
> 2025 05 21 04 35 14.9996578  0 14                     
C07  35667654.028   185730688.1291        -94.618          16.000  
C08  37137147.319   193382729.7521        986.617          18.000  
C13  38070536.747   198243249.0121       1080.318          19.000  
C19  22874793.641   119114883.444        1623.971          38.000  
C20  23972241.794   124829643.501       -1220.855          24.000  
C24  25352281.512   132015944.2961       -308.865          15.000  
C29  23451572.445   122118358.570       -1789.182          28.000  
C38  36372082.063   189398917.9061        738.577          20.000  
C40  35942038.476   187159433.307         -64.648          25.000  
G11  21835275.884   114744888.2571       1830.506          17.000  
G17  21854875.116   114848058.108       -1923.556          40.000  
G19  19984863.898   105020997.090        -635.035          25.000  
G22  23435080.263   123152092.624       -3229.328          35.000  
J02  37329751.982   196168967.312          65.866          31.000  
> 2025 05 21 04 35 15.9995967  0 15                     
C07  35667666.751   185730767.2231        -94.379          16.000  
C08  37136952.885   193381729.0591        988.029          13.000  
C13  38070324.625   198242153.7701       1083.184          19.000  
C19  22874478.091   119113246.352        1623.857          37.000  
C20  23972478.761   124830852.212       -1224.529          24.000  
C24  25352339.203   132016241.7631       -311.113          14.000  
C29  23451914.040   122120136.090       -1794.293          28.000  
C38  36371939.193   189398166.1731        738.838          20.000  
C40  35942047.601   187159484.592         -63.682          24.000  
E16  27471558.598   144364014.3641      -3110.574           8.000  
G11  21834927.956   114743320.4961       1829.006          17.000  
G17  21855239.495   114849966.271       -1923.419          39.000  
G19  19984982.147   105021617.864        -638.926          25.000  
G22  23435693.470   123155305.292       -3224.834          35.000  
J02  37329736.524   196168885.426          71.181          31.000  
> 2025 05 21 04 35 16.9995357  0 15                     
C07  35667712.862   185731003.6391        -93.415          16.000  
C08  37136794.838   193380882.7971        988.780          12.000  
C13  38070141.096   198241207.0451       1090.273          18.000  
C19  22874194.431   119111764.991        1622.757          37.000  
C20  23972743.122   124832220.362       -1229.434          24.000  
C24  25352430.284   132016692.6731       -311.896          14.000  
C29  23452285.427   122122072.333       -1798.171          28.000  
C38  36371825.515   189397568.8361        740.263          20.000  
C40  35942088.616   187159689.164         -65.123          24.000  
E16  27472177.913   144367267.5141      -3103.236           7.000  
G11  21834609.820   114741636.166        1826.392          22.000  
G17  21855633.366   114852033.880       -1924.785          40.000  
G19  19985131.088   105022401.358        -641.445          24.000  
G22  23436334.669   123158669.169       -3220.394          35.000  
J02  37329749.059   196168955.417          72.925          31.000  
> 2025 05 21 04 35 17.9994747  0 15                     
C07  35667757.082   185731234.9931        -92.182          16.000  
C08  37136634.000   193380034.7161        990.084          12.000  
C13  38069955.674   198240256.5101       1093.501          18.000  
C19  22873912.176   119110283.937        1622.694          37.000  
C20  23973010.087   124833592.737       -1234.980          25.000  
C24  25352516.175   132017146.1981       -313.316          14.000  
C29  23452657.619   122124012.391       -1798.415          29.000  
C38  36371707.847   189396968.4771        743.354          20.000  
C40  35942133.135   187159896.602         -67.956          25.000  
E16  27472798.334   144370529.9211      -3103.185           5.000  
G11  21834290.092   114739953.422        1825.025          24.000  
G17  21856028.343   114854100.388       -1926.397          39.000  
G19  19985281.434   105023183.522        -641.175          23.000  
G22  23436975.776   123162028.040       -3216.471          37.000  
J02  37329764.798   196169024.665          74.272          32.000  
> 2025 05 21 04 35 19.0004136  0 14                     
C07  35667796.336   185731408.9851        -91.298          16.000  
C08  37136458.602   193379114.3091       1003.116          11.000  
C13  38069760.791   198239239.3801       1099.856          18.000  
C19  22873618.661   119108743.202        1621.267          37.000  
C20  23973265.791   124834913.544       -1240.542          24.000  
C24  25352589.005   132017542.3261       -282.977          13.000  
C29  23453021.549   122125894.153       -1800.991          27.000  
C38  36371579.817   189396305.5581        746.597          20.000  
C40  35942159.498   187160047.442         -69.144          25.000  
G11  21833962.999   114738212.073        1821.843          23.000  
G17  21856412.358   114856111.748       -1927.597          40.000  
G19  19985421.718   105023909.414        -641.312          26.000  
G22  23437604.721   123165330.297       -3214.937          37.000  
J02  37329766.278   196169033.258          74.274          32.000  
> 2025 05 21 04 35 20.0003526  0 14                     
C07  35667845.952   185731641.9061        -90.566          16.000  
C08  37136295.965   193378253.4941       1004.294          11.000  
C13  38069581.665   198238281.4351       1102.051          14.000  
C19  22873335.807   119107265.695        1620.247          38.000  
C20  23973534.255   124836296.746       -1244.367          25.000  
C24  25352672.797   132017966.5861       -284.179          14.000  
C29  23453394.640   122127838.459       -1802.964          29.000  
C38  36371462.148   189395700.6641        749.421          20.000  
C40  35942204.317   187160256.676         -66.104          25.000  
G11  21833645.070   114736534.5361       1822.477          18.000  
G17  21856809.433   114858181.057       -1927.363          41.000  
G19  19985570.565   105024694.707        -643.126          26.000  
G22  23438245.228   123168687.063       -3213.805          36.000  
J02  37329780.818   196169102.566          75.818          30.000  
> 2025 05 21 04 35 21.0002915  0 13                     
C07  35667858.749   185731716.0621        -89.507          16.000  
C13  38069368.718   198237163.9701       1103.534          18.000  
C19  22873023.329   119105631.469        1619.706          38.000  
C20  23973771.297   124837521.190       -1243.584          25.000  
C24  25352725.167   132018237.7451       -285.845          14.000  
C29  23453738.109   122129626.564       -1805.306          28.000  
C38  36371316.355   189394935.1781        752.560          20.000  
C40  35942215.016   187160306.619         -62.651          23.000  
G11  21833297.816   114734697.738        1822.281          23.000  
G17  21857174.787   114860095.032       -1929.520          39.000  
G19  19985690.988   105025323.622        -642.379          26.000  
G22  23438854.013   123171883.217       -3210.399          36.000  
J02  37329765.435   196169011.433          78.503          31.000  
> 2025 05 21 04 35 22.0002305  0 14                     
C07  35667910.969   185731948.1111        -89.076          16.000  
C13  38069194.595   198236203.6551       1103.776          16.000  
C19  22872741.580   119104154.616        1619.106          38.000  
C20  23974037.569   124838907.253       -1248.233          24.000  
C24  25352798.073   132018664.715        -286.615          21.000  
C29  23454113.805   122131573.960       -1806.702          27.000  
C38  36371197.694   189394323.6691        755.805          19.000  
C40  35942256.144   187160510.380         -64.669          20.000  
E16  27475894.984   144386803.0811      -3056.514          29.000  
G11  21832978.593   114733019.244        1822.466          21.000  
G17  21857569.370   114862167.998       -1929.877          39.000  
G19  19985842.139   105026106.848        -641.215          24.000  
G22  23439494.126   123175234.745       -3206.640          36.000  
J02  37329777.483   196169074.878          81.024          31.000  
> 2025 05 21 04 35 23.0001695  0 13                     
C07  35667958.430   185732177.0501        -88.201          16.000  
C13  38069014.214   198235236.3751       1111.291          16.000  
C19  22872459.869   119102678.027        1618.519          38.000  
C20  23974305.677   124840301.682       -1254.571          22.000  
C24  25352878.211   132019093.126        -287.221          21.000  
C29  23454489.539   122133523.422       -1809.574          28.000  
C38  36371083.267   189393708.6141        759.687          19.000  
C40  35942297.609   187160718.356         -66.020          20.000  
G11  21832661.207   114731340.027        1823.809          21.000  
G17  21857965.789   114864240.748       -1931.557          40.000  
G19  19985991.830   105026893.165        -644.647          25.000  
G22  23440132.478   123178582.254       -3200.993          35.000  
J02  37329789.568   196169136.204          83.581          29.000  
> 2025 05 21 04 35 24.0001084  0 14                     
C07  35667979.996   185732531.4611        -86.580          11.000  
C13  38068800.743   198234105.9301       1117.807          16.000  
C19  22872144.469   119101045.530        1617.926          36.000  
C20  23974545.193   124841543.065       -1260.627          21.000  
C24  25352925.260   132019365.112        -285.832          23.000  
C29  23454838.778   122135319.576       -1810.988          30.000  
C38  36370937.549   189392933.3011        763.367          19.000  
C40  35942308.682   187161032.503         -67.276          22.000  
E16  27477072.643   144392991.5261      -3061.393          34.000  
G11  21832311.630   114729501.306        1826.153          21.000  
G17  21858331.217   114866156.387       -1930.679          40.000  
G19  19986112.028   105027523.831        -646.438          25.000  
G22  23440740.138   123181766.137       -3201.222          35.000  
J02  37329771.562   196169037.853          84.770          29.000  
> 2025 05 21 04 35 25.0000474  0 13                     
C07  35668019.738   185732754.2601        -80.903          11.000  
C08  37135372.211   193373627.5831       1012.846           4.000  
C19  22871864.332   119099571.267        1616.650          37.000  
C20  23974817.873   124842947.811       -1265.540          24.000  
C24  25353004.274   132019791.840        -283.764          22.000  
C29  23455216.985   122137272.122       -1812.528          30.000  
C38  36370818.700   189392311.4641        766.351          19.000  
C40  35942352.321   187161240.907         -68.021          23.000  
G11  21831996.117   114727818.509        1828.524          22.000  
G17  21858727.711   114868231.533       -1933.118          40.000  
G19  19986264.491   105028313.371        -648.923          23.000  
G22  23441378.565   123185111.895       -3199.823          36.000  
J02  37329785.221   196169097.373          84.762          31.000  
> 2025 05 21 04 35 25.9999864  0 13                     
C07  35668067.386   185732986.2041        -92.965          10.000  
C08  37135208.505   193372753.8641       1013.595          11.000  
C19  22871581.609   119098095.474        1616.200          37.000  
C20  23975092.164   124844356.863       -1270.769          22.000  
C24  25353089.396   132020214.833        -281.003          22.000  
C29  23455599.202   122139225.471       -1815.159          27.000  
C38  36370693.668   189391683.786         770.030          22.000  
C40  35942391.875   187161449.800         -68.825          21.000  
G11  21831674.122   114726130.624        1830.773          23.000  
G17  21859122.819   114870305.414       -1933.137          39.000  
G19  19986419.165   105029103.154        -648.725          24.000  
G22  23442015.905   123188450.503       -3196.912          36.000  
J02  37329797.794   196169153.923          86.075          33.000  
> 2025 05 21 04 35 26.9999253  0 14                     
C07  35668084.099   185733065.9001        -91.527           9.000  
C08  37135016.863   193371726.4151       1014.184          14.000  
C19  22871269.749   119096466.743        1615.455          36.000  
C20  23975334.022   124845606.189       -1266.904          22.000  
C24  25353138.787   132020480.400        -279.655          21.000  
C29  23455944.787   122141028.155       -1816.895          25.000  
C38  36370541.298   189390899.805         772.612          22.000  
C40  35942404.991   187161504.675         -69.513          22.000  
E16  27478876.869   144402472.6061      -3066.414          26.000  
G11  21831325.388   114724285.598        1833.675          22.000  
G17  21859489.690   114872223.851       -1933.850          39.000  
G19  19986542.305   105029739.773        -649.302          25.000  
G22  23442622.010   123191632.309       -3194.814          37.000  
J02  37329780.930   196169322.320          87.640          33.000  
> 2025 05 21 04 35 27.9998643  0 13                     
C08  37134851.827   193370854.1861       1014.481          12.000  
C13  38067978.337   198229952.2141       1122.134          17.000  
C19  22870989.294   119094994.727        1614.988          36.000  
C20  23975608.781   124847286.381       -1272.156          23.000  
C24  25353222.879   132020901.701        -277.567          21.000  
C29  23456323.875   122142987.337       -1817.555          27.000  
C38  36370422.730   189390268.810         775.109          22.000  
C40  35942448.311   187161716.808         -69.772          22.000  
G11  21831005.959   114722595.8821       1835.035          16.000  
G17  21859886.765   114874300.779       -1934.644          40.000  
G19  19986694.749   105030532.363        -651.585          25.000  
G22  23443258.320   123194968.588       -3190.705          37.000  
J02  37329793.372   196169376.810          92.309          34.000  
> 2025 05 21 04 35 28.9998033  0 13                     
C08  37134688.965   193369980.3901       1014.834          11.000  
C13  38067788.194   198228970.8771       1122.129          14.000  
C19  22870710.112   119093789.104        1613.709          37.000  
C20  23975885.415   124848700.816       -1276.423          22.000  
C24  25353306.146   132021320.373        -279.438          22.000  
C29  23456705.436   122145219.688       -1817.014          25.000  
C38  36370299.740   189389634.7931        776.572          20.000  
C40  35942489.907   187161926.904         -70.857          21.000  
G11  21830686.305   114720903.2701       1836.737          16.000  
G17  21860284.215   114876379.346       -1936.037          40.000  
G19  19986845.770   105031325.284        -649.897          25.000  
G22  23443894.405   123198302.094       -3191.528          37.000  
J02  37329806.488   196169428.424          89.927          33.000  
> 2025 05 21 04 35 29.9997423  0 14                     
C08  37134525.803   193369106.3401       1014.828          11.000  
C13  38067613.340   198227989.0631       1122.479          14.000  
C19  22870426.733   119092317.419        1613.654          37.000  
C20  23976162.948   124850119.7351      -1271.211          20.000  
C24  25353387.315   132021740.739        -282.203          22.000  
C29  23457080.101   122147178.414       -1818.923          26.000  
C38  36370180.948   189388999.4241        777.840          20.000  
C40  35942531.203   187162138.392         -71.169          21.000  
E16  27480728.388   144412201.9901      -3071.512          23.000  
G11  21830367.851   114719209.5551       1837.385          17.000  
G17  21860681.365   114878457.296       -1935.439          39.000  
G19  19986997.090   105032118.426        -650.396          24.000  
G22  23444529.890   123201636.448       -3195.528          37.000  
J02  37329816.306   196169482.087          88.877          33.000  
> 2025 05 21 04 35 30.9996812  0 13                     
C08  37134331.144   193368083.6661       1008.926          11.000  
C13  38067406.089   198226852.9731       1122.256          14.000  
C19  22870115.755   119090691.267        1612.758          37.000  
C20  23976405.086   124851378.8931      -1274.795          19.000  
C24  25353434.889   132022011.182        -284.406          24.000  
C29  23457421.471   122148983.724       -1818.269          28.000  
C38  36370033.056   189388208.0801        778.459          19.000  
C40  35942544.600   187162197.057         -71.516          21.000  
G11  21830017.000   114717359.0881       1837.869          17.000  
G17  21861047.318   114880377.755       -1935.290          38.000  
G19  19987121.110   105033029.924        -651.246          23.000  
G22  23445136.876   123204819.836       -3197.289          36.000  
J02  37329796.126   196169381.043          86.992          31.000  
> 2025 05 21 04 35 31.9996202  0 13                     
C08  37134167.776   193367217.3461       1009.384          10.000  
C13  38067225.033   198225873.4951       1122.643          14.000  
C19  22869834.268   119089222.654        1612.244          35.000  
C20  23976679.715   124852798.9381      -1278.765          19.000  
C24  25353517.050   132022438.374        -286.274          26.000  
C29  23457801.327   122150943.020       -1816.147          26.000  
C38  36369914.657   189387574.3681        777.018          19.000  
C40  35942590.787   187162410.082         -71.790          21.000  
G11  21829695.341   114715666.6711       1837.393          18.000  
G17  21861443.662   114882458.251       -1935.475          36.000  
G19  19987278.220   105033825.635        -653.314          21.000  
G22  23445774.553   123208162.673       -3202.110          36.000  
J02  37329810.535   196169439.918          84.225          31.000  
> 2025 05 21 04 35 32.9995592  0 13                     
C08  37134007.255   193366347.9131       1010.338          14.000  
C13  38067040.530   198224891.0231       1123.253          12.000  
C19  22869552.032   119087752.049        1612.040          36.000  
C20  23976950.896   124854219.2171      -1280.264          20.000  
C24  25353594.865   132022866.684        -289.795          26.000  
C29  23458175.037   122152900.798       -1817.875          28.000  
C38  36369796.408   189386939.1511        776.380          19.000  
C40  35942635.625   187162622.813         -71.405          22.000  
G11  21829372.034   114713973.0541       1835.937          19.000  
G17  21861840.157   114884534.441       -1935.609          39.000  
G19  19987431.883   105034619.880        -653.939          21.000  
G22  23446412.980   123211507.815       -3207.402          35.000  
J02  37329825.393   196169501.132          80.869          31.000  
> 2025 05 21 04 35 33.9994981  0 13                     
C08  37133815.407   193365321.3151       1010.033          16.000  
C13  38066827.096   198223751.4861       1122.586          13.000  
C19  22869240.267   119086124.724        1612.530          38.000  
C20  23977193.147   124855481.860       -1278.025          22.000  
C24  25353648.547   132023140.968        -291.245          26.000  
C29  23458525.213   122154705.128       -1822.284          27.000  
C38  36369643.232   189386148.5361        750.790          19.000  
C40  35942643.738   187162676.981         -71.051          22.000  
G11  21829017.698   114712122.482        1834.275          22.000  
G17  21862206.222   114886452.610       -1934.524          38.000  
G19  19987553.617   105035259.025        -653.624          24.000  
G22  23447021.877   123214701.252       -3212.021          35.000  
J02  37329807.425   196169406.003          77.887          28.000  
> 2025 05 21 04 35 35.0004370  0 13                     
C08  37133638.005   193364392.6721       1009.959          16.000  
C13  38066629.908   198222710.9061       1120.966          15.000  
C19  22868947.145   119084593.915        1612.530          38.000  
C20  23977456.440   124856843.002       -1276.792          21.000  
C24  25353722.671   132023516.285        -294.407          24.000  
C29  23458886.838   122156606.542       -1804.614          29.000  
C38  36369515.896   189385480.2821        751.155          19.000  
C40  35942674.092   187162831.977         -70.641          22.000  
G11  21828688.001   114710371.345        1832.768          21.000  
G17  21862591.830   114888472.792       -1933.941          37.000  
G19  19987694.594   105035995.121        -655.067          24.000  
G22  23447650.617   123218001.780       -3214.859          34.000  
J02  37329808.998   196169413.600          74.829          29.000  
> 2025 05 21 04 35 36.0003760  0 13                     
C08  37133476.548   193363524.0691       1007.933          16.000  
C13  38066444.168   198221732.1401       1094.570          16.000  
C19  22868666.970   119083122.957        1612.549          38.000  
C20  23977732.080   124858258.920       -1251.219          21.000  
C24  25353812.739   132023950.047        -280.096          24.000  
C29  23459256.314   122158550.177       -1800.932          29.000  
C38  36369403.904   189384870.6351        751.253          19.000  
C40  35942715.595   187163041.474         -70.638          21.000  
G11  21828368.853   114708682.0861       1830.168          20.000  
G17  21862987.388   114890548.912       -1932.217          37.000  
G19  19987849.419   105036791.971        -654.383          22.000  
G22  23448291.105   123221359.662       -3219.844          33.000  
J02  37329823.819   196169482.750          73.226          29.000  
> 2025 05 21 04 35 37.0003150  0 14                     
C08  37133314.173   193362657.0041       1006.466          15.000  
C13  38066268.002   198221045.8161       1092.828          17.000  
C19  22868386.477   119081651.718        1612.688          38.000  
C20  23977997.809   124859649.996       -1250.968          20.000  
C24  25353895.894   132024372.590        -292.568          21.000  
C29  23459629.068   122160489.593       -1800.366          26.000  
C38  36369288.896   189384260.6581        751.556          19.000  
C40  35942755.579   187163253.079         -70.205          23.000  
G04  23490643.197   123444162.4401        581.406          30.000  
G11  21828050.286   114706995.6321       1828.118          19.000  
G17  21863384.425   114892621.442       -1933.238          38.000  
G19  19988001.826   105037587.413        -653.535          23.000  
G22  23448933.972   123224723.522       -3222.313          32.000  
J02  37329836.523   196169553.469          70.646          31.000  
> 2025 05 21 04 35 38.0002540  0 14                     
C08  37133149.812   193362054.8251       1004.688          15.000  
C13  38066085.354   198220096.6371       1090.328          18.000  
C19  22868106.396   119080182.989        1612.617          38.000  
C20  23978266.947   124861043.377       -1250.672          20.000  
C24  25353979.462   132024810.887        -298.260          22.000  
C29  23460000.436   122162432.254       -1798.274          25.000  
C38  36369172.502   189383652.4551        751.681          19.000  
C40  35942793.878   187163465.133         -69.982          23.000  
G04  23490561.279   123443725.467         582.087          31.000  
G11  21827732.132   114705313.1661       1826.308          19.000  
G17  21863780.376   114894698.216       -1932.308          38.000  
G19  19988153.146   105038383.638        -651.968          25.000  
G22  23449575.453   123228091.279       -3224.861          32.000  
J02  37329851.438   196169629.053          68.778          31.000  
> 2025 05 21 04 35 39.0001930  0 15                     
C07  35668586.458   185735689.0691        -95.142          15.000  
C08  37132984.776   193361190.9551       1003.785          15.000  
C13  38065903.530   198219147.1691       1089.884          17.000  
C19  22867825.340   119078712.346        1611.562          38.000  
C20  23978530.315   124862431.948       -1248.035          20.000  
C24  25354067.151   132025252.703        -302.786          21.000  
C29  23460375.626   122164368.800       -1794.996          27.000  
C38  36369060.530   189383042.6511        751.022          19.000  
C40  35942834.799   187163675.576         -69.205          25.000  
G04  23490480.185   123443284.648         585.406          30.000  
G11  21827414.801   114703630.2391       1825.155          19.000  
G17  21864176.852   114896772.090       -1931.348          39.000  
G19  19988303.192   105039175.866        -648.481          28.000  
G22  23450218.358   123231728.361       -3228.922          33.000  
J02  37329865.978   196169703.991          68.075          31.000  
> 2025 05 21 04 35 40.0001319  0 15                     
C07  35668600.492   185735771.1471        -95.060          15.000  
C08  37132791.353   193360174.3411       1002.640          15.000  
C13  38065698.415   198218044.0511       1089.125          18.000  
C19  22867514.699   119077089.437        1608.334          34.000  
C20  23978760.500   124863665.820       -1244.971          22.000  
C24  25354127.353   132025541.675        -274.244          24.000  
C29  23460721.830   122166149.440       -1797.092          27.000  
C38  36368912.975   189382278.4171        751.598          18.000  
C40  35942847.634   187163730.665         -68.682          22.000  
G04  23490366.807   123442686.818         584.812          31.000  
G11  21827067.885   114701793.4161       1823.200          19.000  
G17  21864543.442   114898691.817       -1937.171          39.000  
G19  19988423.952   105039808.564        -646.629          25.000  
G22  23450831.077   123234945.085       -3233.686          33.000  
J02  37329853.031   196169624.506          64.778          31.000  
