$GNGGA,043234.00,3958.35213600,N,11627.91757957,E,2,28,0.8,38.7229,M,-8.1771,M,1.0,1828*7F
$GNRMC,043234.00,A,3958.35213600,N,11627.91757957,E,12.635,38.2,210525,7.2,W,D,C*5D
$GPGSV,2,1,07,14,07,174,23,06,69,340,46,03,07,039,39,11,45,279,24,1*62
$GPGSV,2,2,07,17,45,118,39,19,72,097,44,22,25,184,22,1*5F
$GPGSV,2,1,05,06,69,340,42,03,07,039,31,11,45,279,25,17,45,118,30,4*65
$GPGSV,2,2,05,19,72,097,37,4*53
$GPGSV,1,1,03,06,69,340,40,03,07,039,37,11,45,279,19,8*5B
$GLGSV,2,1,07,82,47,048,44,73,31,277,25,83,47,320,29,81,11,084,28,1*77
$GLGSV,2,2,07,67,47,088,37,66,18,030,45,80,17,219,35,1*40
$GLGSV,2,1,05,82,47,048,33,83,47,320,25,67,47,088,24,66,18,030,32,3*78
$GLGSV,2,2,05,80,17,219,28,3*41
$GBGSV,4,1,16,01,36,139,35,08,52,207,38,10,78,268,43,13,37,212,36,1*7B
$GBGSV,4,2,16,19,51,127,32,20,35,057,35,29,37,092,40,35,69,336,44,1*71
$GBGSV,4,3,16,38,63,204,45,40,73,115,41,59,36,146,41,60,30,228,40,1*79
$GBGSV,4,4,16,07,80,185,44,26,18,247,16,02,30,223,33,04,27,122,23,1*7A
$GBGSV,3,1,10,08,52,207,32,10,78,268,28,13,37,212,28,19,51,127,22,8*7A
$GBGSV,3,2,10,20,35,057,22,35,69,336,39,38,63,204,36,40,73,115,34,8*73
$GBGSV,3,3,10,60,30,228,29,07,80,185,33,8*7B
$GBGSV,2,1,05,08,52,207,38,10,78,268,39,13,37,212,35,07,80,185,42,B*0E
$GBGSV,2,2,05,04,27,122,24,B*36
$GAGSV,3,1,09,02,52,262,34,09,16,127,21,25,33,189,17,36,67,315,39,1*7B
$GAGSV,3,2,09,10,17,064,27,11,43,053,33,06,21,103,20,04,20,076,32,1*7F
$GAGSV,3,3,09,30,19,317,39,1*48
$GAGSV,2,1,08,02,52,262,36,09,16,127,23,36,67,315,43,10,17,064,29,2*7A
$GAGSV,2,2,08,11,43,053,37,06,21,103,21,04,20,076,39,30,19,317,41,2*79
$GAGSV,2,1,08,02,52,262,34,09,16,127,23,25,33,189,22,36,67,315,44,7*73
$GAGSV,2,2,08,10,17,064,32,06,21,103,27,04,20,076,38,30,19,317,42,7*79
$GNGGA,043235.00,3958.35448791,N,11627.92035136,E,4,15,1.3,37.9062,M,-8.1770,M,1.0,1828*7F
$GNRMC,043235.00,D,3958.35448791,N,11627.92035136,E,11.685,39.8,210525,7.2,W,R,S*52
$GPGSV,2,1,07,14,07,173,23,06,69,340,46,03,07,039,39,11,45,279,25,1*64
$GPGSV,2,2,07,17,45,118,40,19,72,097,45,22,24,184,28,1*5B
$GPGSV,2,1,05,06,69,340,41,03,07,039,32,11,45,279,23,17,45,118,31,4*62
$GPGSV,2,2,05,19,72,097,37,4*53
$GPGSV,1,1,03,06,69,340,40,03,07,039,37,11,45,279,20,8*51
$GLGSV,2,1,07,82,47,048,44,73,31,277,27,83,47,320,27,81,11,084,26,1*75
$GLGSV,2,2,07,67,47,088,33,66,18,030,44,80,17,219,39,1*49
$GLGSV,2,1,05,82,47,048,33,83,47,320,24,67,47,088,21,66,18,030,31,3*7F
$GLGSV,2,2,05,80,17,219,31,3*49
$GBGSV,5,1,17,01,36,139,39,03,43,189,29,08,52,207,39,10,78,268,42,1*7A
$GBGSV,5,2,17,13,37,212,35,19,51,127,32,20,35,057,32,29,37,092,32,1*7D
$GBGSV,5,3,17,35,69,336,45,38,63,204,45,40,73,115,40,59,36,146,43,1*7D
$GBGSV,5,4,17,60,30,228,40,07,80,185,43,26,18,247,15,02,30,223,32,1*77
$GBGSV,5,5,17,04,27,122,25,1*47
$GBGSV,3,1,11,08,52,207,31,10,78,268,27,13,37,212,29,19,51,127,23,8*77
$GBGSV,3,2,11,20,35,057,23,35,69,336,39,38,63,204,36,40,73,115,34,8*73
$GBGSV,3,3,11,59,36,146,35,60,30,228,29,07,80,185,33,8*46
$GBGSV,2,1,06,01,36,139,39,08,52,207,38,10,78,268,40,13,37,212,36,B*00
$GBGSV,2,2,06,07,80,185,42,04,27,122,23,B*07
$GAGSV,3,1,09,02,52,262,33,09,16,127,20,25,33,189,18,36,67,315,39,1*72
$GAGSV,3,2,09,10,17,064,35,11,43,053,33,06,21,103,21,04,20,076,26,1*78
$GAGSV,3,3,09,30,19,317,39,1*48
$GAGSV,2,1,08,02,52,262,36,09,16,127,23,36,67,315,43,10,17,064,36,2*74
$GAGSV,2,2,08,11,43,053,37,06,21,103,28,04,20,076,30,30,19,317,42,2*7A
$GAGSV,2,1,08,02,52,262,35,09,16,127,23,25,33,189,22,36,67,315,44,7*72
$GAGSV,2,2,08,10,17,064,39,06,21,103,34,04,20,076,34,30,19,317,42,7*7C
$GNGGA,043236.00,3958.35696489,N,11627.92291904,E,4,16,1.2,37.7866,M,-8.1768,M,1.0,1828*7B
$GNRMC,043236.00,D,3958.35696489,N,11627.92291904,E,11.348,38.0,210525,7.2,W,R,S*52
$GPGSV,2,1,07,14,07,173,23,06,69,340,45,03,07,039,39,11,45,279,26,1*64
$GPGSV,2,2,07,17,45,118,39,19,72,097,44,22,24,184,32,1*5F
$GPGSV,2,1,05,06,69,340,40,03,07,039,32,11,45,279,24,17,45,118,32,4*67
$GPGSV,2,2,05,19,72,097,37,4*53
$GPGSV,1,1,03,06,69,340,39,03,07,039,37,11,45,279,22,8*5D
$GLGSV,2,1,07,82,47,048,45,73,31,277,28,83,47,320,27,81,11,084,33,1*7F
$GLGSV,2,2,07,67,47,088,30,66,18,030,44,80,17,219,39,1*4A
$GLGSV,2,1,05,82,47,048,35,83,47,320,23,67,47,088,18,66,18,030,30,3*75
$GLGSV,2,2,05,80,17,219,33,3*4B
$GBGSV,5,1,17,01,36,139,39,03,43,189,28,08,52,207,38,10,78,268,42,1*7A
$GBGSV,5,2,17,13,37,212,34,19,51,127,30,20,35,057,35,29,37,092,28,1*72
$GBGSV,5,3,17,35,69,336,46,38,63,204,45,40,73,115,41,59,36,146,43,1*7F
$GBGSV,5,4,17,60,30,228,39,07,80,185,43,26,18,247,16,02,30,223,32,1*7A
$GBGSV,5,5,17,04,27,122,33,1*40
$GBGSV,3,1,11,08,52,207,31,10,78,268,28,13,37,212,28,19,51,127,22,8*78
$GBGSV,3,2,11,20,35,057,23,35,69,336,38,38,63,204,37,40,73,115,34,8*73
$GBGSV,3,3,11,59,36,146,35,60,30,228,28,07,80,185,33,8*47
$GBGSV,2,1,07,01,36,139,39,08,52,207,37,10,78,268,40,13,37,212,37,B*0F
$GBGSV,2,2,07,07,80,185,42,02,30,223,37,04,27,122,33,B*31
$GAGSV,3,1,09,02,52,262,32,09,16,127,19,25,33,189,21,36,67,315,39,1*73
$GAGSV,3,2,09,10,17,064,37,11,43,053,32,06,21,103,26,04,20,076,32,1*79
$GAGSV,3,3,09,30,19,317,34,1*45
$GAGSV,3,1,09,02,52,262,36,09,16,127,22,25,33,189,28,36,67,315,43,2*78
$GAGSV,3,2,09,10,17,064,37,11,43,053,37,06,21,103,31,04,20,076,37,2*7C
$GAGSV,3,3,09,30,19,317,36,2*44
$GAGSV,2,1,08,02,52,262,35,09,16,127,24,25,33,189,20,36,67,315,44,7*77
$GAGSV,2,2,08,10,17,064,40,06,21,103,36,04,20,076,37,30,19,317,36,7*70
$GNGGA,043237.00,3958.35941094,N,11627.92549170,E,4,18,1.0,37.6780,M,-8.1767,M,1.0,1828*7B
$GNRMC,043237.00,D,3958.35941094,N,11627.92549170,E,11.081,39.1,210525,7.2,W,R,S*51
$GPGSV,2,1,07,14,07,173,23,06,69,340,45,03,07,039,38,11,45,279,25,1*66
$GPGSV,2,2,07,17,45,118,29,19,72,097,44,22,24,184,33,1*5F
$GPGSV,2,1,05,06,69,340,40,03,07,039,31,11,45,279,25,17,45,118,24,4*62
$GPGSV,2,2,05,19,72,097,37,4*53
$GPGSV,1,1,03,06,69,340,39,03,07,039,36,11,45,279,22,8*5C
$GLGSV,2,1,07,82,47,048,45,73,31,277,22,83,47,320,27,81,11,084,32,1*74
$GLGSV,2,2,07,67,47,088,23,66,18,030,44,80,17,219,40,1*46
$GLGSV,2,1,05,82,47,048,34,83,47,320,21,67,47,088,17,66,18,030,30,3*79
$GLGSV,2,2,05,80,17,219,33,3*4B
$GBGSV,4,1,16,01,36,139,38,03,43,189,25,08,52,207,38,10,78,268,43,1*77
$GBGSV,4,2,16,13,37,212,35,20,35,057,35,29,37,092,36,35,69,336,47,1*7B
$GBGSV,4,3,16,38,63,204,45,40,73,115,40,59,36,146,43,60,30,228,39,1*74
$GBGSV,4,4,16,07,80,185,43,26,18,247,16,02,30,223,32,04,27,122,33,1*7D
$GBGSV,3,1,12,01,36,139,30,08,52,207,32,10,78,268,29,13,37,212,28,8*7D
$GBGSV,3,2,12,19,51,127,21,20,35,057,22,35,69,336,38,38,63,204,37,8*78
$GBGSV,3,3,12,40,73,115,34,59,36,146,36,60,30,228,29,07,80,185,33,8*74
$GBGSV,2,1,07,01,36,139,30,08,52,207,38,10,78,268,40,13,37,212,37,B*09
$GBGSV,2,2,07,07,80,185,42,02,30,223,37,04,27,122,28,B*3B
$GAGSV,3,1,09,02,52,262,32,09,16,127,17,25,33,189,22,36,67,315,39,1*7E
$GAGSV,3,2,09,10,17,064,37,11,43,053,32,06,21,103,30,04,20,076,34,1*78
$GAGSV,3,3,09,30,19,317,39,1*48
$GAGSV,3,1,09,02,52,262,36,09,16,127,20,25,33,189,27,36,67,315,42,2*74
$GAGSV,3,2,09,10,17,064,37,11,43,053,38,06,21,103,38,04,20,076,38,2*75
$GAGSV,3,3,09,30,19,317,41,2*44
$GAGSV,3,1,09,02,52,262,34,09,16,127,23,25,33,189,19,36,67,315,44,7*7B
$GAGSV,3,2,09,10,17,064,41,11,43,053,43,06,21,103,40,04,20,076,37,7*7D
$GAGSV,3,3,09,30,19,317,41,7*41
$GNGGA,043238.00,3958.36171169,N,11627.92793571,E,4,20,1.0,37.5988,M,-8.1765,M,1.0,1828*73
$GNRMC,043238.00,D,3958.36171169,N,11627.92793571,E,10.540,39.3,210525,7.2,W,R,S*5E
$GPGSV,2,1,07,14,07,173,22,06,69,340,45,03,07,039,37,11,45,279,25,1*68
$GPGSV,2,2,07,17,45,118,36,19,72,097,44,22,24,184,36,1*54
$GPGSV,1,1,04,06,69,340,39,03,07,039,30,17,45,118,29,19,72,097,36,4*6E
$GPGSV,1,1,03,06,69,340,39,03,07,039,35,11,45,279,21,8*5C
$GLGSV,2,1,07,82,47,048,45,73,31,277,21,83,47,320,26,81,11,084,33,1*77
$GLGSV,2,2,07,67,47,088,29,66,18,030,44,80,17,219,40,1*4C
$GLGSV,2,1,05,82,47,048,34,83,47,320,23,67,47,088,16,66,18,030,28,3*73
$GLGSV,2,2,05,80,17,219,33,3*4B
$GBGSV,4,1,16,01,36,139,38,03,43,189,27,08,52,207,39,10,78,268,43,1*74
$GBGSV,4,2,16,13,37,212,36,20,35,057,34,29,37,092,38,35,69,336,46,1*76
$GBGSV,4,3,16,38,63,204,45,40,73,115,40,59,36,146,39,60,30,228,39,1*79
$GBGSV,4,4,16,07,80,185,43,26,18,247,16,02,30,223,32,04,27,122,35,1*7B
$GBGSV,4,1,13,01,36,139,30,08,52,207,32,10,78,268,29,13,37,212,28,8*7B
$GBGSV,4,2,13,19,51,127,22,20,35,057,21,35,69,336,39,38,63,204,37,8*7F
$GBGSV,4,3,13,40,73,115,34,59,36,146,31,60,30,228,29,07,80,185,33,8*75
$GBGSV,4,4,13,04,27,122,32,8*4C
$GBGSV,2,1,07,01,36,139,36,08,52,207,39,10,78,268,40,13,37,212,36,B*0F
$GBGSV,2,2,07,07,80,185,42,02,30,223,37,04,27,122,36,B*34
$GAGSV,3,1,09,02,52,262,31,09,16,127,16,25,33,189,22,36,67,315,39,1*7C
$GAGSV,3,2,09,10,17,064,37,11,43,053,31,06,21,103,37,04,20,076,33,1*7B
$GAGSV,3,3,09,30,19,317,40,1*46
$GAGSV,3,1,09,02,52,262,36,09,16,127,21,25,33,189,23,36,67,315,42,2*71
$GAGSV,3,2,09,10,17,064,37,11,43,053,38,06,21,103,40,04,20,076,38,2*7A
$GAGSV,3,3,09,30,19,317,42,2*47
$GAGSV,3,1,09,02,52,262,33,09,16,127,23,25,33,189,18,36,67,315,43,7*7A
$GAGSV,3,2,09,10,17,064,41,11,43,053,43,06,21,103,40,04,20,076,36,7*7C
$GAGSV,3,3,09,30,19,317,41,7*41
$GNGGA,043239.00,3958.36392334,N,11627.93030059,E,4,22,0.9,37.5421,M,-8.1764,M,1.0,1828*72
$GNRMC,043239.00,D,3958.36392334,N,11627.93030059,E,10.061,38.8,210525,7.2,W,R,S*56
$GPGSV,2,1,07,14,07,173,21,06,69,340,45,03,07,039,38,11,45,279,24,1*65
$GPGSV,2,2,07,17,45,118,36,19,72,097,44,22,24,184,36,1*54
$GPGSV,2,1,05,06,69,340,40,03,07,039,29,11,45,279,20,17,45,118,32,4*69
$GPGSV,2,2,05,19,72,097,37,4*53
$GPGSV,1,1,03,06,69,340,38,03,07,039,35,11,45,279,21,8*5D
$GLGSV,2,1,06,82,47,048,44,73,31,277,26,81,11,084,37,67,47,088,26,1*7F
$GLGSV,2,2,06,66,18,030,44,80,17,219,39,1*7A
$GLGSV,2,1,05,82,47,048,34,83,47,320,23,67,47,088,15,66,18,030,29,3*71
$GLGSV,2,2,05,80,17,219,33,3*4B
$GBGSV,5,1,17,01,36,139,38,03,43,189,28,08,52,207,39,10,78,268,43,1*7B
$GBGSV,5,2,17,13,37,212,35,19,51,127,28,20,35,057,34,29,37,092,38,1*7A
$GBGSV,5,3,17,35,69,336,45,38,63,204,45,40,73,115,41,59,36,146,42,1*7D
$GBGSV,5,4,17,60,30,228,39,07,80,185,43,26,18,247,16,02,30,223,33,1*7B
$GBGSV,5,5,17,04,27,122,36,1*45
$GBGSV,4,1,14,01,36,139,30,08,52,207,32,10,78,268,29,13,37,212,28,8*7C
$GBGSV,4,2,14,19,51,127,21,20,35,057,20,29,37,092,31,35,69,336,39,8*70
$GBGSV,4,3,14,38,63,204,37,40,73,115,34,59,36,146,33,60,30,228,25,8*73
$GBGSV,4,4,14,07,80,185,33,04,27,122,32,8*78
$GBGSV,2,1,07,01,36,139,39,08,52,207,40,10,78,268,40,13,37,212,36,B*0E
$GBGSV,2,2,07,07,80,185,42,02,30,223,38,04,27,122,37,B*3A
$GAGSV,3,1,09,02,52,262,32,09,16,127,13,25,33,189,21,36,67,315,39,1*79
$GAGSV,3,2,09,10,17,064,35,11,42,053,32,06,21,103,37,04,20,076,33,1*7B
$GAGSV,3,3,09,30,19,317,40,1*46
$GAGSV,3,1,09,02,52,262,35,09,16,127,24,25,33,189,31,36,67,315,43,2*75
$GAGSV,3,2,09,10,17,064,37,11,42,053,38,06,21,103,40,04,20,076,39,2*7A
$GAGSV,3,3,09,30,19,317,43,2*46
$GAGSV,3,1,09,02,52,262,32,09,16,127,23,25,33,189,16,36,67,315,43,7*75
$GAGSV,3,2,09,10,17,064,41,11,42,053,43,06,21,103,41,04,20,076,34,7*7E
$GAGSV,3,3,09,30,19,317,41,7*41
$GNGGA,043240.00,3958.36626473,N,11627.93252635,E,4,25,0.7,37.4736,M,-8.1763,M,1.0,1828*72
$GNRMC,043240.00,D,3958.36626473,N,11627.93252635,E,11.150,32.5,210525,7.2,W,R,S*59
$GPGSV,2,1,07,14,07,173,22,06,69,340,45,03,07,039,37,11,45,279,23,1*6E
$GPGSV,2,2,07,17,45,118,37,19,72,097,44,22,24,184,27,1*55
$GPGSV,2,1,05,06,69,340,40,03,07,039,31,11,45,279,19,17,45,118,31,4*69
$GPGSV,2,2,05,19,72,097,37,4*53
$GPGSV,1,1,03,06,69,340,39,03,07,039,35,11,45,279,21,8*5C
$GLGSV,2,1,06,82,47,048,45,73,31,277,25,81,11,084,36,67,47,088,29,1*73
$GLGSV,2,2,06,66,18,030,43,80,17,219,38,1*7C
$GLGSV,2,1,06,82,47,048,35,83,47,320,23,81,11,084,28,67,47,088,18,3*70
$GLGSV,2,2,06,66,18,030,30,80,17,219,34,3*76
$GBGSV,5,1,17,01,36,139,37,03,43,189,28,08,52,207,40,10,78,268,43,1*7A
$GBGSV,5,2,17,13,37,212,35,19,51,127,27,20,35,057,35,29,37,092,39,1*75
$GBGSV,5,3,17,35,69,336,45,38,63,204,45,40,73,115,41,59,36,146,43,1*7C
$GBGSV,5,4,17,60,30,228,39,07,80,185,43,26,18,247,16,02,30,223,33,1*7B
$GBGSV,5,5,17,04,27,122,36,1*45
$GBGSV,4,1,14,01,36,139,31,08,52,207,32,10,78,268,29,13,37,212,29,8*7C
$GBGSV,4,2,14,19,51,127,21,20,35,057,21,29,37,092,31,35,69,336,39,8*71
$GBGSV,4,3,14,38,63,204,37,40,73,115,34,59,36,146,33,60,30,228,25,8*73
$GBGSV,4,4,14,07,80,185,34,04,27,122,33,8*7E
$GBGSV,2,1,07,01,36,139,39,08,52,207,39,10,78,268,40,13,37,212,35,B*03
$GBGSV,2,2,07,07,80,185,42,02,30,223,37,04,27,122,38,B*3A
$GAGSV,3,1,09,02,52,262,32,09,16,127,18,25,33,189,21,36,67,315,39,1*72
$GAGSV,3,2,09,10,17,064,29,11,42,053,33,06,21,103,35,04,20,076,34,1*72
$GAGSV,3,3,09,30,19,317,39,1*48
$GAGSV,3,1,09,02,52,262,36,09,16,127,28,25,33,189,26,36,67,315,43,2*7C
$GAGSV,3,2,09,10,17,064,34,11,42,053,38,06,21,103,40,04,20,076,40,2*77
$GAGSV,3,3,09,30,19,317,42,2*47
$GAGSV,3,1,09,02,52,262,32,09,16,127,25,25,33,189,16,36,67,315,43,7*73
$GAGSV,3,2,09,10,17,064,32,11,42,053,43,06,21,103,42,04,20,076,34,7*79
$GAGSV,3,3,09,30,19,317,40,7*40
$GNGGA,043241.00,3958.36922605,N,11627.93444457,E,4,25,0.6,37.4000,M,-8.1762,M,1.0,1828*7E
$GNRMC,043241.00,D,3958.36922605,N,11627.93444457,E,12.631,22.3,210525,7.2,W,R,S*53
$GPGSV,2,1,07,14,07,173,22,06,69,340,46,03,07,039,40,11,45,279,25,1*6B
$GPGSV,2,2,07,17,45,118,34,19,72,097,44,22,24,184,29,1*58
$GPGSV,2,1,05,06,69,340,41,03,07,039,32,11,45,279,20,17,45,118,29,4*68
$GPGSV,2,2,05,19,72,097,37,4*53
$GPGSV,1,1,03,06,69,340,41,03,07,039,32,11,45,279,20,8*55
$GLGSV,2,1,07,82,47,048,45,73,31,277,25,83,47,320,26,81,11,084,41,1*76
$GLGSV,2,2,07,67,47,088,31,66,18,030,40,80,17,219,36,1*40
$GLGSV,2,1,06,82,47,048,36,83,47,320,22,81,11,084,29,67,47,088,20,3*78
$GLGSV,2,2,06,66,18,030,28,80,17,219,33,3*78
$GBGSV,5,1,17,01,36,139,39,03,43,189,24,08,52,207,41,10,78,268,43,1*79
$GBGSV,5,2,17,13,37,212,39,19,51,127,27,20,35,057,36,29,37,092,38,1*7B
$GBGSV,5,3,17,35,69,336,46,38,63,204,45,40,73,115,43,59,36,146,42,1*7C
$GBGSV,5,4,17,60,30,228,39,07,80,185,43,26,18,247,16,02,30,223,34,1*7C
$GBGSV,5,5,17,04,27,122,38,1*4B
$GBGSV,4,1,14,01,36,139,31,08,52,207,33,10,78,268,29,13,37,212,30,8*75
$GBGSV,4,2,14,19,51,127,21,20,35,057,25,29,37,092,27,35,69,336,40,8*7C
$GBGSV,4,3,14,38,63,204,37,40,73,115,37,59,36,146,33,60,30,228,33,8*77
$GBGSV,4,4,14,07,80,185,34,04,27,122,32,8*7F
$GBGSV,2,1,07,01,36,139,41,08,52,207,40,10,78,268,40,13,37,212,37,B*00
$GBGSV,2,2,07,07,80,185,42,02,30,223,38,04,27,122,38,B*35
$GAGSV,3,1,09,02,52,262,29,09,17,127,20,25,33,189,20,36,67,315,36,1*7C
$GAGSV,3,2,09,10,17,064,33,11,42,053,35,06,21,103,35,04,20,076,34,1*7F
$GAGSV,3,3,09,30,19,317,38,1*49
$GAGSV,2,1,08,02,52,262,33,09,17,127,33,36,67,315,42,10,17,064,38,2*7E
$GAGSV,2,2,08,11,42,053,39,06,21,103,40,04,20,076,38,30,19,317,42,2*73
$GAGSV,3,1,09,02,52,262,29,09,17,127,29,25,33,189,20,36,67,315,41,7*73
$GAGSV,3,2,09,10,17,064,37,11,42,053,42,06,21,103,42,04,20,076,35,7*7C
$GAGSV,3,3,09,30,19,317,40,7*40
$GNGGA,043242.00,3958.37274835,N,11627.93615681,E,4,21,0.7,37.2640,M,-8.1761,M,1.0,1828*74
$GNRMC,043242.00,D,3958.37274835,N,11627.93615681,E,14.125,21.3,210525,7.2,W,R,S*5C
$GPGSV,2,1,07,14,07,173,21,06,69,340,44,03,07,039,38,11,45,279,23,1*63
$GPGSV,2,2,07,17,45,118,29,19,72,097,45,22,24,184,30,1*5D
$GPGSV,2,1,05,06,69,340,35,03,07,039,29,11,45,279,20,17,45,118,25,4*6D
$GPGSV,2,2,05,19,72,097,37,4*53
$GPGSV,1,1,03,06,69,340,39,03,07,039,29,11,45,279,19,8*5A
$GLGSV,2,1,07,82,47,048,46,73,31,277,25,83,47,320,25,81,11,084,38,1*78
$GLGSV,2,2,07,67,47,088,32,66,18,030,36,80,17,219,38,1*4C
$GLGSV,2,1,06,82,47,048,38,83,47,320,20,81,11,084,28,67,47,088,21,3*74
$GLGSV,2,2,06,66,18,030,22,80,17,219,33,3*72
$GBGSV,5,1,17,01,36,139,39,03,43,189,31,08,52,207,42,10,78,268,42,1*7F
$GBGSV,5,2,17,13,37,212,41,19,51,127,26,20,35,057,43,29,37,092,28,1*76
$GBGSV,5,3,17,35,69,336,44,38,63,204,45,40,73,115,43,59,36,146,39,1*72
$GBGSV,5,4,17,60,30,228,40,07,80,185,43,26,18,247,16,02,30,223,35,1*73
$GBGSV,5,5,17,04,27,122,38,1*4B
$GBGSV,4,1,13,01,36,139,26,08,52,207,34,10,78,268,30,13,37,212,31,8*7A
$GBGSV,4,2,13,19,51,127,20,20,35,057,31,35,69,336,33,38,63,204,38,8*79
$GBGSV,4,3,13,40,73,115,36,59,36,146,30,60,30,228,33,07,80,185,34,8*7A
$GBGSV,4,4,13,04,27,122,25,8*4A
$GBGSV,2,1,07,01,36,139,39,08,52,207,41,10,78,268,40,13,37,212,38,B*01
$GBGSV,2,2,07,07,80,185,42,02,30,223,37,04,27,122,38,B*3A
$GAGSV,3,1,09,02,52,262,25,09,17,127,25,25,33,189,20,36,67,315,29,1*7B
$GAGSV,3,2,09,10,17,064,33,11,42,053,35,06,21,103,34,04,20,076,35,1*7F
$GAGSV,3,3,09,30,19,317,35,1*44
$GAGSV,3,1,09,02,52,262,28,09,17,127,36,25,33,189,23,36,67,315,34,2*78
$GAGSV,3,2,09,10,17,064,36,11,42,053,39,06,21,103,39,04,20,076,39,2*74
$GAGSV,3,3,09,30,19,317,39,2*4B
$GAGSV,3,1,09,02,52,262,27,09,17,127,35,25,33,189,20,36,67,315,34,7*72
$GAGSV,3,2,09,10,17,064,36,11,42,053,41,06,21,103,41,04,20,076,37,7*7F
$GAGSV,3,3,09,30,19,317,40,7*40
$GNGGA,043243.00,3958.37663951,N,11627.93797714,E,4,15,0.8,37.2436,M,-8.1759,M,1.0,1828*72
$GNRMC,043243.00,D,3958.37663951,N,11627.93797714,E,15.490,22.5,210525,7.2,W,R,S*55
$GPGSV,2,1,07,14,07,173,21,06,69,340,34,03,07,039,36,11,45,279,23,1*6A
$GPGSV,2,2,07,17,45,118,27,19,72,097,45,22,24,184,26,1*54
$GPGSV,2,1,05,06,69,340,28,03,07,039,32,11,45,279,20,17,45,118,21,4*6F
$GPGSV,2,2,05,19,72,097,38,4*5C
$GPGSV,1,1,03,06,69,340,27,03,07,039,33,11,45,279,17,8*50
$GLGSV,2,1,07,82,47,048,47,73,31,277,26,83,47,320,23,81,11,084,38,1*7C
$GLGSV,2,2,07,67,47,088,39,66,18,030,31,80,17,219,38,1*40
$GLGSV,2,1,06,82,47,048,38,83,47,320,19,81,11,084,33,67,47,088,27,3*72
$GLGSV,2,2,06,66,18,030,20,80,17,219,33,3*70
$GBGSV,5,1,17,01,36,139,35,03,43,189,39,08,52,207,43,10,78,268,42,1*7A
$GBGSV,5,2,17,13,37,212,41,19,51,127,35,20,35,057,44,29,37,092,28,1*73
$GBGSV,5,3,17,35,69,336,33,38,63,204,45,40,73,115,43,59,36,146,34,1*7F
$GBGSV,5,4,17,60,30,228,35,07,80,185,43,26,18,247,16,02,30,223,35,1*71
$GBGSV,5,5,17,04,27,122,37,1*44
$GBGSV,3,1,10,08,52,207,35,10,78,268,30,13,37,212,31,19,51,127,21,8*7F
$GBGSV,3,2,10,20,35,057,36,35,69,336,29,38,63,204,38,40,73,115,36,8*7B
$GBGSV,3,3,10,60,30,228,22,07,80,185,34,8*77
$GBGSV,2,1,07,01,36,139,36,08,52,207,41,10,78,268,41,13,37,212,38,B*0F
$GBGSV,2,2,07,07,80,185,42,02,30,223,38,04,27,122,37,B*3A
$GAGSV,3,1,10,02,52,262,21,09,17,127,28,25,33,189,21,34,23,265,29,1*7F
$GAGSV,3,2,10,36,67,315,25,10,17,064,28,11,42,053,36,06,21,103,33,1*7C
$GAGSV,3,3,10,04,20,076,35,30,19,317,37,1*7F
$GAGSV,3,1,09,02,52,262,25,09,17,127,36,25,33,189,27,36,67,315,28,2*7C
$GAGSV,3,2,09,10,17,064,29,11,42,053,40,06,21,103,38,04,20,076,39,2*75
$GAGSV,3,3,09,30,19,317,41,2*44
$GAGSV,3,1,09,02,52,262,23,09,17,127,33,25,33,189,22,36,67,315,28,7*7F
$GAGSV,3,2,09,10,17,064,26,11,42,053,40,06,21,103,38,04,20,076,38,7*7E
$GAGSV,3,3,09,30,19,317,40,7*40
$GNGGA,043244.00,3958.38060066,N,11627.94041836,E,4,13,1.1,37.1942,M,-8.1757,M,1.0,1828*7B
$GNRMC,043244.00,D,3958.38060066,N,11627.94041836,E,15.894,28.5,210525,7.2,W,R,S*53
$GPGSV,2,1,08,14,07,173,21,06,69,340,28,03,07,039,36,11,45,279,22,1*69
$GPGSV,2,2,08,17,45,118,30,19,72,097,45,22,24,184,28,12,28,306,40,1*6B
$GPGSV,2,1,05,06,69,340,25,03,07,039,28,11,45,279,18,17,45,118,23,4*60
$GPGSV,2,2,05,19,72,097,38,4*5C
$GPGSV,1,1,03,06,69,340,27,03,07,039,29,11,45,279,16,8*5A
$GLGSV,2,1,07,82,47,048,47,73,31,277,26,83,47,320,24,81,11,084,41,1*75
$GLGSV,2,2,07,67,47,088,47,66,18,030,28,80,17,219,38,1*41
$GLGSV,2,1,06,82,47,048,38,83,47,320,18,81,11,084,29,67,47,088,35,3*7B
$GLGSV,2,2,06,66,18,030,19,80,17,219,34,3*7D
$GBGSV,5,1,17,01,36,139,30,03,43,189,40,08,52,207,42,10,78,268,34,1*71
$GBGSV,5,2,17,13,37,212,41,19,51,127,41,20,35,057,43,29,37,092,28,1*77
$GBGSV,5,3,17,35,69,336,27,38,63,204,46,40,73,115,43,59,36,146,23,1*7F
$GBGSV,5,4,17,60,30,228,21,07,80,185,43,26,18,247,27,02,30,223,32,1*71
$GBGSV,5,5,17,04,27,122,40,1*44
$GBGSV,3,1,09,08,52,207,34,10,78,268,25,13,37,212,31,19,51,127,28,8*7B
$GBGSV,3,2,09,20,35,057,34,38,63,204,37,40,73,115,36,07,80,185,34,8*7E
$GBGSV,3,3,09,04,27,122,30,8*45
$GBGSV,2,1,06,08,52,207,41,10,78,268,33,13,37,212,38,07,80,185,43,B*05
$GBGSV,2,2,06,02,30,223,36,04,27,122,38,B*0F
$GAGSV,2,1,08,02,52,262,19,09,17,127,28,25,33,189,25,34,23,265,29,1*78
$GAGSV,2,2,08,11,42,053,35,06,21,103,33,04,20,076,27,30,19,317,37,1*74
$GAGSV,2,1,08,09,17,127,35,25,33,189,33,34,23,265,34,10,17,064,28,2*78
$GAGSV,2,2,08,11,42,053,40,06,21,103,38,04,20,076,31,30,19,317,42,2*7B
$GAGSV,2,1,08,02,52,262,21,09,17,127,34,25,33,189,31,10,17,064,27,7*71
$GAGSV,2,2,08,11,42,053,41,06,21,103,41,04,20,076,30,30,19,317,41,7*73
$GNGGA,043245.00,3958.38435476,N,11627.94362103,E,4,15,0.9,37.2043,M,-8.1756,M,1.0,1828*73
$GNRMC,043245.00,D,3958.38435476,N,11627.94362103,E,16.542,37.5,210525,7.2,W,R,S*55
$GPGSV,2,1,07,14,07,173,21,03,07,039,34,11,45,279,22,17,45,118,35,1*69
$GPGSV,2,2,07,19,72,097,44,22,24,184,28,12,28,306,41,1*58
$GPGSV,1,1,04,03,07,039,25,11,45,279,20,17,45,118,25,19,72,097,37,4*6C
$GPGSV,1,1,02,03,07,039,26,11,45,279,18,8*61
$GLGSV,2,1,07,82,47,048,47,73,31,277,37,83,47,320,26,81,11,084,37,1*76
$GLGSV,2,2,07,67,47,088,46,66,18,030,24,80,17,219,35,1*41
$GLGSV,2,1,06,82,47,048,37,83,47,320,18,81,11,084,27,67,47,088,36,3*79
$GLGSV,2,2,06,66,18,030,17,80,17,219,31,3*76
$GBGSV,4,1,16,01,36,139,21,03,43,189,41,08,52,207,41,10,78,268,28,1*7E
$GBGSV,4,2,16,13,37,212,39,19,51,127,46,20,35,057,43,29,37,092,28,1*7F
$GBGSV,4,3,16,38,63,204,46,40,73,115,43,59,36,146,23,60,30,228,20,1*7A
$GBGSV,4,4,16,07,80,185,42,26,18,247,27,02,30,223,20,04,27,122,38,1*76
$GBGSV,2,1,08,08,52,207,34,13,37,212,30,19,51,127,33,20,35,057,35,8*75
$GBGSV,2,2,08,38,63,204,37,40,73,115,37,07,80,185,34,04,27,122,30,8*7D
$GBGSV,2,1,08,01,36,139,26,03,43,189,38,08,52,207,41,10,78,268,27,B*02
$GBGSV,2,2,08,13,37,212,38,07,80,185,43,02,30,223,32,04,27,122,37,B*02
$GAGSV,3,1,09,02,52,262,18,09,17,127,29,25,33,189,29,34,23,265,28,1*75
$GAGSV,3,2,09,36,67,315,19,11,42,053,35,06,21,103,35,04,20,076,28,1*7C
$GAGSV,3,3,09,30,19,317,37,1*46
$GAGSV,3,1,09,02,52,262,19,09,17,127,37,25,33,189,38,34,23,265,35,2*74
$GAGSV,3,2,09,10,17,064,25,11,42,053,39,06,21,103,40,04,20,076,32,2*73
$GAGSV,3,3,09,30,19,317,40,2*45
$GAGSV,2,1,08,02,52,262,20,09,17,127,36,25,33,189,40,10,17,064,23,7*70
$GAGSV,2,2,08,11,42,053,41,06,21,103,41,04,20,076,28,30,19,317,38,7*74
$GNGGA,043246.00,3958.38803902,N,11627.94745997,E,4,16,0.8,37.2321,M,-8.1754,M,1.0,1828*74
$GNRMC,043246.00,D,3958.38803902,N,11627.94745997,E,17.503,39.0,210525,7.2,W,R,S*5A
$GPGSV,2,1,07,14,07,173,21,06,69,340,23,03,07,039,33,11,45,279,22,1*68
$GPGSV,2,2,07,17,45,118,39,19,72,097,44,12,28,306,40,1*5D
$GPGSV,1,1,04,11,45,279,18,17,45,118,29,19,72,097,37,12,28,306,37,4*6A
$GPGSV,1,1,02,03,07,039,25,11,45,279,17,8*6D
$GLGSV,2,1,07,82,47,048,46,73,31,277,38,83,47,320,27,81,11,084,36,1*78
$GLGSV,2,2,07,67,47,088,48,66,18,030,26,80,17,219,36,1*4E
$GLGSV,2,1,06,82,47,048,35,83,47,320,18,81,11,084,28,67,47,088,36,3*74
$GLGSV,2,2,06,66,18,030,16,80,17,219,30,3*76
$GBGSV,4,1,15,01,36,139,27,03,43,189,38,08,52,207,40,10,78,268,27,1*7B
$GBGSV,4,2,15,13,37,212,37,19,51,127,47,20,35,057,46,29,37,092,33,1*7C
$GBGSV,4,3,15,38,63,204,46,40,73,115,43,59,36,146,28,07,80,185,42,1*78
$GBGSV,4,4,15,26,18,247,30,02,30,223,21,04,27,122,35,1*4A
$GBGSV,2,1,08,08,52,207,34,13,37,212,28,19,51,127,35,20,35,057,36,8*79
$GBGSV,2,2,08,38,63,204,35,40,73,115,36,07,80,185,34,04,27,122,31,8*7F
$GBGSV,2,1,08,01,36,139,26,03,43,189,37,08,52,207,40,10,78,268,25,B*0E
$GBGSV,2,2,08,13,37,212,35,07,80,185,43,02,30,223,27,04,27,122,38,B*04
$GAGSV,3,1,10,02,52,262,16,09,17,127,29,25,33,189,32,34,23,265,31,1*71
$GAGSV,3,2,10,36,67,315,18,10,17,064,20,11,42,053,34,06,21,103,34,1*7F
$GAGSV,3,3,10,04,20,076,27,30,19,317,38,1*73
$GAGSV,3,1,10,02,52,262,19,09,17,127,35,25,33,189,38,34,23,265,35,2*7E
$GAGSV,3,2,10,36,67,315,20,10,17,064,22,11,42,053,38,06,21,103,38,2*75
$GAGSV,3,3,10,04,20,076,32,30,19,317,41,2*7A
$GAGSV,3,1,10,02,52,262,20,09,17,127,35,25,33,189,35,34,23,265,39,7*70
$GAGSV,3,2,10,36,67,315,20,10,17,064,23,11,42,053,42,06,21,103,39,7*7D
$GAGSV,3,3,10,04,20,076,29,30,19,317,38,7*7B
$GNGGA,043247.00,3958.39182525,N,11627.95155379,E,4,14,1.1,37.2294,M,-8.1752,M,1.0,1828*72
$GNRMC,043247.00,D,3958.39182525,N,11627.95155379,E,18.140,40.2,210525,7.2,W,R,S*5F
$GPGSV,2,1,08,14,07,173,20,06,69,340,24,03,07,039,31,11,45,279,22,1*63
$GPGSV,2,2,08,17,45,118,37,19,72,097,44,22,24,184,22,12,28,306,36,1*66
$GPGSV,2,1,06,06,69,340,17,03,07,039,21,11,45,279,18,17,45,118,26,4*6E
$GPGSV,2,2,06,19,72,097,37,12,28,306,35,4*6A
$GPGSV,1,1,03,06,69,340,20,03,07,039,24,11,45,279,17,8*51
$GLGSV,2,1,07,82,47,048,46,73,31,277,38,83,47,320,25,81,11,084,35,1*79
$GLGSV,2,2,07,67,47,088,48,66,18,030,23,80,17,219,34,1*49
$GLGSV,2,1,06,82,47,048,33,83,47,320,19,81,11,084,23,67,47,088,36,3*78
$GLGSV,2,2,06,66,18,030,14,80,17,219,27,3*72
$GBGSV,4,1,14,01,36,139,30,03,43,189,39,08,52,207,41,10,78,268,26,1*7D
$GBGSV,4,2,14,13,37,212,37,19,51,127,47,20,35,057,47,29,37,092,36,1*79
$GBGSV,4,3,14,38,63,204,46,40,73,115,43,59,36,146,29,07,80,185,42,1*78
$GBGSV,4,4,14,26,18,247,30,04,27,122,33,1*7C
$GBGSV,3,1,09,08,52,207,34,10,78,268,17,13,37,212,28,19,51,127,38,8*73
$GBGSV,3,2,09,20,35,057,36,38,63,204,35,40,73,115,36,07,80,185,35,8*7F
$GBGSV,3,3,09,04,27,122,30,8*45
$GBGSV,2,1,08,01,36,139,30,03,43,189,37,08,52,207,41,10,78,268,25,B*08
$GBGSV,2,2,08,13,37,212,34,07,80,185,43,02,30,223,22,04,27,122,37,B*0F
$GAGSV,3,1,10,02,52,262,15,09,17,127,27,25,32,189,34,34,23,265,32,1*78
$GAGSV,3,2,10,36,67,315,17,10,17,064,20,11,42,053,33,06,21,103,35,1*76
$GAGSV,3,3,10,04,20,076,26,30,19,317,37,1*7D
$GAGSV,3,1,10,02,52,262,19,09,17,127,33,25,32,189,40,34,23,265,36,2*75
$GAGSV,3,2,10,36,67,315,20,10,17,064,21,11,42,053,38,06,21,103,40,2*79
$GAGSV,3,3,10,04,20,076,30,30,19,317,41,2*78
$GAGSV,3,1,10,02,52,262,19,09,17,127,32,25,32,189,36,34,23,265,40,7*71
$GAGSV,3,2,10,36,67,315,19,10,17,064,23,11,42,053,42,06,21,103,39,7*77
$GAGSV,3,3,10,04,20,076,27,30,19,317,38,7*75
$GNGGA,043248.00,3958.39579275,N,11627.95581047,E,4,14,1.3,37.2755,M,-8.1749,M,1.0,1828*7C
$GNRMC,043248.00,D,3958.39579275,N,11627.95581047,E,18.985,39.4,210525,7.2,W,R,S*58
$GPGSV,2,1,08,14,07,173,19,06,69,340,22,03,07,039,30,11,45,279,22,1*6E
$GPGSV,2,2,08,17,45,118,39,19,72,097,44,22,24,184,23,12,28,306,37,1*68
$GPGSV,2,1,06,06,69,340,17,03,07,039,21,11,45,279,18,17,45,118,31,4*68
$GPGSV,2,2,06,19,72,097,37,12,28,306,38,4*67
$GPGSV,1,1,03,06,69,340,19,03,07,039,26,11,45,279,18,8*56
$GLGSV,2,1,07,82,47,048,46,73,31,277,32,83,47,320,26,81,11,084,31,1*74
$GLGSV,2,2,07,67,47,088,48,66,18,030,26,80,17,219,32,1*4A
$GLGSV,2,1,06,82,47,048,32,83,47,320,19,81,11,084,20,67,47,088,37,3*7B
$GLGSV,2,2,06,66,18,030,15,80,17,219,26,3*72
$GBGSV,4,1,16,01,36,139,27,03,43,189,39,08,52,207,42,10,78,268,25,1*79
$GBGSV,4,2,16,13,37,212,37,19,51,127,47,20,35,057,47,29,37,092,36,1*7B
$GBGSV,4,3,16,35,69,336,20,38,63,204,46,40,73,115,43,59,36,146,25,1*7E
$GBGSV,4,4,16,07,80,185,42,26,18,247,30,02,30,223,22,04,27,122,33,1*79
$GBGSV,3,1,09,08,52,207,34,10,78,268,15,13,37,212,28,19,51,127,38,8*71
$GBGSV,3,2,09,20,35,057,36,38,63,204,35,40,73,115,35,07,80,185,35,8*7C
$GBGSV,3,3,09,04,27,122,28,8*4C
$GBGSV,2,1,08,01,36,139,22,03,43,189,38,08,52,207,40,10,78,268,22,B*02
$GBGSV,2,2,08,13,37,212,33,07,80,185,43,02,30,223,24,04,27,122,35,B*0C
$GAGSV,3,1,09,02,52,262,14,09,17,127,23,25,32,189,35,34,23,265,27,1*70
$GAGSV,3,2,09,36,67,315,17,10,17,064,21,11,42,053,33,06,21,103,33,1*79
$GAGSV,3,3,09,30,19,317,38,1*49
$GAGSV,3,1,09,02,52,262,19,09,17,127,29,25,32,189,40,34,23,265,30,2*70
$GAGSV,3,2,09,36,67,315,19,10,17,064,23,11,42,053,37,06,21,103,39,2*78
$GAGSV,3,3,09,30,19,317,42,2*47
$GAGSV,3,1,09,02,52,262,18,09,17,127,30,25,32,189,37,34,23,265,35,7*79
$GAGSV,3,2,09,36,67,315,18,10,17,064,24,11,42,053,42,06,21,103,37,7*77
$GAGSV,3,3,09,30,19,317,40,7*40
$GNGGA,043249.00,3958.39999385,N,11627.96036711,E,4,14,1.0,37.2485,M,-8.1747,M,1.0,1828*7C
$GNRMC,043249.00,D,3958.39999385,N,11627.96036711,E,20.363,40.0,210525,7.2,W,R,S*58
$GPGSV,2,1,08,14,07,173,19,06,69,340,22,03,07,039,32,11,45,279,25,1*6B
$GPGSV,2,2,08,17,45,118,39,19,72,097,43,22,24,184,23,12,28,306,37,1*6F
$GPGSV,2,1,06,06,69,340,19,03,07,039,23,11,45,279,19,17,45,118,31,4*65
$GPGSV,2,2,06,19,72,097,37,12,28,306,38,4*67
$GPGSV,1,1,03,06,69,340,18,03,07,039,29,11,45,279,18,8*58
$GLGSV,2,1,07,82,47,048,46,73,31,277,33,83,47,320,27,81,11,084,27,1*73
$GLGSV,2,2,07,67,47,088,49,66,18,030,27,80,17,219,34,1*4C
$GLGSV,2,1,06,82,47,048,33,83,47,320,19,81,11,084,20,67,47,088,37,3*7A
$GLGSV,2,2,06,66,18,030,15,80,17,219,28,3*7C
$GBGSV,4,1,16,01,36,139,25,03,43,189,39,08,52,207,41,10,78,268,23,1*7E
$GBGSV,4,2,16,13,37,212,37,19,51,127,47,20,35,057,47,29,37,092,35,1*78
$GBGSV,4,3,16,35,69,336,21,38,63,204,46,40,73,115,43,59,36,146,25,1*7F
$GBGSV,4,4,16,07,80,185,42,26,18,247,27,02,30,223,22,04,27,122,29,1*74
$GBGSV,3,1,09,08,52,207,34,10,78,268,12,13,37,212,28,19,51,127,38,8*76
$GBGSV,3,2,09,20,35,057,36,38,63,204,35,40,73,115,35,07,80,185,35,8*7C
$GBGSV,3,3,09,04,27,122,22,8*46
$GBGSV,2,1,06,03,43,189,38,08,52,207,41,10,78,268,22,13,37,212,34,B*02
$GBGSV,2,2,06,07,80,185,44,02,30,223,26,B*06
$GAGSV,3,1,10,02,52,262,14,09,17,127,20,25,32,189,36,34,23,265,27,1*78
$GAGSV,3,2,10,36,67,315,16,10,17,064,20,11,42,053,32,06,21,103,25,1*77
$GAGSV,3,3,10,04,20,076,19,30,19,317,37,1*71
$GAGSV,2,1,08,02,52,262,18,25,32,189,40,34,23,265,29,36,67,315,19,2*72
$GAGSV,2,2,08,10,17,064,24,11,42,053,37,06,21,103,31,30,19,317,41,2*77
$GAGSV,3,1,09,02,52,262,18,09,17,127,29,25,32,189,37,34,23,265,35,7*71
$GAGSV,3,2,09,36,67,315,18,10,17,064,26,11,42,053,42,06,21,103,30,7*72
$GAGSV,3,3,09,30,19,317,39,7*4E
$GNGGA,043250.00,3958.40451144,N,11627.96526940,E,4,14,1.5,37.2426,M,-8.1744,M,1.0,1828*7D
$GNRMC,043250.00,D,3958.40451144,N,11627.96526940,E,21.864,39.6,210525,7.2,W,R,S*53
$GPGSV,3,1,09,14,07,173,19,06,69,340,22,03,07,039,33,11,45,279,22,1*6D
$GPGSV,3,2,09,17,45,118,39,19,72,097,43,20,26,220,30,22,24,184,25,1*64
$GPGSV,3,3,09,12,28,306,36,1*54
$GPGSV,2,1,05,06,69,340,20,03,07,039,24,17,45,118,31,19,72,097,36,4*68
$GPGSV,2,2,05,12,28,306,37,4*5C
$GPGSV,1,1,02,06,69,340,18,03,07,039,29,8*6D
$GLGSV,2,1,07,82,47,048,46,73,31,277,32,83,47,320,28,81,11,084,21,1*7B
$GLGSV,2,2,07,67,47,088,48,66,18,030,26,80,17,219,36,1*4E
$GLGSV,2,1,06,82,47,048,33,83,47,320,19,81,11,084,16,67,47,088,37,3*7F
$GLGSV,2,2,06,66,18,030,14,80,17,219,29,3*7C
$GBGSV,4,1,13,01,36,139,25,03,43,189,38,08,52,207,41,10,78,268,27,1*7E
$GBGSV,4,2,13,13,37,212,38,19,51,127,47,20,35,057,47,29,37,092,36,1*71
$GBGSV,4,3,13,35,69,336,21,38,63,204,46,40,73,115,44,59,36,146,24,1*7C
$GBGSV,4,4,13,07,80,185,42,1*41
$GBGSV,2,1,08,08,52,207,34,10,78,268,13,13,37,212,28,19,51,127,38,8*77
$GBGSV,2,2,08,20,35,057,36,38,63,204,35,40,73,115,35,07,80,185,35,8*7C
$GBGSV,2,1,08,01,36,139,27,03,43,189,38,08,52,207,41,10,78,268,23,B*07
$GBGSV,2,2,08,13,37,212,34,07,80,185,43,02,30,223,21,04,27,122,24,B*0E
$GAGSV,3,1,10,02,52,262,12,09,17,127,19,25,32,189,36,34,23,265,29,1*7A
$GAGSV,3,2,10,36,67,315,16,10,17,064,18,11,42,053,32,06,21,103,26,1*7F
$GAGSV,3,3,10,04,20,076,17,30,19,317,36,1*7E
$GAGSV,2,1,08,02,52,262,18,25,32,189,41,34,23,265,33,36,67,315,19,2*78
$GAGSV,2,2,08,10,17,064,23,11,42,053,37,06,21,103,27,30,19,317,40,2*76
$GAGSV,3,1,10,02,52,262,18,09,17,127,23,25,32,189,37,34,23,265,37,7*71
$GAGSV,3,2,10,36,67,315,17,10,17,064,26,11,42,053,42,06,21,103,30,7*75
$GAGSV,3,3,10,04,20,076,22,30,19,317,38,7*70
$GNGGA,043251.00,3958.40934954,N,11627.97047146,E,4,15,1.4,37.2280,M,-8.1741,M,1.0,1828*79
$GNRMC,043251.00,D,3958.40934954,N,11627.97047146,E,23.281,39.2,210525,7.2,W,R,S*5F
$GPGSV,2,1,08,14,07,173,20,06,69,340,21,03,07,039,34,17,45,118,38,1*6A
$GPGSV,2,2,08,19,72,097,44,20,26,220,30,22,24,184,24,12,28,306,39,1*61
$GPGSV,2,1,06,06,69,340,20,03,07,039,25,11,45,279,17,17,45,118,31,4*67
$GPGSV,2,2,06,19,72,097,36,12,28,306,38,4*66
$GPGSV,1,1,02,06,69,340,18,03,07,039,28,8*6C
$GLGSV,2,1,07,82,47,048,46,73,31,277,29,83,47,320,25,81,11,084,20,1*7D
$GLGSV,2,2,07,67,47,088,48,66,18,030,22,80,17,219,36,1*4A
$GLGSV,2,1,06,82,47,048,33,83,47,320,19,81,11,084,10,67,47,088,38,3*76
$GLGSV,2,2,06,66,18,030,14,80,17,219,29,3*7C
$GBGSV,4,1,13,01,36,139,22,03,43,189,37,08,52,207,41,10,78,268,27,1*76
$GBGSV,4,2,13,13,37,212,37,19,51,127,48,20,35,057,47,29,37,092,35,1*72
$GBGSV,4,3,13,35,69,336,21,38,63,204,46,40,73,115,44,59,36,146,22,1*7A
$GBGSV,4,4,13,07,80,185,42,1*41
$GBGSV,2,1,08,08,52,207,34,10,78,268,12,13,37,212,27,19,51,127,38,8*79
$GBGSV,2,2,08,20,35,057,35,38,63,204,35,40,73,115,35,07,80,185,35,8*7F
$GBGSV,2,1,08,01,36,139,22,03,43,189,37,08,52,207,41,10,78,268,22,B*0C
$GBGSV,2,2,08,13,37,212,34,07,80,185,44,02,30,223,23,04,27,122,23,B*0C
$GAGSV,3,1,09,02,52,262,12,09,17,127,18,25,32,189,35,34,23,265,25,1*7C
$GAGSV,3,2,09,36,67,315,15,10,17,064,17,11,42,053,31,04,20,076,16,1*7B
$GAGSV,3,3,09,30,19,317,37,1*46
$GAGSV,3,1,10,02,52,262,17,09,17,127,20,25,32,189,41,34,23,265,27,2*78
$GAGSV,3,2,10,36,67,315,18,10,17,064,22,11,42,053,37,06,21,103,25,2*7D
$GAGSV,3,3,10,04,20,076,19,30,19,317,40,2*72
$GAGSV,3,1,10,02,52,262,18,09,17,127,21,25,32,189,37,34,23,265,34,7*70
$GAGSV,3,2,10,36,67,315,16,10,17,064,24,11,42,053,42,06,21,103,26,7*71
$GAGSV,3,3,10,04,20,076,21,30,19,317,37,7*7C
$GNGGA,043252.00,3958.41451751,N,11627.97596960,E,4,16,0.9,37.2849,M,-8.1739,M,1.0,1828*74
$GNRMC,043252.00,D,3958.41451751,N,11627.97596960,E,24.598,40.6,210525,7.2,W,R,S*5F
$GPGSV,2,1,08,14,07,173,19,06,69,340,21,03,07,039,34,17,45,118,36,1*6E
$GPGSV,2,2,08,19,72,097,44,20,26,220,29,22,24,184,23,12,28,306,39,1*6E
$GPGSV,2,1,05,06,69,340,19,03,07,039,25,17,45,118,28,19,72,097,36,4*6B
$GPGSV,2,2,05,12,28,306,37,4*5C
$GPGSV,1,1,02,06,69,340,16,03,07,039,29,8*63
$GLGSV,2,1,07,82,47,048,45,73,31,277,29,83,47,320,26,81,11,084,18,1*76
$GLGSV,2,2,07,67,47,088,48,66,18,030,21,80,17,219,36,1*49
$GLGSV,2,1,05,82,47,048,34,83,47,320,18,67,47,088,38,66,18,030,14,3*78
$GLGSV,2,2,05,80,17,219,28,3*41
$GBGSV,3,1,12,03,43,189,38,08,52,207,42,10,78,268,23,13,37,212,36,1*75
$GBGSV,3,2,12,19,51,127,45,20,35,057,46,29,37,092,33,35,69,336,21,1*71
$GBGSV,3,3,12,38,63,204,45,40,73,115,44,59,36,146,22,07,80,185,42,1*76
$GBGSV,2,1,07,08,52,207,33,13,37,212,28,19,51,127,36,20,35,057,35,8*71
$GBGSV,2,2,07,38,63,204,35,40,73,115,35,07,80,185,35,8*40
$GBGSV,2,1,06,03,43,189,39,08,52,207,41,10,78,268,23,13,37,212,34,B*02
$GBGSV,2,2,06,07,80,185,44,02,30,223,27,B*07
$GAGSV,3,1,09,02,52,262,11,09,17,127,16,25,32,189,34,34,23,265,24,1*71
$GAGSV,3,2,09,36,67,315,14,10,17,064,16,11,42,053,33,04,20,076,16,1*79
$GAGSV,3,3,09,30,19,317,38,1*49
$GAGSV,3,1,10,02,52,262,18,09,17,127,19,25,32,189,40,34,23,265,28,2*73
$GAGSV,3,2,10,36,67,315,17,10,17,064,21,11,42,053,38,06,21,103,21,2*7A
$GAGSV,3,3,10,04,20,076,17,30,19,317,42,2*7E
$GAGSV,3,1,09,02,52,262,17,09,17,127,21,25,32,189,35,34,23,265,33,7*72
$GAGSV,3,2,09,36,67,315,16,10,17,064,21,11,42,053,42,04,20,076,21,7*7B
$GAGSV,3,3,09,30,19,317,40,7*40
$GNGGA,043253.00,3958.41999162,N,11627.98165454,E,4,17,1.2,37.2947,M,-8.1736,M,1.0,1828*7C
$GNRMC,043253.00,D,3958.41999162,N,11627.98165454,E,25.658,38.3,210525,7.2,W,R,S*58
$GPGSV,2,1,08,14,07,173,20,06,69,340,21,03,07,039,32,11,45,279,20,1*67
$GPGSV,2,2,08,17,45,118,33,19,72,098,44,22,24,184,23,12,28,306,37,1*6D
$GPGSV,2,1,05,06,69,340,18,03,07,039,24,17,45,118,23,19,72,098,37,4*6E
$GPGSV,2,2,05,12,28,306,34,4*5F
$GPGSV,1,1,03,06,69,340,15,03,07,039,27,11,45,279,15,8*56
$GLGSV,2,1,07,82,47,048,45,73,31,277,27,83,47,320,24,81,11,084,17,1*75
$GLGSV,2,2,07,67,47,088,47,66,18,030,20,80,17,219,34,1*45
$GLGSV,1,1,04,82,47,048,34,83,47,320,18,67,47,088,35,80,17,219,28,3*76
$GBGSV,3,1,11,03,43,189,38,08,52,207,42,10,78,268,23,13,37,212,36,1*76
$GBGSV,3,2,11,19,51,127,42,20,35,057,46,29,37,092,32,35,69,336,20,1*75
$GBGSV,3,3,11,38,63,204,45,40,73,115,43,07,80,185,42,1*48
$GBGSV,2,1,08,03,43,189,30,08,52,207,33,13,37,212,27,19,51,127,32,8*72
$GBGSV,2,2,08,20,35,057,35,38,63,204,36,40,73,115,37,07,80,185,36,8*7D
$GBGSV,2,1,06,03,43,189,38,08,52,207,41,10,78,268,23,13,37,212,35,B*02
$GBGSV,2,2,06,07,80,185,44,02,30,223,21,B*01
$GAGSV,3,1,10,02,52,262,11,09,17,127,16,25,32,189,32,34,23,265,23,1*78
$GAGSV,3,2,10,36,67,315,13,10,17,064,14,11,42,053,32,06,21,103,18,1*7B
$GAGSV,3,3,10,04,20,076,15,30,19,317,38,1*72
$GAGSV,3,1,10,02,52,262,18,09,17,127,17,25,32,189,37,34,23,265,28,2*7D
$GAGSV,3,2,10,36,67,315,16,10,17,064,20,11,42,053,37,06,21,103,19,2*7E
$GAGSV,3,3,10,04,20,076,16,30,19,317,42,2*7F
$GAGSV,3,1,10,02,52,262,16,09,17,127,19,25,32,189,33,34,23,265,32,7*77
$GAGSV,3,2,10,36,67,315,14,10,17,064,21,11,42,053,43,06,21,103,20,7*71
$GAGSV,3,3,10,04,20,076,20,30,19,317,41,7*7C
$GNGGA,043254.00,3958.42567471,N,11627.98761932,E,4,15,1.6,37.1649,M,-8.1732,M,1.0,1828*7D
$GNRMC,043254.00,D,3958.42567471,N,11627.98761932,E,26.685,38.2,210525,7.2,W,R,S*5B
$GPGSV,2,1,08,14,07,173,20,06,69,340,21,03,07,039,30,11,45,279,20,1*65
$GPGSV,2,2,08,17,45,118,29,19,72,098,45,22,24,184,23,12,28,306,36,1*66
$GPGSV,2,1,06,06,69,340,18,03,07,039,21,11,45,279,16,17,45,118,21,4*68
$GPGSV,2,2,06,19,72,098,37,12,28,306,34,4*64
$GPGSV,1,1,03,06,69,340,14,03,07,039,26,11,45,279,15,8*56
$GLGSV,2,1,07,82,47,048,45,73,31,277,29,83,47,320,23,81,11,084,15,1*7E
$GLGSV,2,2,07,67,47,088,43,66,18,030,19,80,17,219,33,1*4C
$GLGSV,1,1,04,82,47,048,36,83,47,320,18,67,47,088,33,80,17,219,29,3*73
$GBGSV,3,1,12,03,43,189,36,08,52,207,41,10,78,268,23,13,37,212,33,1*7D
$GBGSV,3,2,12,19,51,127,38,20,35,057,46,29,37,092,31,35,69,336,20,1*78
$GBGSV,3,3,12,38,63,204,44,40,73,115,43,07,80,185,43,26,18,247,21,1*74
$GBGSV,2,1,08,03,43,189,25,08,52,207,31,13,37,212,29,19,51,127,28,8*71
$GBGSV,2,2,08,20,35,057,35,38,63,204,36,40,73,115,36,07,80,185,36,8*7C
$GBGSV,2,1,06,03,43,189,38,08,52,207,39,10,78,268,24,13,37,212,37,B*08
$GBGSV,2,2,06,07,80,185,44,02,30,223,27,B*07
$GAGSV,3,1,09,09,17,127,14,25,32,189,28,34,23,265,20,36,67,315,12,1*79
$GAGSV,3,2,09,10,17,064,13,11,42,053,34,06,21,103,18,04,20,076,14,1*71
$GAGSV,3,3,09,30,19,317,36,1*47
$GAGSV,3,1,10,02,52,262,17,09,17,127,16,25,32,189,33,34,23,265,26,2*79
$GAGSV,3,2,10,36,67,315,16,10,17,064,20,11,42,053,38,06,21,103,19,2*71
$GAGSV,3,3,10,04,20,076,16,30,19,317,41,2*7C
$GAGSV,3,1,09,02,52,262,16,09,17,127,18,25,32,189,30,34,23,265,29,7*77
$GAGSV,3,2,09,36,67,315,14,11,42,053,42,06,21,103,20,04,20,076,21,7*7A
$GAGSV,3,3,09,30,19,317,40,7*40
$GNGGA,043255.00,3958.43147626,N,11627.99394482,E,4,09,3.1,37.1513,M,-8.1729,M,1.0,1828*7C
$GNRMC,043255.00,D,3958.43147626,N,11627.99394482,E,27.836,38.1,210525,7.2,W,R,S*50
$GPGSV,2,1,08,14,07,173,19,06,69,340,22,03,07,039,26,11,45,279,20,1*6B
$GPGSV,2,2,08,17,45,118,29,19,72,098,45,22,24,184,22,12,28,306,33,1*62
$GPGSV,2,1,05,06,69,340,18,11,45,279,16,17,45,118,20,19,72,098,39,4*61
$GPGSV,2,2,05,12,28,306,31,4*5A
$GPGSV,1,1,03,06,69,340,15,03,07,039,22,11,45,279,15,8*53
$GLGSV,2,1,07,82,47,048,44,73,31,277,26,83,47,320,21,81,11,084,14,1*73
$GLGSV,2,2,07,67,47,088,35,66,18,030,20,80,17,219,35,1*41
$GLGSV,1,1,04,82,47,048,34,83,47,320,15,67,47,088,26,80,17,219,27,3*76
$GBGSV,3,1,12,03,43,189,34,08,52,207,41,10,78,268,24,13,37,212,33,1*78
$GBGSV,3,2,12,19,51,127,29,20,35,057,44,29,37,092,26,35,69,336,19,1*76
$GBGSV,3,3,12,38,63,204,44,40,73,115,44,07,80,185,43,26,18,247,19,1*78
$GBGSV,2,1,08,03,43,189,21,08,52,207,31,13,37,212,28,19,51,127,25,8*79
$GBGSV,2,2,08,20,35,057,32,38,63,204,37,40,73,115,37,07,80,185,36,8*7B
$GBGSV,2,1,06,03,43,189,35,08,52,207,38,10,78,268,24,13,37,212,36,B*05
$GBGSV,2,2,06,07,80,185,45,02,30,223,21,B*00
$GAGSV,3,1,09,09,17,127,14,25,32,189,25,34,23,265,21,36,67,315,11,1*76
$GAGSV,3,2,09,10,17,064,12,11,42,053,35,06,21,103,18,04,20,076,15,1*70
$GAGSV,3,3,09,30,19,317,35,1*44
$GAGSV,3,1,10,02,52,262,16,09,17,127,16,25,32,189,29,34,23,265,26,2*73
$GAGSV,3,2,10,36,67,315,16,10,17,064,21,11,42,053,40,06,21,103,23,2*76
$GAGSV,3,3,10,04,20,076,17,30,19,317,39,2*72
$GAGSV,3,1,10,02,52,262,16,09,17,127,19,25,32,189,29,34,23,265,31,7*7F
$GAGSV,3,2,10,36,67,315,13,10,17,064,20,11,42,053,43,06,21,103,20,7*77
$GAGSV,3,3,10,04,20,076,22,30,19,317,36,7*7E
$GNGGA,043256.00,3958.43737033,N,11628.00055566,E,4,08,5.8,37.2098,M,-8.1726,M,1.0,1828*72
$GNRMC,043256.00,D,3958.43737033,N,11628.00055566,E,28.329,39.1,210525,7.2,W,R,S*51
$GPGSV,2,1,08,14,07,173,19,06,69,340,23,03,07,039,23,11,45,279,19,1*65
$GPGSV,2,2,08,17,45,118,26,19,72,098,46,22,24,184,23,12,28,306,30,1*6C
$GPGSV,2,1,05,06,69,340,17,11,45,279,16,17,45,118,19,19,72,098,38,4*65
$GPGSV,2,2,05,12,28,306,31,4*5A
$GPGSV,1,1,03,06,69,340,16,03,07,039,20,11,45,279,15,8*52
$GLGSV,2,1,07,82,47,048,46,73,31,277,26,83,47,320,21,81,11,084,15,1*70
$GLGSV,2,2,07,67,47,088,32,66,18,030,20,80,17,219,33,1*40
$GLGSV,1,1,04,82,47,048,37,83,47,320,16,67,47,088,28,80,17,219,28,3*77
$GBGSV,3,1,12,03,43,189,30,08,52,207,40,10,78,268,26,13,37,212,35,1*79
$GBGSV,3,2,12,19,51,127,25,20,35,057,42,29,37,092,23,35,69,336,20,1*73
$GBGSV,3,3,12,38,63,204,43,40,73,115,43,07,80,185,43,26,18,247,19,1*78
$GBGSV,2,1,08,03,43,189,23,08,52,207,32,13,37,212,29,19,51,127,21,8*7D
$GBGSV,2,2,08,20,35,057,26,38,63,204,35,40,73,115,36,07,80,185,36,8*7D
$GBGSV,2,1,06,03,43,189,31,08,52,207,39,10,78,268,30,13,37,212,37,B*04
$GBGSV,2,2,06,07,80,185,44,02,30,223,27,B*07
$GAGSV,2,1,08,09,17,127,18,34,23,265,20,36,67,315,12,10,17,064,10,1*7D
$GAGSV,2,2,08,11,42,053,33,06,21,103,19,04,20,076,14,30,19,317,34,1*79
$GAGSV,3,1,10,02,52,262,15,09,17,127,21,25,32,189,25,34,23,265,22,2*7C
$GAGSV,3,2,10,36,67,315,17,10,17,064,21,11,42,053,38,06,21,103,24,2*7F
$GAGSV,3,3,10,04,20,076,17,30,19,317,38,2*73
$GAGSV,3,1,10,02,52,262,16,09,17,127,22,25,32,189,23,34,23,265,28,7*75
$GAGSV,3,2,10,36,67,315,12,10,17,064,21,11,42,053,43,06,21,103,22,7*75
$GAGSV,3,3,10,04,20,076,22,30,19,317,35,7*7D
$GNGGA,043257.00,3958.44352958,N,11628.00726431,E,4,07,6.8,37.1964,M,-8.1722,M,1.0,1828*76
$GNRMC,043257.00,D,3958.44352958,N,11628.00726431,E,29.101,39.6,210525,7.2,W,R,S*5A
$GPGSV,2,1,08,14,07,173,19,06,69,340,22,03,07,039,21,11,45,279,20,1*6C
$GPGSV,2,2,08,17,45,118,22,19,72,098,43,22,24,184,23,12,28,306,30,1*6D
$GPGSV,2,1,05,06,69,340,17,11,45,279,17,17,45,118,18,19,72,098,35,4*68
$GPGSV,2,2,05,12,28,306,29,4*53
$GPGSV,1,1,03,06,69,340,15,03,07,039,19,11,45,279,15,8*5B
$GLGSV,2,1,07,82,47,048,45,73,31,277,26,83,47,320,19,81,11,084,15,1*78
$GLGSV,2,2,07,67,47,088,28,66,18,030,20,80,17,219,35,1*4D
$GLGSV,1,1,04,82,47,048,35,83,47,320,15,67,47,088,25,80,17,219,30,3*72
$GBGSV,3,1,12,03,43,189,24,08,52,207,42,10,78,268,29,13,37,212,37,1*73
$GBGSV,3,2,12,19,51,127,25,20,35,057,34,29,37,092,23,35,69,336,20,1*72
$GBGSV,3,3,12,38,63,204,45,40,73,115,40,07,80,185,43,26,18,247,18,1*7C
$GBGSV,2,1,07,08,52,207,33,13,37,212,28,19,51,127,20,20,35,057,25,8*77
$GBGSV,2,2,07,38,63,204,37,40,73,115,33,07,80,185,36,8*47
$GBGSV,2,1,05,08,52,207,40,10,78,268,23,13,37,212,36,07,80,185,45,B*0E
$GBGSV,2,2,05,02,30,223,21,B*31
$GAGSV,2,1,08,09,17,127,22,25,32,189,19,34,23,265,19,36,67,315,10,1*76
$GAGSV,2,2,08,11,42,053,30,06,21,103,21,04,20,076,13,30,19,317,30,1*72
$GAGSV,3,1,10,02,52,262,16,09,17,127,28,25,32,189,22,34,23,265,22,2*71
$GAGSV,3,2,10,36,67,315,17,10,17,064,21,11,42,053,35,06,21,103,25,2*73
$GAGSV,3,3,10,04,20,076,18,30,19,317,35,2*71
$GAGSV,3,1,10,02,52,262,16,09,17,127,24,25,32,189,23,34,23,265,28,7*73
$GAGSV,3,2,10,36,67,315,11,10,17,064,22,11,42,053,40,06,21,103,25,7*71
$GAGSV,3,3,10,04,20,076,23,30,19,317,34,7*7D
$GNGGA,043258.00,3958.45064695,N,11628.01380904,E,2,27,0.6,37.6523,M,-8.1718,M,1.0,1828*7F
$GNRMC,043258.00,A,3958.45064695,N,11628.01380904,E,29.762,38.6,210525,7.2,W,D,C*5F
$GPGSV,2,1,08,14,07,173,19,06,69,340,22,03,07,039,16,11,45,279,19,1*62
$GPGSV,2,2,08,17,45,118,22,19,72,098,33,22,24,184,23,12,28,306,27,1*6C
$GPGSV,1,1,04,06,69,340,19,17,45,118,17,19,72,098,31,12,28,306,25,4*6F
$GPGSV,1,1,03,06,69,340,19,03,07,039,18,11,45,279,14,8*57
$GLGSV,2,1,07,82,47,048,42,73,31,277,25,83,47,320,18,81,11,084,16,1*7E
$GLGSV,2,2,07,67,47,088,26,66,18,030,23,80,17,219,36,1*43
$GLGSV,1,1,04,82,47,048,32,83,47,320,18,67,47,088,22,80,17,219,30,3*7F
$GBGSV,3,1,11,03,43,189,23,08,52,207,41,10,78,268,28,13,37,212,34,1*76
$GBGSV,3,2,11,20,35,057,34,29,37,092,23,35,69,336,20,38,63,204,45,1*77
$GBGSV,3,3,11,40,73,115,36,07,80,185,44,26,18,247,17,1*4F
$GBGSV,2,1,06,08,52,207,30,13,37,212,26,19,51,127,19,38,63,204,35,8*7E
$GBGSV,2,2,06,40,73,115,26,07,80,185,36,8*7E
$GBGSV,2,1,06,03,43,189,24,08,52,207,37,10,78,268,29,13,37,212,34,B*05
$GBGSV,2,2,06,07,80,185,46,02,30,223,27,B*05
$GAGSV,2,1,08,09,17,127,29,25,32,189,18,34,23,265,18,36,67,315,11,1*7C
$GAGSV,2,2,08,11,42,053,27,06,21,103,24,04,20,076,12,30,19,317,30,1*70
$GAGSV,3,1,10,02,52,262,15,09,17,127,34,25,32,189,21,34,23,265,21,2*7F
$GAGSV,3,2,10,36,67,315,18,10,17,064,20,11,42,053,29,06,21,103,28,2*7D
$GAGSV,3,3,10,04,20,076,19,30,19,317,34,2*71
$GAGSV,3,1,09,02,52,262,16,09,17,127,33,25,32,189,23,36,67,315,11,7*73
$GAGSV,3,2,09,10,17,064,22,11,42,053,31,06,21,103,30,04,20,076,23,7*7E
$GAGSV,3,3,09,30,19,317,32,7*45
$GNGGA,043259.00,3958.45705240,N,11628.02070901,E,2,28,0.6,37.4833,M,-8.1715,M,1.0,1828*74
$GNRMC,043259.00,A,3958.45705240,N,11628.02070901,E,30.167,39.5,210525,7.2,W,D,C*51
$GPGSV,2,1,08,14,07,173,23,06,69,340,23,03,07,039,19,11,45,279,19,1*65
$GPGSV,2,2,08,17,45,118,23,19,72,098,32,22,24,184,23,12,29,306,24,1*6E
$GPGSV,1,1,03,06,69,340,17,11,45,279,16,17,45,118,17,4*59
$GPGSV,1,1,03,06,69,340,18,03,07,039,16,11,45,279,14,8*58
$GLGSV,2,1,07,82,47,048,37,73,31,277,22,83,47,320,18,81,11,084,25,1*7B
$GLGSV,2,2,07,67,47,088,26,66,18,030,22,80,17,219,36,1*42
$GLGSV,1,1,04,82,47,048,29,83,47,320,15,67,47,088,20,80,17,219,29,3*72
$GBGSV,3,1,12,03,43,189,26,08,52,207,38,10,78,268,26,13,37,212,30,1*74
$GBGSV,3,2,12,19,51,127,21,20,35,057,27,29,37,092,24,35,69,336,21,1*72
$GBGSV,3,3,12,38,63,204,42,40,73,115,33,07,80,185,43,26,18,247,16,1*71
$GBGSV,2,1,06,08,52,207,27,13,37,212,21,19,51,127,17,20,35,057,19,8*71
$GBGSV,2,2,06,38,63,204,33,07,80,185,35,8*74
$GBGSV,2,1,05,08,52,207,34,10,78,268,25,13,37,212,31,07,80,185,44,B*0D
$GBGSV,2,2,05,02,30,223,29,B*39
$GAGSV,2,1,08,09,17,127,30,25,32,189,17,34,23,265,17,36,67,315,14,1*71
$GAGSV,2,2,08,11,42,053,25,06,21,103,27,04,20,076,11,30,19,317,32,1*70
$GAGSV,3,1,10,02,52,262,14,09,17,127,34,25,32,189,21,34,23,265,22,2*7D
$GAGSV,3,2,10,36,67,315,18,10,17,064,22,11,42,053,28,06,21,103,33,2*74
$GAGSV,3,3,10,04,20,076,19,30,19,317,36,2*73
$GAGSV,3,1,09,02,52,262,17,09,17,127,35,25,32,189,23,34,23,265,26,7*74
$GAGSV,3,2,09,10,17,064,22,11,42,053,28,06,21,103,36,04,20,076,22,7*71
$GAGSV,3,3,09,30,19,317,29,7*4F
$GNGGA,043300.00,3958.46334221,N,11628.02771500,E,2,28,0.6,37.2309,M,-8.1711,M,2.0,1828*73
$GNRMC,043300.00,A,3958.46334221,N,11628.02771500,E,29.932,40.6,210525,7.2,W,D,C*58
$GPGSV,2,1,08,14,07,173,25,06,69,340,23,03,07,039,18,11,45,279,19,1*62
$GPGSV,2,2,08,17,45,118,23,19,72,098,33,22,24,184,23,12,29,306,26,1*6D
$GPGSV,1,1,02,11,45,279,16,17,45,118,19,4*6E
$GPGSV,1,1,03,06,69,340,17,03,07,039,15,11,45,279,14,8*54
$GLGSV,2,1,07,82,47,048,34,73,31,277,21,83,47,320,19,81,11,084,29,1*76
$GLGSV,2,2,07,67,47,088,24,66,18,030,20,80,17,219,34,1*40
$GLGSV,1,1,04,82,47,048,27,83,47,320,15,67,47,088,18,80,17,219,27,3*79
$GBGSV,3,1,12,03,43,189,22,08,52,207,33,10,78,268,23,13,37,212,26,1*79
$GBGSV,3,2,12,19,51,127,21,20,35,057,29,29,37,092,24,35,69,336,21,1*7C
$GBGSV,3,3,12,38,63,204,39,40,73,115,25,07,80,185,41,26,18,247,15,1*7B
$GBGSV,2,1,06,08,52,207,23,13,37,212,20,19,51,127,17,20,35,057,19,8*74
$GBGSV,2,2,06,38,63,204,31,07,80,185,33,8*70
$GBGSV,2,1,06,03,43,189,23,08,52,207,30,10,78,268,28,13,37,212,30,B*00
$GBGSV,2,2,06,07,80,185,41,02,30,223,30,B*04
$GAGSV,2,1,08,09,17,127,29,25,32,189,15,34,23,265,16,36,67,315,12,1*7C
$GAGSV,2,2,08,11,42,053,21,06,21,102,28,04,20,076,10,30,19,317,32,1*7B
$GAGSV,3,1,10,02,52,262,15,09,17,127,35,25,32,189,20,34,23,265,20,2*7E
$GAGSV,3,2,10,36,67,315,18,10,17,064,21,11,42,053,26,06,21,102,33,2*78
$GAGSV,3,3,10,04,20,076,21,30,19,317,35,2*7B
$GAGSV,3,1,09,02,52,262,16,09,17,127,33,25,32,189,22,34,23,265,21,7*75
$GAGSV,3,2,09,10,17,064,22,11,42,053,28,06,21,102,35,04,20,076,23,7*72
$GAGSV,3,3,09,30,19,317,31,7*46
$GNGGA,043301.00,3958.46962115,N,11628.03460692,E,2,28,0.6,36.9974,M,-8.1708,M,1.0,1828*74
$GNRMC,043301.00,A,3958.46962115,N,11628.03460692,E,29.686,40.2,210525,7.2,W,D,C*5A
$GPGSV,2,1,07,14,07,173,26,06,69,340,22,03,07,039,17,11,45,279,19,1*60
$GPGSV,2,2,07,17,45,118,24,19,72,098,31,22,24,184,22,1*5F
$GPGSV,1,1,02,11,45,279,16,17,45,118,19,4*6E
$GPGSV,1,1,03,06,69,340,17,03,07,039,13,11,45,279,13,8*55
$GLGSV,2,1,07,82,47,048,32,73,31,277,21,83,47,320,21,81,11,084,31,1*72
$GLGSV,2,2,07,67,47,088,23,66,18,030,21,80,17,218,33,1*40
$GLGSV,1,1,04,82,47,048,27,83,47,320,12,67,47,088,17,80,17,218,24,3*73
$GBGSV,3,1,10,03,43,189,24,08,52,207,25,10,78,268,27,19,51,127,21,1*76
$GBGSV,3,2,10,20,35,057,30,29,37,092,25,35,69,336,20,38,63,204,31,1*77
$GBGSV,3,3,10,07,80,185,38,26,18,247,14,1*76
$GBGSV,2,1,06,13,37,212,20,19,51,127,15,20,35,057,18,38,63,204,29,8*7F
$GBGSV,2,2,06,40,73,115,20,07,80,185,30,8*7E
$GBGSV,2,1,06,03,43,189,24,08,52,207,27,10,78,268,30,13,37,212,30,B*08
$GBGSV,2,2,06,07,80,185,38,02,30,223,27,B*0C
$GAGSV,2,1,08,09,17,127,30,25,32,189,12,34,23,265,15,36,67,315,14,1*76
$GAGSV,2,2,08,11,42,053,19,06,21,102,28,04,20,076,11,30,19,317,28,1*7A
$GAGSV,3,1,09,02,52,262,17,09,17,127,35,25,32,189,20,34,23,265,19,2*7E
$GAGSV,3,2,09,36,67,315,18,10,17,064,21,06,21,102,33,04,20,076,21,2*70
$GAGSV,3,3,09,30,19,317,31,2*43
$GAGSV,3,1,09,02,52,262,16,09,17,127,34,25,32,189,21,34,23,265,20,7*70
$GAGSV,3,2,09,10,17,064,23,11,42,053,30,06,21,102,34,04,20,076,23,7*7B
$GAGSV,3,3,09,30,19,317,27,7*41
$GNGGA,043302.00,3958.47614083,N,11628.04151905,E,2,28,0.6,36.7864,M,-8.1704,M,1.0,1828*75
$GNRMC,043302.00,A,3958.47614083,N,11628.04151905,E,30.382,39.1,210525,7.2,W,D,C*5D
$GPGSV,2,1,07,14,07,173,26,06,69,340,21,03,07,039,16,11,45,279,19,1*62
$GPGSV,2,2,07,17,45,118,27,19,72,098,26,22,24,184,26,1*5E
$GPGSV,1,1,03,06,69,340,19,11,45,279,15,17,45,118,19,4*5A
$GPGSV,1,1,02,06,69,340,19,11,45,279,14,8*61
$GLGSV,2,1,07,82,47,048,35,73,31,277,21,83,47,320,21,81,11,084,33,1*77
$GLGSV,2,2,07,67,47,088,23,66,18,030,20,80,17,218,31,1*43
$GLGSV,1,1,03,82,47,048,28,67,47,088,15,80,17,218,22,3*45
$GBGSV,3,1,11,03,43,189,22,08,52,207,24,10,78,268,30,19,51,127,21,1*76
$GBGSV,3,2,11,20,35,057,29,29,37,092,25,35,69,336,21,38,63,204,32,1*7C
$GBGSV,3,3,11,40,73,115,23,07,80,185,37,26,18,247,14,1*4C
$GBGSV,2,1,07,08,52,207,20,13,37,212,20,19,51,127,14,20,35,057,17,8*7B
$GBGSV,2,2,07,38,63,204,30,40,73,115,19,07,80,185,29,8*46
$GBGSV,2,1,06,03,43,189,22,08,52,207,29,10,78,268,29,13,37,212,30,B*08
$GBGSV,2,2,06,07,80,185,36,02,30,223,23,B*06
$GAGSV,2,1,07,09,17,127,30,25,32,189,14,34,23,265,14,36,67,315,15,1*7F
$GAGSV,2,2,07,11,42,053,19,04,20,076,11,30,19,317,22,1*43
$GAGSV,3,1,09,02,52,262,18,09,17,127,35,25,32,189,20,34,23,265,18,2*70
$GAGSV,3,2,09,36,67,315,19,10,17,064,21,06,21,102,23,04,20,076,22,2*73
$GAGSV,3,3,09,30,19,317,28,2*4B
$GAGSV,3,1,09,02,52,262,16,09,17,127,33,25,32,189,21,34,23,265,19,7*7D
$GAGSV,3,2,09,10,17,064,23,11,42,053,28,06,21,102,25,04,20,076,24,7*75
$GAGSV,3,3,09,30,19,317,24,7*42
$GNGGA,043303.00,3958.48277392,N,11628.04827453,E,2,24,0.8,36.6445,M,-8.1700,M,1.0,1828*77
$GNRMC,043303.00,A,3958.48277392,N,11628.04827453,E,30.415,38.2,210525,7.2,W,D,C*5C
$GPGSV,2,1,07,14,07,173,25,06,69,340,24,03,07,039,15,11,45,279,18,1*66
$GPGSV,2,2,07,17,45,118,26,19,72,098,30,22,24,184,26,1*58
$GPGSV,1,1,02,06,69,340,19,17,45,118,20,4*68
$GPGSV,1,1,02,06,69,340,19,11,45,279,13,8*66
$GLGSV,2,1,07,82,47,048,36,73,31,277,19,83,47,320,20,81,11,084,33,1*7E
$GLGSV,2,2,07,67,47,088,24,66,18,030,19,80,17,218,30,1*4F
$GLGSV,1,1,03,82,47,048,29,67,47,088,12,80,17,218,20,3*41
$GBGSV,3,1,12,03,43,189,22,08,52,207,28,10,78,268,30,13,37,212,27,1*70
$GBGSV,3,2,12,19,51,127,21,20,35,057,30,29,37,092,24,35,69,336,23,1*76
$GBGSV,3,3,12,38,63,204,34,40,73,115,22,07,80,185,36,26,18,247,14,1*70
$GBGSV,2,1,07,08,52,207,22,13,37,212,21,19,51,127,14,20,35,057,17,8*78
$GBGSV,2,2,07,38,63,204,29,40,73,115,18,07,80,185,28,8*4E
$GBGSV,2,1,06,03,43,189,25,08,52,207,31,10,78,268,28,13,37,212,29,B*0F
$GBGSV,2,2,06,07,80,185,34,02,30,223,26,B*01
$GAGSV,2,1,07,09,17,127,28,25,32,189,11,34,23,265,14,36,67,315,16,1*70
$GAGSV,2,2,07,11,42,053,20,04,20,076,12,30,19,317,21,1*49
$GAGSV,3,1,09,02,52,262,18,09,17,127,33,25,32,189,20,34,23,265,17,2*79
$GAGSV,3,2,09,36,67,315,19,10,17,064,20,11,42,053,23,04,20,076,22,2*74
$GAGSV,3,3,09,30,19,317,27,2*44
$GAGSV,2,1,07,02,52,262,17,09,17,127,32,25,32,189,20,34,23,265,19,7*73
$GAGSV,2,2,07,10,17,064,22,11,42,053,28,04,20,076,23,7*4D
$GNGGA,043304.00,3958.48949088,N,11628.05498306,E,2,26,0.6,36.5444,M,-8.1697,M,1.0,1828*71
$GNRMC,043304.00,A,3958.48949088,N,11628.05498306,E,30.503,37.7,210525,7.3,W,D,C*56
$GPGSV,2,1,07,14,07,173,23,06,69,340,24,03,07,039,15,11,45,279,18,1*60
$GPGSV,2,2,07,17,45,118,26,19,72,098,30,22,24,184,25,1*5B
$GPGSV,1,1,03,06,69,340,18,11,45,279,14,17,45,118,20,4*50
$GPGSV,1,1,03,06,69,340,19,03,07,039,12,11,45,279,12,8*5B
$GLGSV,2,1,07,82,47,048,34,73,30,277,19,83,47,320,20,81,11,084,35,1*7B
$GLGSV,2,2,07,67,47,088,24,66,18,030,19,80,17,218,28,1*46
$GLGSV,1,1,03,82,47,048,27,67,47,088,11,80,17,218,19,3*46
$GBGSV,3,1,12,03,43,189,24,08,52,207,30,10,78,268,29,13,37,212,27,1*77
$GBGSV,3,2,12,19,51,127,21,20,35,057,28,29,37,092,25,35,69,336,23,1*7E
$GBGSV,3,3,12,38,63,204,35,40,73,115,26,07,80,185,35,26,18,247,15,1*77
$GBGSV,2,1,07,08,52,207,23,13,37,212,20,19,51,127,15,20,35,057,15,8*7B
$GBGSV,2,2,07,38,63,204,28,40,73,115,18,07,80,185,26,8*41
$GBGSV,2,1,05,03,43,189,24,08,52,207,30,10,78,268,25,13,37,212,29,B*01
$GBGSV,2,2,05,07,80,185,31,B*31
$GAGSV,2,1,07,09,17,127,31,25,32,189,13,34,23,265,13,36,67,315,16,1*7D
$GAGSV,2,2,07,11,42,053,19,04,20,076,15,30,19,317,21,1*44
$GAGSV,3,1,09,02,52,262,19,09,17,127,36,25,32,189,22,34,23,265,16,2*7E
$GAGSV,3,2,09,36,67,315,19,10,17,064,20,11,42,053,25,04,20,076,22,2*72
$GAGSV,3,3,09,30,19,317,27,2*44
$GAGSV,2,1,08,02,52,262,16,09,17,127,35,25,32,189,20,34,23,265,18,7*7B
$GAGSV,2,2,08,10,17,064,22,11,42,053,27,04,20,076,23,30,19,317,22,7*73
$GNGGA,043305.00,3958.49614829,N,11628.06177806,E,2,28,0.6,36.4993,M,-8.1693,M,1.0,1828*75
$GNRMC,043305.00,A,3958.49614829,N,11628.06177806,E,30.458,38.1,210525,7.3,W,D,C*58
$GPGSV,2,1,07,14,07,173,22,06,69,340,23,03,07,039,15,11,45,279,18,1*66
$GPGSV,2,2,07,17,45,118,25,19,72,098,29,22,24,184,23,1*56
$GPGSV,1,1,02,06,69,340,17,17,45,118,19,4*6C
$GPGSV,1,1,02,06,69,340,18,03,07,039,12,8*65
$GLGSV,2,1,07,82,47,048,31,73,30,277,19,83,47,320,20,81,11,084,34,1*7F
$GLGSV,2,2,07,67,47,088,27,66,18,030,18,80,17,218,24,1*48
$GLGSV,1,1,03,82,47,048,21,67,47,088,11,80,17,218,18,3*41
$GBGSV,3,1,12,03,43,189,24,08,52,207,31,10,78,268,26,13,37,212,28,1*76
$GBGSV,3,2,12,19,51,127,21,20,35,057,29,29,37,092,26,35,69,336,22,1*7D
$GBGSV,3,3,12,38,63,205,34,40,73,115,25,07,80,185,32,26,18,247,14,1*72
$GBGSV,2,1,07,08,52,207,22,13,37,212,20,19,51,127,15,20,35,057,15,8*7A
$GBGSV,2,2,07,38,63,205,26,40,73,115,17,07,80,185,22,8*45
$GBGSV,1,1,04,08,52,207,29,10,78,268,22,13,37,212,26,07,80,185,28,B*08
$GAGSV,2,1,06,09,17,127,29,25,32,189,13,36,67,315,15,11,42,053,19,1*7B
$GAGSV,2,2,06,04,20,076,15,30,19,317,20,1*7C
$GAGSV,3,1,09,02,52,262,18,09,17,127,34,25,32,189,22,34,23,265,15,2*7E
$GAGSV,3,2,09,36,67,315,18,10,17,064,20,11,42,053,24,04,20,076,22,2*72
$GAGSV,3,3,09,30,19,317,21,2*42
$GAGSV,2,1,08,02,52,262,16,09,17,127,34,25,32,189,19,34,23,265,17,7*7F
$GAGSV,2,2,08,10,17,064,21,11,42,053,25,04,20,076,22,30,19,317,22,7*73
$GNGGA,043306.00,3958.50255053,N,11628.06845163,E,2,25,0.6,36.5476,M,-8.1690,M,1.0,1828*71
$GNRMC,043306.00,A,3958.50255053,N,11628.06845163,E,29.527,38.7,210525,7.3,W,D,C*52
$GPGSV,2,1,07,14,07,173,22,06,69,340,22,03,07,039,15,11,45,279,18,1*67
$GPGSV,2,2,07,17,45,118,27,19,72,098,29,22,24,184,22,1*55
$GPGSV,1,1,03,06,69,340,16,11,45,279,15,17,45,118,18,4*54
$GPGSV,1,1,02,06,69,340,17,03,07,039,13,8*6B
$GLGSV,2,1,07,82,47,049,27,73,30,277,18,83,47,320,20,81,11,084,33,1*7F
$GLGSV,2,2,07,67,47,088,29,66,18,030,19,80,17,218,21,1*42
$GLGSV,1,1,02,82,47,049,19,80,17,218,17,3*77
$GBGSV,3,1,11,03,43,189,21,08,52,207,30,13,37,212,24,19,51,127,24,1*75
$GBGSV,3,2,11,20,35,057,20,29,37,092,25,35,69,336,21,38,63,205,30,1*76
$GBGSV,3,3,11,40,73,115,25,07,80,185,28,26,18,247,12,1*42
$GBGSV,2,1,06,08,52,207,21,13,37,212,18,19,51,127,14,20,35,057,15,8*72
$GBGSV,2,2,06,40,73,115,16,07,80,185,20,8*7A
$GBGSV,2,1,05,03,43,189,23,08,52,207,24,10,78,268,20,13,37,212,22,B*0D
$GBGSV,2,2,05,07,80,185,18,B*3A
$GAGSV,2,1,06,09,17,127,29,25,32,189,13,36,67,315,14,11,42,053,18,1*7B
$GAGSV,2,2,06,04,20,076,16,30,19,317,20,1*7F
$GAGSV,3,1,10,02,52,262,17,09,17,127,34,25,32,189,21,34,23,265,14,2*7B
$GAGSV,3,2,10,36,67,315,17,10,17,064,20,11,42,053,22,06,21,102,16,2*75
$GAGSV,3,3,10,04,20,076,21,30,19,317,21,2*7E
$GAGSV,2,1,08,02,52,262,16,09,17,127,34,25,32,189,19,34,23,265,16,7*7E
$GAGSV,2,2,08,10,17,064,21,11,42,053,22,04,20,076,21,30,19,317,22,7*77
$GNGGA,043307.00,3958.50890857,N,11628.07513799,E,2,23,0.7,36.6314,M,-8.1686,M,1.0,1828*73
$GNRMC,043307.00,A,3958.50890857,N,11628.07513799,E,29.394,38.8,210525,7.3,W,D,C*51
$GPGSV,2,1,07,14,07,173,22,06,69,340,22,03,07,039,15,11,45,279,17,1*68
$GPGSV,2,2,07,17,45,118,36,19,72,098,28,22,24,184,22,1*54
$GPGSV,1,1,03,06,69,340,16,11,45,279,14,17,45,118,22,4*5C
$GPGSV,1,1,02,06,69,340,16,03,07,039,11,8*68
$GLGSV,2,1,07,82,47,049,26,73,30,277,19,83,47,320,21,81,11,084,32,1*7F
$GLGSV,2,2,07,67,47,088,28,66,18,030,19,80,17,218,20,1*42
$GLGSV,1,1,02,82,47,049,20,80,17,218,14,3*7E
$GBGSV,3,1,10,03,43,189,23,08,52,207,25,10,78,268,19,19,51,126,26,1*7A
$GBGSV,3,2,10,20,35,057,23,29,37,092,32,35,69,336,20,38,63,205,25,1*77
$GBGSV,3,3,10,40,73,115,23,07,80,185,25,1*77
$GBGSV,2,1,07,08,52,207,20,13,37,212,17,19,51,126,18,20,35,057,14,8*71
$GBGSV,2,2,07,38,63,205,19,40,73,115,16,07,80,185,18,8*41
$GBGSV,1,1,02,10,78,268,18,13,37,212,21,B*08
$GAGSV,2,1,06,09,17,127,29,25,32,189,14,36,67,315,12,11,42,053,18,1*7A
$GAGSV,2,2,06,04,20,076,18,30,19,317,21,1*70
$GAGSV,3,1,10,02,52,262,16,09,17,127,33,25,32,189,21,34,23,265,12,2*7B
$GAGSV,3,2,10,36,67,315,16,10,17,064,21,11,42,053,21,06,21,102,18,2*78
$GAGSV,3,3,10,04,20,076,21,30,19,317,21,2*7E
$GAGSV,2,1,08,02,52,262,14,09,17,127,36,25,32,189,18,34,23,265,15,7*7C
$GAGSV,2,2,08,10,17,064,24,11,42,053,26,04,20,076,23,30,19,317,21,7*77
$GNGGA,043308.00,3958.51528733,N,11628.08167071,E,2,24,0.6,36.7602,M,-8.1683,M,1.0,1828*77
$GNRMC,043308.00,A,3958.51528733,N,11628.08167071,E,29.211,38.1,210525,7.2,W,D,C*51
$GPGSV,2,1,07,14,07,173,21,06,69,340,22,03,07,039,15,11,45,279,17,1*6B
$GPGSV,2,2,07,17,45,118,38,19,72,098,27,22,24,184,21,1*56
$GPGSV,1,1,03,06,69,340,16,11,45,279,16,17,45,118,27,4*5B
$GPGSV,1,1,02,06,69,340,15,03,07,039,13,8*69
$GLGSV,2,1,06,82,47,049,30,73,30,277,19,83,47,320,21,67,47,088,28,1*75
$GLGSV,2,2,06,66,18,030,21,80,17,218,19,1*7A
$GLGSV,1,1,02,82,47,049,20,80,17,218,14,3*7E
$GBGSV,3,1,11,03,43,189,20,08,52,207,23,10,78,268,19,19,51,126,31,1*78
$GBGSV,3,2,11,20,35,057,26,29,37,092,35,35,69,336,19,38,63,205,25,1*7E
$GBGSV,3,3,11,40,73,115,23,59,36,146,33,07,80,185,25,1*4C
$GBGSV,2,1,07,08,52,207,18,13,37,212,15,19,51,126,20,20,35,057,12,8*75
$GBGSV,2,2,07,38,63,205,18,40,73,115,15,07,80,185,18,8*43
$GBGSV,1,1,04,08,52,207,20,10,78,268,18,13,37,212,19,07,80,185,20,B*0C
$GAGSV,2,1,05,09,17,127,28,25,32,189,15,11,42,053,17,04,20,076,19,1*79
$GAGSV,2,2,05,30,19,317,21,1*4D
$GAGSV,3,1,10,02,52,262,17,09,17,127,33,25,32,189,19,34,23,265,12,2*71
$GAGSV,3,2,10,36,67,315,16,10,17,064,23,11,42,053,21,06,21,102,21,2*70
$GAGSV,3,3,10,04,20,076,22,30,19,317,25,2*79
$GAGSV,2,1,08,02,52,262,14,09,17,127,33,25,32,189,20,34,23,265,15,7*72
$GAGSV,2,2,08,10,17,064,25,11,42,053,27,04,20,076,23,30,19,317,21,7*77
$GNGGA,043309.00,3958.52114489,N,11628.08793493,E,2,24,0.8,36.9121,M,-8.1679,M,1.0,1828*7A
$GNRMC,043309.00,A,3958.52114489,N,11628.08793493,E,27.277,39.3,210525,7.2,W,D,C*52
$GPGSV,2,1,07,14,07,173,21,06,69,340,22,03,07,039,16,11,45,279,16,1*69
$GPGSV,2,2,07,17,45,118,40,19,72,098,27,22,24,184,22,1*5A
$GPGSV,1,1,03,06,69,340,17,11,45,279,17,17,45,118,28,4*54
$GPGSV,1,1,02,06,69,340,14,03,07,039,13,8*68
$GLGSV,2,1,07,82,47,049,32,73,30,277,18,83,47,321,20,81,11,084,18,1*73
$GLGSV,2,2,07,67,47,087,31,66,18,030,20,80,17,218,16,1*4A
$GLGSV,1,1,02,82,47,049,24,80,17,218,11,3*7F
