NMEA,GNSS_20B_W24.42.1_Q FL_22B_W24.01.5,1744185963000
NMEA,$RD_RSSI, 766, 782, 0, 0,1744185963000
NMEA,$GPGGA,081119.314,3958.969867,N,11628.629355,E,0,00,127.000,18.331,M,0,M,,*43,1744186279314
NMEA,$GPRMC,081119.314,V,3958.969867,N,11628.629355,E,0.000,0.000,090425,,E,N*35,1744186279314
NMEA,$GPGLL,3958.969867,N,11628.629355,E,081119.314,V,N*4D,1744186279314
NMEA,$GPGSA,A,1,,,,,,,,,,,,,127.000,127.000,127.000*34,1744186279314
NMEA,$BDGSA,A,1,,,,,,,,,,,,,127.000,127.000,127.000*25,1744186279314
NMEA,$GAGSA,A,1,,,,,,,,,,,,,127.000,127.000,127.000*25,1744186279314
NMEA,$GPGSV,4,1,15,19,53,130,36.2,11,59,307,42.2,4,19,51,0.0,5,11,225,0.0*47,1744186279314
NMEA,$GPGSV,4,2,15,6,64,29,0.0,9,34,84,0.0,12,35,281,0.0,17,26,134,0.0*7C,1744186279314
NMEA,$GPGSV,4,3,15,20,48,234,0.0,22,5,180,0.0,25,15,313,0.0,193,1,,0.0*75,1744186279314
NMEA,$GPGSV,4,4,15,194,1,,0.0,195,1,,0.0,196,1,,0.0*5D,1744186279314
NMEA,$BDGSV,2,1,5,210,74,225,0.0,219,60,89,0.0,229,23,109,0.0,235,77,47,0.0*51,1744186279314
NMEA,$BDGSV,2,2,5,238,74,234,0.0*7C,1744186279314
NMEA,$GAGSV,1,1,3,118,22,311,0.0,120,39,64,0.0,125,42,252,0.0*40,1744186279314
NMEA,$GPVTG,0.000,T,,M,0.000,N,0.000,K,N*02,1744186279314
NMEA,$RD_RSSI, 736, 774, 0, 0,1744186279314
NMEA,$GPGGA,081120.313,3958.969867,N,11628.629355,E,0,00,127.000,18.331,M,0,M,,*4E,1744186280313
NMEA,$GPRMC,081120.313,V,3958.969867,N,11628.629355,E,0.000,0.000,090425,,E,N*38,1744186280313
NMEA,$GPGLL,3958.969867,N,11628.629355,E,081120.313,V,N*40,1744186280313
NMEA,$GPGSA,A,1,,,,,,,,,,,,,127.000,127.000,127.000*34,1744186280313
NMEA,$BDGSA,A,1,,,,,,,,,,,,,127.000,127.000,127.000*25,1744186280313
NMEA,$GAGSA,A,1,,,,,,,,,,,,,127.000,127.000,127.000*25,1744186280313
NMEA,$GPGSV,4,1,15,196,1,,38.5,19,53,130,35.7,11,59,307,42.2,9,34,84,29.2*43,1744186280313
NMEA,$GPGSV,4,2,15,4,19,51,0.0,5,11,225,0.0,6,64,29,0.0,12,35,281,0.0*42,1744186280313
NMEA,$GPGSV,4,3,15,17,26,134,0.0,20,48,234,0.0,22,5,180,0.0,25,15,313,0.0*4B,1744186280313
NMEA,$GPGSV,4,4,15,193,1,,0.0,194,1,,0.0,195,1,,0.0*58,1744186280313
NMEA,$BDGSV,2,1,5,210,74,225,0.0,219,60,89,0.0,229,23,109,0.0,235,77,47,0.0*51,1744186280313
NMEA,$BDGSV,2,2,5,238,74,234,0.0*7C,1744186280313
NMEA,$GAGSV,1,1,3,118,22,311,0.0,120,39,64,0.0,125,42,252,0.0*40,1744186280313
NMEA,$GPVTG,0.000,T,,M,0.000,N,0.000,K,N*02,1744186280313
NMEA,$RD_RSSI, 787, 777, 0, 0,1744186280313
NMEA,$GPGGA,081121.313,3958.969867,N,11628.629355,E,0,00,127.000,18.331,M,0,M,,*4F,1744186281313
NMEA,$GPRMC,081121.313,V,3958.969867,N,11628.629355,E,0.000,0.000,090425,,E,N*39,1744186281313
NMEA,$GPGLL,3958.969867,N,11628.629355,E,081121.313,V,N*41,1744186281313
NMEA,$GPGSA,A,1,,,,,,,,,,,,,127.000,127.000,127.000*34,1744186281313
NMEA,$BDGSA,A,1,,,,,,,,,,,,,127.000,127.000,127.000*25,1744186281313
NMEA,$GAGSA,A,1,,,,,,,,,,,,,127.000,127.000,127.000*25,1744186281313
NMEA,$GPGSV,4,1,15,196,1,,38.9,19,53,130,35.9,11,59,307,42.4,9,34,84,27.2*49,1744186281313
NMEA,$GPGSV,4,2,15,4,19,51,0.0,5,11,225,0.0,6,64,29,0.0,12,35,281,0.0*42,1744186281313
NMEA,$GPGSV,4,3,15,17,26,134,0.0,20,48,234,0.0,22,5,180,0.0,25,15,313,0.0*4B,1744186281313
NMEA,$GPGSV,4,4,15,193,1,,0.0,194,1,,0.0,195,1,,0.0*58,1744186281313
NMEA,$BDGSV,2,1,5,210,74,225,0.0,219,60,89,0.0,229,23,109,0.0,235,77,47,0.0*51,1744186281313
NMEA,$BDGSV,2,2,5,238,74,234,0.0*7C,1744186281313
NMEA,$GAGSV,1,1,3,118,22,311,0.0,120,39,64,0.0,125,42,252,0.0*40,1744186281313
NMEA,$GPVTG,0.000,T,,M,0.000,N,0.000,K,N*02,1744186281313
NMEA,$RD_RSSI, 851, 803, 0, 0,1744186281313
NMEA,$GPGGA,081122.313,3958.969867,N,11628.629355,E,0,00,127.000,18.331,M,0,M,,*4C,1744186282313
NMEA,$GPRMC,081122.313,V,3958.969867,N,11628.629355,E,0.000,0.000,090425,,E,N*3A,1744186282313
NMEA,$GPGLL,3958.969867,N,11628.629355,E,081122.313,V,N*42,1744186282313
NMEA,$GPGSA,A,1,,,,,,,,,,,,,127.000,127.000,127.000*34,1744186282313
NMEA,$BDGSA,A,1,,,,,,,,,,,,,127.000,127.000,127.000*25,1744186282313
NMEA,$GAGSA,A,1,,,,,,,,,,,,,127.000,127.000,127.000*25,1744186282313
NMEA,$GPGSV,4,1,15,196,1,,38.5,19,53,130,36.2,11,59,307,42.0,9,34,84,27.1*4A,1744186282313
NMEA,$GPGSV,4,2,15,4,19,51,0.0,5,11,225,0.0,6,64,29,0.0,12,35,281,0.0*42,1744186282313
NMEA,$GPGSV,4,3,15,17,26,134,0.0,20,48,234,0.0,22,5,180,0.0,25,15,313,0.0*4B,1744186282313
NMEA,$GPGSV,4,4,15,193,1,,0.0,194,1,,0.0,195,1,,0.0*58,1744186282313
NMEA,$BDGSV,2,1,5,210,74,225,0.0,219,60,89,0.0,229,23,109,0.0,235,77,47,0.0*51,1744186282313
NMEA,$BDGSV,2,2,5,238,74,234,0.0*7C,1744186282313
NMEA,$GAGSV,1,1,3,118,22,311,0.0,120,39,64,0.0,125,42,252,0.0*40,1744186282313
NMEA,$GPVTG,0.000,T,,M,0.000,N,0.000,K,N*02,1744186282313
NMEA,$RD_RSSI, 812, 757, 0, 0,1744186282313
NMEA,$GPGGA,081123.313,3958.969867,N,11628.629355,E,0,00,127.000,18.331,M,0,M,,*4D,1744186283313
NMEA,$GPRMC,081123.313,V,3958.969867,N,11628.629355,E,0.000,0.000,090425,,E,N*3B,1744186283313
NMEA,$GPGLL,3958.969867,N,11628.629355,E,081123.313,V,N*43,1744186283313
NMEA,$GPGSA,A,1,,,,,,,,,,,,,127.000,127.000,127.000*34,1744186283313
NMEA,$BDGSA,A,1,,,,,,,,,,,,,127.000,127.000,127.000*25,1744186283313
NMEA,$GAGSA,A,1,,,,,,,,,,,,,127.000,127.000,127.000*25,1744186283313
NMEA,$GPGSV,4,1,15,196,1,,39.0,19,53,131,36.9,11,59,307,42.2,9,34,84,26.6*40,1744186283313
NMEA,$GPGSV,4,2,15,195,1,,27.7,194,1,,30.6,20,48,234,31.5,17,26,134,36.5*75,1744186283313
NMEA,$GPGSV,4,3,15,4,19,51,0.0,5,11,225,0.0,6,64,29,0.0,12,35,281,0.0*43,1744186283313
NMEA,$GPGSV,4,4,15,22,5,180,0.0,25,15,313,0.0,193,1,,0.0*67,1744186283313
NMEA,$BDGSV,2,1,5,210,74,225,0.0,219,60,89,0.0,229,23,109,0.0,235,77,47,0.0*51,1744186283313
NMEA,$BDGSV,2,2,5,238,74,234,0.0*7C,1744186283313
NMEA,$GAGSV,1,1,3,118,22,310,0.0,120,39,64,0.0,125,42,252,0.0*41,1744186283313
NMEA,$GPVTG,0.000,T,,M,0.000,N,0.000,K,N*02,1744186283313
NMEA,$RD_RSSI, 792, 821, 0, 0,1744186283313
NMEA,$GPGGA,081124.313,3958.969867,N,11628.629355,E,0,00,127.000,18.331,M,0,M,,*4A,1744186284313
NMEA,$GPRMC,081124.313,V,3958.969867,N,11628.629355,E,0.000,0.000,090425,,E,N*3C,1744186284313
NMEA,$GPGLL,3958.969867,N,11628.629355,E,081124.313,V,N*44,1744186284313
NMEA,$GPGSA,A,1,,,,,,,,,,,,,127.000,127.000,127.000*34,1744186284313
NMEA,$BDGSA,A,1,,,,,,,,,,,,,127.000,127.000,127.000*25,1744186284313
NMEA,$GAGSA,A,1,,,,,,,,,,,,,127.000,127.000,127.000*25,1744186284313
NMEA,$GPGSV,4,1,15,196,1,,38.5,19,53,131,36.0,11,59,307,42.0,9,34,84,26.3*4A,1744186284313
NMEA,$GPGSV,4,2,15,195,1,,28.3,194,1,,31.0,20,48,234,31.0,17,26,134,36.7*7E,1744186284313
NMEA,$GPGSV,4,3,15,6,64,29,34.0,4,19,51,0.0,5,11,225,0.0,12,35,281,0.0*74,1744186284313
NMEA,$GPGSV,4,4,15,22,5,180,0.0,25,15,313,0.0,193,1,,0.0*67,1744186284313
NMEA,$BDGSV,2,1,6,238,74,234,40.9,222,1,,39.4,210,74,225,39.5,219,60,89,0.0*55,1744186284313
NMEA,$BDGSV,2,2,6,229,23,109,0.0,235,77,47,0.0*69,1744186284313
NMEA,$GAGSV,1,1,4,127,1,,37.9,118,22,310,0.0,120,39,64,0.0,125,42,252,0.0*50,1744186284313
NMEA,$GPVTG,0.000,T,,M,0.000,N,0.000,K,N*02,1744186284313
NMEA,$RD_RSSI, 703, 765, 0, 0,1744186284313
NMEA,$GPGGA,081125.743,3959.662699,N,11628.929676,E,1,05,2.152,-12.156,M,0,M,,*6B,1744186285743
NMEA,$GPRMC,081125.743,A,3959.662699,N,11628.929676,E,6.736,149.994,090425,,E,A*29,1744186285743
NMEA,$GPGLL,3959.662699,N,11628.929676,E,081125.743,A,A*5D,1744186285743
NMEA,$GPGSA,A,3,19,11,20,17,6,,,,,,,,5.306,2.152,4.849*0D,1744186285743
NMEA,$BDGSA,A,3,,,,,,,,,,,,,5.306,2.152,4.849*26,1744186285743
NMEA,$GAGSA,A,3,,,,,,,,,,,,,5.306,2.152,4.849*26,1744186285743
NMEA,$GPGSV,4,1,16,196,1,,39.2,19,53,131,37.5,11,59,307,43.0,9,34,84,29.2*44,1744186285743
NMEA,$GPGSV,4,2,16,195,1,,29.1,194,1,,28.6,20,48,234,30.7,17,26,134,34.5*76,1744186285743
NMEA,$GPGSV,4,3,16,12,35,281,26.3,6,64,29,32.5,4,19,51,32.5,5,11,225,0.0*77,1744186285743
NMEA,$GPGSV,4,4,16,22,5,180,0.0,25,15,313,0.0,193,1,,0.0,47,1,,0.0*78,1744186285743
NMEA,$BDGSV,2,1,6,238,74,234,41.5,222,1,,38.5,210,74,225,39.2,219,60,89,0.0*5F,1744186285743
NMEA,$BDGSV,2,2,6,229,23,109,0.0,235,77,47,0.0*69,1744186285743
NMEA,$GAGSV,1,1,4,127,1,,38.0,118,22,310,0.0,120,39,64,0.0,125,42,252,0.0*56,1744186285743
NMEA,$GPVTG,149.994,T,,M,6.736,N,12.475,K,A*34,1744186285743
NMEA,$RD_RSSI, 764, 767, 0, 0,1744186285743
NMEA,$GPGGA,081126.743,3959.663594,N,11628.929863,E,1,10,1.503,-6.393,M,0,M,,*54,1744186286743
NMEA,$GPRMC,081126.743,A,3959.663594,N,11628.929863,E,4.546,130.429,090425,,E,A*2D,1744186286743
NMEA,$GPGLL,3959.663594,N,11628.929863,E,081126.743,A,A*5B,1744186286743
NMEA,$GPGSA,A,3,19,11,20,17,12,6,,,,,,,3.276,1.503,2.910*06,1744186286743
NMEA,$BDGSA,A,3,238,210,219,,,,,,,,,,3.276,1.503,2.910*1E,1744186286743
NMEA,$GAGSA,A,3,120,,,,,,,,,,,,3.276,1.503,2.910*1D,1744186286743
NMEA,$GPGSV,4,1,16,196,1,,40.0,19,53,131,38.2,11,59,307,42.7,9,34,84,33.0*4F,1744186286743
NMEA,$GPGSV,4,2,16,195,1,,27.0,194,1,,27.2,25,15,313,25.3,20,48,234,26.1*73,1744186286743
NMEA,$GPGSV,4,3,16,17,26,134,32.7,12,35,281,24.7,6,64,29,32.2,4,19,51,32.0*71,1744186286743
NMEA,$GPGSV,4,4,16,5,11,225,0.0,22,5,180,0.0,193,1,,0.0,47,1,,0.0*4A,1744186286743
NMEA,$BDGSV,2,1,7,238,74,234,41.5,222,1,,38.5,210,74,225,39.0,203,1,,25.6*50,1744186286743
NMEA,$BDGSV,2,2,7,219,60,89,27.3,229,23,109,0.0,235,77,47,0.0*4D,1744186286743
NMEA,$GAGSV,1,1,4,127,1,,37.7,120,39,64,27.3,118,22,310,0.0,125,42,252,0.0*68,1744186286743
NMEA,$GPVTG,130.429,T,,M,4.546,N,8.420,K,A*0D,1744186286743
NMEA,$RD_RSSI, 754, 772, 0, 0,1744186286743
NMEA,$GPGGA,081127.743,3959.663933,N,11628.931330,E,1,12,1.180,-1.551,M,0,M,,*52,1744186287743
NMEA,$GPRMC,081127.743,A,3959.663933,N,11628.931330,E,4.526,123.917,090425,,E,A*2D,1744186287743
NMEA,$GPGLL,3959.663933,N,11628.931330,E,081127.743,A,A*5F,1744186287743
NMEA,$GPGSA,A,3,19,11,20,17,12,6,,,,,,,2.070,1.180,1.701*01,1744186287743
NMEA,$BDGSA,A,3,238,210,229,219,,,,,,,,,2.070,1.180,1.701*20,1744186287743
NMEA,$GAGSA,A,3,125,118,,,,,,,,,,,2.070,1.180,1.701*27,1744186287743
NMEA,$GPGSV,4,1,16,196,1,,40.0,19,53,131,38.0,11,59,307,43.0,9,34,84,33.0*4B,1744186287743
NMEA,$GPGSV,4,2,16,195,1,,28.2,194,1,,27.3,25,15,313,26.8,20,48,234,25.8*7D,1744186287743
NMEA,$GPGSV,4,3,16,17,26,134,31.3,12,35,281,25.5,6,64,29,32.2,4,19,51,32.0*75,1744186287743
NMEA,$GPGSV,4,4,16,5,11,225,0.0,22,5,180,0.0,193,1,,0.0,47,1,,0.0*4A,1744186287743
NMEA,$BDGSV,2,1,7,235,77,47,16.7,238,74,234,41.7,222,1,,38.2,210,74,225,39.0*63,1744186287743
NMEA,$BDGSV,2,2,7,229,23,109,34.7,203,1,,28.6,219,60,89,27.6*73,1744186287743
NMEA,$GAGSV,1,1,4,127,1,,37.9,125,42,252,30.6,120,39,64,26.8,118,22,310,32.7*6F,1744186287743
NMEA,$GPVTG,123.917,T,,M,4.526,N,8.383,K,A*07,1744186287743
NMEA,$RD_RSSI, 719, 803, 0, 0,1744186287743
NMEA,$GPGGA,081128.743,3959.663945,N,11628.932691,E,1,13,1.116,3.638,M,0,M,,*7C,1744186287743
NMEA,$GPRMC,081128.743,A,3959.663945,N,11628.932691,E,4.668,122.802,090425,,E,A*23,1744186288743
NMEA,$GPGLL,3959.663945,N,11628.932691,E,081128.743,A,A*5C,1744186288743
NMEA,$GPGSA,A,3,19,11,20,17,6,,,,,,,,2.089,1.116,1.765*09,1744186288743
NMEA,$BDGSA,A,3,238,235,210,229,219,,,,,,,,2.089,1.116,1.765*1F,1744186288743
NMEA,$GAGSA,A,3,125,120,118,,,,,,,,,,2.089,1.116,1.765*1F,1744186288743
NMEA,$GPGSV,4,1,16,196,1,,39.9,19,53,131,38.0,11,59,307,43.0,9,34,84,32.5*48,1744186288743
NMEA,$GPGSV,4,2,16,195,1,,29.1,194,1,,27.2,25,15,313,26.5,20,48,234,28.3*75,1744186288743
NMEA,$GPGSV,4,3,16,17,26,134,30.6,12,35,281,27.2,6,64,29,31.7,4,19,51,32.7*75,1744186288743
NMEA,$GPGSV,4,4,16,5,11,225,0.0,22,5,180,0.0,193,1,,0.0,47,1,,0.0*4A,1744186288743
NMEA,$BDGSV,2,1,7,238,74,234,41.7,222,1,,37.7,235,77,47,15.3,210,74,225,39.2*6C,1744186288743
NMEA,$BDGSV,2,2,7,229,23,109,35.4,203,1,,30.5,219,60,89,27.6*7B,1744186288743
NMEA,$GAGSV,1,1,4,127,1,,38.0,125,42,252,30.6,120,39,64,24.6,118,22,310,32.5*67,1744186288743
NMEA,$GPVTG,122.802,T,,M,4.668,N,8.645,K,A*05,1744186288743
NMEA,$RD_RSSI, 763, 743, 0, 0,1744186288743
NMEA,$GPGGA,081129.743,3959.663766,N,11628.934165,E,1,13,1.057,9.172,M,0,M,,*7F,1744186289743
NMEA,$GPRMC,081129.743,A,3959.663766,N,11628.934165,E,4.611,124.370,090425,,E,A*21,1744186289743
NMEA,$GPGLL,3959.663766,N,11628.934165,E,081129.743,A,A*58,1744186289743
NMEA,$GPGSA,A,3,19,11,20,17,12,6,,,,,,,1.925,1.057,1.608*08,1744186289743
NMEA,$BDGSA,A,3,238,210,229,219,,,,,,,,,1.925,1.057,1.608*29,1744186289743
NMEA,$GAGSA,A,3,125,120,118,,,,,,,,,,1.925,1.057,1.608*1D,1744186289743
NMEA,$GPGSV,4,1,16,196,1,,39.9,19,53,131,37.7,11,59,307,43.0,9,34,84,33.2*46,1744186289743
NMEA,$GPGSV,4,2,16,195,1,,29.8,194,1,,28.3,25,15,313,26.7,20,48,234,30.8*72,1744186289743
NMEA,$GPGSV,4,3,16,17,26,134,32.4,12,35,281,29.0,6,64,29,31.8,4,19,51,33.2*72,1744186289743
NMEA,$GPGSV,4,4,16,5,11,225,0.0,22,5,180,0.0,193,1,,0.0,47,1,,0.0*4A,1744186289743
NMEA,$BDGSV,2,1,7,238,74,234,42.0,222,1,,38.0,235,77,47,29.3,210,74,225,39.4*69,1744186289743
NMEA,$BDGSV,2,2,7,229,23,109,36.0,203,1,,31.0,219,60,89,28.5*74,1744186289743
NMEA,$GAGSV,1,1,4,127,1,,37.9,125,42,252,30.7,120,39,64,20.7,118,22,310,32.4*64,1744186289743
NMEA,$GPVTG,124.370,T,,M,4.611,N,8.540,K,A*05,1744186289743
NMEA,$RD_RSSI, 741, 761, 0, 0,1744186289743
NMEA,$GPGGA,081130.743,3959.663255,N,11628.935488,E,1,13,1.057,13.150,M,0,M,,*4E,1744186289743
NMEA,$GPRMC,081130.743,A,3959.663255,N,11628.935488,E,4.505,122.048,090425,,E,A*23,1744186290743
NMEA,$GPGLL,3959.663255,N,11628.935488,E,081130.743,A,A*52,1744186290743
NMEA,$GPGSA,A,3,19,11,20,17,12,6,,,,,,,1.925,1.057,1.608*08,1744186290743
NMEA,$BDGSA,A,3,238,210,229,219,,,,,,,,,1.925,1.057,1.608*29,1744186290743
NMEA,$GAGSA,A,3,125,120,118,,,,,,,,,,1.925,1.057,1.608*1D,1744186290743
NMEA,$GPGSV,4,1,16,196,1,,38.0,19,53,131,36.0,11,59,307,42.2,9,34,84,32.0*48,1744186290743
NMEA,$GPGSV,4,2,16,195,1,,30.0,194,1,,30.5,5,11,225,24.7,25,15,313,25.7*4F,1744186290743
NMEA,$GPGSV,4,3,16,20,48,234,32.0,17,26,134,35.7,12,35,281,29.5,6,64,29,31.3*78,1744186290743
NMEA,$GPGSV,4,4,16,4,19,51,33.0,22,5,180,0.0,193,1,,0.0,47,1,,0.0*42,1744186290743
NMEA,$BDGSV,2,1,7,238,74,234,41.7,222,1,,37.0,235,77,48,29.5,210,74,225,39.2*6D,1744186290743
NMEA,$BDGSV,2,2,7,229,23,109,38.7,203,1,,32.0,219,60,89,28.5*7E,1744186290743
NMEA,$GAGSV,1,1,4,127,1,,37.7,125,42,252,33.0,120,39,64,28.0,118,22,310,33.2*66,1744186290743
NMEA,$GPVTG,122.048,T,,M,4.505,N,8.343,K,A*08,1744186290743
NMEA,$RD_RSSI, 754, 755, 0, 0,1744186290743
NMEA,$GPGGA,081131.743,3959.662553,N,11628.936703,E,1,13,1.057,15.124,M,0,M,,*49,1744186291743
NMEA,$GPRMC,081131.743,A,3959.662553,N,11628.936703,E,4.419,120.943,090425,,E,A*2D,1744186291743
NMEA,$GPGLL,3959.662553,N,11628.936703,E,081131.743,A,A*50,1744186291743
NMEA,$GPGSA,A,3,19,11,20,17,12,6,,,,,,,1.925,1.057,1.608*08,1744186291743
NMEA,$BDGSA,A,3,238,210,229,219,,,,,,,,,1.925,1.057,1.608*29,1744186291743
NMEA,$GAGSA,A,3,125,120,118,,,,,,,,,,1.925,1.057,1.608*1D,1744186291743
NMEA,$GPGSV,4,1,16,196,1,,37.4,19,53,131,36.0,11,59,307,41.5,9,34,84,30.7*42,1744186291743
NMEA,$GPGSV,4,2,16,195,1,,31.7,194,1,,30.0,5,11,225,24.7,25,15,313,24.2*48,1744186291743
NMEA,$GPGSV,4,3,16,20,48,234,31.5,17,26,134,35.7,12,35,281,28.1,6,64,30,31.1*71,1744186291743
NMEA,$GPGSV,4,4,16,4,19,51,32.5,22,5,180,0.0,193,1,,0.0,47,1,,0.0*46,1744186291743
NMEA,$BDGSV,2,1,7,238,74,234,41.5,222,1,,36.2,235,77,48,28.0,210,74,225,39.0*6A,1744186291743
NMEA,$BDGSV,2,2,7,229,23,109,39.7,203,1,,33.2,219,60,89,28.6*7F,1744186291743
NMEA,$GAGSV,1,1,4,127,1,,37.7,125,42,252,33.0,120,39,64,28.6,118,22,310,34.2*67,1744186291743
NMEA,$GPVTG,120.943,T,,M,4.419,N,8.185,K,A*0C,1744186291743
NMEA,$RD_RSSI, 744, 749, 0, 0,1744186291743
NMEA,$GPGGA,081132.743,3959.661910,N,11628.937949,E,1,13,1.057,16.455,M,0,M,,*43,1744186292743
NMEA,$GPRMC,081132.743,A,3959.661910,N,11628.937949,E,4.320,122.116,090425,,E,A*20,1744186292743
NMEA,$GPGLL,3959.661910,N,11628.937949,E,081132.743,A,A*5A,1744186292743
NMEA,$GPGSA,A,3,19,11,20,17,12,6,,,,,,,1.925,1.057,1.608*08,1744186292743
NMEA,$BDGSA,A,3,238,210,229,219,,,,,,,,,1.925,1.057,1.608*29,1744186292743
NMEA,$GAGSA,A,3,125,120,118,,,,,,,,,,1.925,1.057,1.608*1D,1744186292743
NMEA,$GPGSV,4,1,16,196,1,,37.5,19,53,131,36.0,11,59,307,41.2,9,34,84,29.7*4C,1744186292743
NMEA,$GPGSV,4,2,16,195,1,,31.8,194,1,,30.0,5,11,225,25.0,25,15,313,23.2*46,1744186292743
NMEA,$GPGSV,4,3,16,20,48,234,31.1,17,26,134,35.5,12,35,281,29.5,6,64,30,31.1*72,1744186292743
NMEA,$GPGSV,4,4,16,4,19,51,32.4,22,5,180,0.0,193,1,,0.0,47,1,,0.0*47,1744186292743
NMEA,$BDGSV,2,1,7,238,74,234,41.4,222,1,,36.2,235,77,48,26.8,210,74,225,38.7*6B,1744186292743
NMEA,$BDGSV,2,2,7,229,23,109,40.2,203,1,,33.7,219,60,89,28.2*75,1744186292743
NMEA,$GAGSV,1,1,4,127,1,,37.9,125,42,252,33.4,120,39,64,28.1,118,22,310,34.7*6F,1744186292743
NMEA,$GPVTG,122.116,T,,M,4.320,N,8.002,K,A*05,1744186292743
NMEA,$RD_RSSI, 805, 783, 0, 0,1744186292743
NMEA,$GPGGA,081133.743,3959.661301,N,11628.939223,E,1,13,1.057,17.697,M,0,M,,*4C,1744186293743
NMEA,$GPRMC,081133.743,A,3959.661301,N,11628.939223,E,4.215,123.292,090425,,E,A*2B,1744186293743
NMEA,$GPGLL,3959.661301,N,11628.939223,E,081133.743,A,A*58,1744186293743
NMEA,$GPGSA,A,3,19,11,20,17,12,6,,,,,,,1.925,1.057,1.608*08,1744186293743
NMEA,$BDGSA,A,3,238,210,229,219,,,,,,,,,1.925,1.057,1.608*29,1744186293743
NMEA,$GAGSA,A,3,125,120,118,,,,,,,,,,1.925,1.057,1.608*1D,1744186293743
NMEA,$GPGSV,4,1,16,196,1,,37.2,19,53,131,36.0,11,59,307,41.2,9,34,84,27.6*44,1744186293743
NMEA,$GPGSV,4,2,16,195,1,,31.7,194,1,,30.2,5,11,225,25.1,25,15,313,21.5*4F,1744186293743
NMEA,$GPGSV,4,3,16,20,48,234,30.8,17,26,134,35.2,12,35,281,28.5,6,64,30,30.5*79,1744186293743
NMEA,$GPGSV,4,4,16,4,19,51,32.5,22,5,180,0.0,193,1,,0.0,47,1,,0.0*46,1744186293743
NMEA,$BDGSV,2,1,7,238,74,234,41.2,222,1,,35.5,235,77,48,26.2,210,74,225,38.7*63,1744186293743
NMEA,$BDGSV,2,2,7,229,23,109,40.0,203,1,,33.5,219,60,88,27.6*7F,1744186293743
NMEA,$GAGSV,1,1,4,127,1,,37.9,125,42,252,33.2,120,39,64,28.2,118,22,310,34.0*6D,1744186293743
NMEA,$GPVTG,123.292,T,,M,4.215,N,7.806,K,A*0F,1744186293743
NMEA,$RD_RSSI, 732, 770, 0, 0,1744186293743
NMEA,$GPGGA,081134.743,3959.660714,N,11628.940436,E,1,14,1.043,18.977,M,0,M,,*4A,1744186294743
NMEA,$GPRMC,081134.743,A,3959.660714,N,11628.940436,E,4.158,124.067,090425,,E,A*24,1744186294743
NMEA,$GPGLL,3959.660714,N,11628.940436,E,081134.743,A,A*52,1744186294743
NMEA,$GPGSA,A,3,19,11,20,17,12,6,,,,,,,1.891,1.043,1.577*08,1744186294743
NMEA,$BDGSA,A,3,238,235,210,229,219,,,,,,,,1.891,1.043,1.577*1D,1744186294743
NMEA,$GAGSA,A,3,125,120,118,,,,,,,,,,1.891,1.043,1.577*1D,1744186294743
NMEA,$GPGSV,4,1,16,196,1,,37.4,19,53,131,36.0,11,59,307,41.2,9,34,84,25.8*4E,1744186294743
NMEA,$GPGSV,4,2,16,195,1,,31.2,194,1,,30.7,5,11,225,25.1,25,15,313,21.8*42,1744186294743
NMEA,$GPGSV,4,3,16,20,48,234,30.1,17,26,134,35.5,12,35,281,27.7,6,64,30,30.6*79,1744186294743
NMEA,$GPGSV,4,4,16,4,19,51,32.7,22,5,180,0.0,193,1,,0.0,47,1,,0.0*44,1744186294743
NMEA,$BDGSV,2,1,7,238,74,234,41.4,222,1,,35.2,235,77,48,25.3,210,74,225,38.7*60,1744186294743
NMEA,$BDGSV,2,2,7,229,23,109,40.0,203,1,,33.7,219,60,88,26.7*7D,1744186294743
NMEA,$GAGSV,1,1,4,127,1,,38.2,125,42,252,33.2,120,39,64,28.2,118,22,310,34.2*6B,1744186294743
NMEA,$GPVTG,124.067,T,,M,4.158,N,7.701,K,A*02,1744186294743
NMEA,$RD_RSSI, 705, 774, 0, 0,1744186294743
NMEA,$GPGGA,081135.743,3959.660131,N,11628.941496,E,1,14,1.043,20.170,M,0,M,,*45,1744186295743
NMEA,$GPRMC,081135.743,A,3959.660131,N,11628.941496,E,4.091,124.486,090425,,E,A*20,1744186295743
NMEA,$GPGLL,3959.660131,N,11628.941496,E,081135.743,A,A*59,1744186295743
NMEA,$GPGSA,A,3,19,11,20,17,12,6,,,,,,,1.891,1.043,1.577*08,1744186295743
NMEA,$BDGSA,A,3,238,235,210,229,219,,,,,,,,1.891,1.043,1.577*1D,1744186295743
NMEA,$GAGSA,A,3,125,120,118,,,,,,,,,,1.891,1.043,1.577*1D,1744186295743
NMEA,$GPGSV,4,1,16,196,1,,38.5,19,53,131,37.4,11,59,307,42.5,9,34,84,26.5*4F,1744186295743
NMEA,$GPGSV,4,2,16,195,1,,32.0,194,1,,30.3,5,11,225,25.6,25,15,313,21.2*4A,1744186295743
NMEA,$GPGSV,4,3,16,20,48,234,28.7,17,26,134,35.2,12,35,281,30.5,6,64,30,30.5*76,1744186295743
NMEA,$GPGSV,4,4,16,4,19,51,32.7,22,5,180,0.0,193,1,,0.0,47,1,,0.0*44,1744186295743
NMEA,$BDGSV,2,1,7,238,74,234,41.7,222,1,,35.7,235,77,48,25.5,210,74,225,39.2*64,1744186295743
NMEA,$BDGSV,2,2,7,229,23,109,39.5,203,1,,33.5,219,60,88,27.2*70,1744186295743
NMEA,$GAGSV,1,1,4,127,1,,38.2,125,42,252,33.5,120,39,64,29.0,118,22,310,33.9*63,1744186295743
NMEA,$GPVTG,124.486,T,,M,4.091,N,7.577,K,A*0E,1744186295743
NMEA,$RD_RSSI, 684, 760, 0, 0,1744186295743
NMEA,$GPGGA,081136.743,3959.659472,N,11628.942383,E,1,14,1.043,21.588,M,0,M,,*4C,1744186295743
NMEA,$GPRMC,081136.743,A,3959.659472,N,11628.942383,E,4.143,133.817,090425,,E,A*27,1744186296743
NMEA,$GPGLL,3959.659472,N,11628.942383,E,081136.743,A,A*52,1744186296743
NMEA,$GPGSA,A,3,19,11,20,17,12,6,,,,,,,1.891,1.043,1.577*08,1744186296743
NMEA,$BDGSA,A,3,238,235,210,229,219,,,,,,,,1.891,1.043,1.577*1D,1744186296743
NMEA,$GAGSA,A,3,125,120,118,,,,,,,,,,1.891,1.043,1.577*1D,1744186296743
NMEA,$GPGSV,4,1,16,196,1,,39.7,19,53,131,38.2,11,59,307,43.0,9,34,84,28.1*4B,1744186296743
NMEA,$GPGSV,4,2,16,195,1,,32.9,194,1,,28.5,5,11,225,26.2,25,15,313,21.5*4C,1744186296743
NMEA,$GPGSV,4,3,16,20,48,234,28.1,17,26,134,35.4,12,35,281,32.0,6,64,30,33.2*75,1744186296743
NMEA,$GPGSV,4,4,16,4,19,51,32.4,22,5,180,0.0,193,1,,0.0,47,1,,0.0*47,1744186296743
NMEA,$BDGSV,2,1,7,238,74,234,41.9,222,1,,37.0,235,77,48,28.7,210,74,225,39.2*60,1744186296743
NMEA,$BDGSV,2,2,7,229,23,109,39.2,203,1,,34.2,219,60,88,31.7*75,1744186296743
NMEA,$GAGSV,1,1,4,127,1,,37.7,125,42,252,32.7,120,39,64,29.5,118,22,310,34.7*66,1744186296743
NMEA,$GPVTG,133.817,T,,M,4.143,N,7.674,K,A*02,1744186296743
NMEA,$RD_RSSI, 661, 804, 0, 0,1744186296743
NMEA,$GPGGA,081137.743,3959.658744,N,11628.943014,E,1,14,1.043,22.595,M,0,M,,*49,1744186297743
NMEA,$GPRMC,081137.743,A,3959.658744,N,11628.943014,E,4.723,134.852,090425,,E,A*2B,1744186297743
NMEA,$GPGLL,3959.658744,N,11628.943014,E,081137.743,A,A*58,1744186297743
NMEA,$GPGSA,A,3,19,11,20,17,12,6,,,,,,,1.891,1.043,1.577*08,1744186297743
NMEA,$BDGSA,A,3,238,235,210,229,219,,,,,,,,1.891,1.043,1.577*1D,1744186297743
NMEA,$GAGSA,A,3,125,120,118,,,,,,,,,,1.891,1.043,1.577*1D,1744186297743
NMEA,$GPGSV,4,1,16,196,1,,39.9,19,53,131,37.7,11,59,307,43.0,9,34,84,25.7*44,1744186297743
NMEA,$GPGSV,4,2,16,195,1,,31.7,194,1,,27.2,5,11,225,26.8,25,15,313,21.0*46,1744186297743
NMEA,$GPGSV,4,3,16,20,48,234,28.1,17,26,134,35.7,12,35,281,32.2,6,64,30,32.4*73,1744186297743
NMEA,$GPGSV,4,4,16,4,19,51,31.5,22,5,180,0.0,193,1,,0.0,47,1,,0.0*45,1744186297743
NMEA,$BDGSV,2,1,7,238,74,234,41.9,222,1,,38.0,235,77,48,31.0,210,74,225,39.5*67,1744186297743
NMEA,$BDGSV,2,2,7,229,23,109,39.2,203,1,,34.4,219,60,88,31.1*75,1744186297743
NMEA,$GAGSV,1,1,4,127,1,,37.2,125,42,252,32.7,120,39,64,31.2,118,22,310,35.5*6E,1744186297743
NMEA,$GPVTG,134.852,T,,M,4.723,N,8.748,K,A*05,1744186297743
NMEA,$RD_RSSI, 664, 807, 0, 0,1744186297743
NMEA,$GPGGA,081138.742,3959.657983,N,11628.943673,E,1,14,1.043,22.736,M,0,M,,*41,1744186298742
NMEA,$GPRMC,081138.742,A,3959.657983,N,11628.943673,E,4.657,131.028,090425,,E,A*2A,1744186298742
NMEA,$GPGLL,3959.657983,N,11628.943673,E,081138.742,A,A*5B,1744186298742
NMEA,$GPGSA,A,3,19,11,20,17,12,6,,,,,,,1.891,1.043,1.577*08,1744186298742
NMEA,$BDGSA,A,3,238,235,210,229,219,,,,,,,,1.891,1.043,1.577*1D,1744186298742
NMEA,$GAGSA,A,3,125,120,118,,,,,,,,,,1.891,1.043,1.577*1D,1744186298742
NMEA,$GPGSV,4,1,16,196,1,,40.0,19,53,131,37.7,11,59,307,43.4,9,34,84,25.0*40,1744186298742
NMEA,$GPGSV,4,2,16,195,1,,31.2,194,1,,25.2,5,11,225,25.7,25,15,313,20.8*44,1744186298742
NMEA,$GPGSV,4,3,16,20,48,234,27.2,17,26,134,36.4,12,35,281,32.5,6,64,30,31.6*79,1744186298742
NMEA,$GPGSV,4,4,16,4,19,51,31.3,22,5,180,0.0,193,1,,0.0,47,1,,0.0*43,1744186298742
NMEA,$BDGSV,2,1,7,238,74,234,42.0,222,1,,37.9,235,77,48,31.7,210,74,225,39.7*6E,1744186298742
NMEA,$BDGSV,2,2,7,229,23,109,39.2,203,1,,34.5,219,60,88,30.6*72,1744186298742
NMEA,$GAGSV,1,1,4,127,1,,37.0,125,42,252,33.5,120,39,64,31.1,118,22,310,35.9*60,1744186298742
NMEA,$GPVTG,131.028,T,,M,4.657,N,8.624,K,A*0C,1744186298742
NMEA,$RD_RSSI, 667, 796, 0, 0,1744186298742
NMEA,$GPGGA,081139.742,3959.657303,N,11628.944423,E,1,14,1.043,22.434,M,0,M,,*43,1744186298742
NMEA,$GPRMC,081139.742,A,3959.657303,N,11628.944423,E,5.083,126.208,090425,,E,A*21,1744186299742
NMEA,$GPGLL,3959.657303,N,11628.944423,E,081139.742,A,A*58,1744186299742
NMEA,$GPGSA,A,3,19,11,20,17,12,6,,,,,,,1.891,1.043,1.577*08,1744186299742
NMEA,$BDGSA,A,3,238,235,210,229,219,,,,,,,,1.891,1.043,1.577*1D,1744186299742
NMEA,$GAGSA,A,3,125,120,118,,,,,,,,,,1.891,1.043,1.577*1D,1744186299742
NMEA,$GPGSV,4,1,16,196,1,,40.0,19,53,131,37.7,11,59,307,43.2,9,34,84,25.5*43,1744186299742
NMEA,$GPGSV,4,2,16,195,1,,31.5,194,1,,25.0,5,11,225,24.7,25,15,313,22.3*49,1744186299742
NMEA,$GPGSV,4,3,16,20,48,234,26.2,17,26,134,36.5,12,35,281,32.2,6,64,30,31.7*7F,1744186299742
NMEA,$GPGSV,4,4,16,4,19,51,31.7,22,5,180,0.0,193,1,,0.0,47,1,,0.0*47,1744186299742
NMEA,$BDGSV,2,1,7,238,74,234,42.0,222,1,,37.9,235,77,48,32.2,210,74,225,39.7*68,1744186299742
NMEA,$BDGSV,2,2,7,229,23,109,39.2,203,1,,34.2,219,60,88,30.3*70,1744186299742
NMEA,$GAGSV,1,1,4,127,1,,37.0,125,42,252,33.7,120,39,64,31.3,118,22,310,36.0*6A,1744186299742
NMEA,$GPVTG,126.208,T,,M,5.083,N,9.414,K,A*04,1744186299742
NMEA,$RD_RSSI, 686, 775, 0, 0,1744186299742
NMEA,$GPGGA,081140.742,3959.656609,N,11628.945454,E,1,14,1.043,21.892,M,0,M,,*41,1744186299742
NMEA,$GPRMC,081140.742,A,3959.656609,N,11628.945454,E,4.814,122.005,090425,,E,A*2C,1744186300742
NMEA,$GPGLL,3959.656609,N,11628.945454,E,081140.742,A,A*59,1744186300742
NMEA,$GPGSA,A,3,19,11,20,17,12,6,,,,,,,1.891,1.043,1.577*08,1744186300742
NMEA,$BDGSA,A,3,238,235,210,229,219,,,,,,,,1.891,1.043,1.577*1D,1744186300742
NMEA,$GAGSA,A,3,125,120,118,,,,,,,,,,1.891,1.043,1.577*1D,1744186300742
NMEA,$GPGSV,4,1,16,196,1,,40.0,19,53,131,37.7,11,59,307,43.4,9,34,84,26.3*40,1744186300742
NMEA,$GPGSV,4,2,16,195,1,,31.3,194,1,,26.7,5,11,225,22.0,25,15,313,22.8*41,1744186300742
NMEA,$GPGSV,4,3,16,20,48,234,26.1,17,26,134,36.5,12,35,281,32.5,6,64,30,32.0*7F,1744186300742
NMEA,$GPGSV,4,4,16,4,19,51,32.0,22,5,180,0.0,193,1,,0.0,47,1,,0.0*43,1744186300742
NMEA,$BDGSV,2,1,7,238,74,234,41.9,222,1,,38.0,235,77,48,32.2,210,74,225,39.7*64,1744186300742
NMEA,$BDGSV,2,2,7,229,23,109,39.2,203,1,,34.2,219,60,88,30.5*76,1744186300742
NMEA,$GAGSV,1,1,4,127,1,,37.2,125,42,252,33.7,120,39,64,32.2,118,22,310,35.7*6E,1744186300742
NMEA,$GPVTG,122.005,T,,M,4.814,N,8.915,K,A*05,1744186300742
NMEA,$RD_RSSI, 690, 786, 0, 0,1744186300742
NMEA,$GPGGA,081141.742,3959.656079,N,11628.946586,E,1,14,1.043,20.832,M,0,M,,*47,1744186301742
NMEA,$GPRMC,081141.742,A,3959.656079,N,11628.946586,E,4.874,125.440,090425,,E,A*25,1744186301742
NMEA,$GPGLL,3959.656079,N,11628.946586,E,081141.742,A,A*54,1744186301742
NMEA,$GPGSA,A,3,19,11,20,17,12,6,,,,,,,1.891,1.043,1.577*08,1744186301742
NMEA,$BDGSA,A,3,238,235,210,229,219,,,,,,,,1.891,1.043,1.577*1D,1744186301742
NMEA,$GAGSA,A,3,125,120,118,,,,,,,,,,1.891,1.043,1.577*1D,1744186301742
NMEA,$GPGSV,4,1,16,196,1,,40.2,19,53,131,37.9,11,59,307,43.0,9,34,84,28.0*45,1744186301742
NMEA,$GPGSV,4,2,16,195,1,,30.7,194,1,,26.0,5,11,225,21.2,25,15,313,24.3*4F,1744186301742
NMEA,$GPGSV,4,3,16,20,48,234,27.2,17,26,134,37.0,12,35,281,31.8,6,64,30,32.7*70,1744186301742
NMEA,$GPGSV,4,4,16,4,19,51,32.0,22,5,180,0.0,193,1,,0.0,47,1,,0.0*43,1744186301742
NMEA,$BDGSV,2,1,7,238,74,234,41.9,222,1,,38.2,235,77,48,31.8,210,74,225,39.7*6F,1744186301742
NMEA,$BDGSV,2,2,7,229,23,109,38.7,203,1,,34.0,219,60,88,30.3*76,1744186301742
NMEA,$GAGSV,1,1,4,127,1,,36.9,125,42,252,33.7,120,39,64,32.7,118,22,310,35.9*6F,1744186301742
NMEA,$GPVTG,125.440,T,,M,4.874,N,9.028,K,A*07,1744186301742
NMEA,$RD_RSSI, 662, 746, 0, 0,1744186301742
NMEA,$GPGGA,081142.742,3959.655511,N,11628.947607,E,1,15,0.932,19.147,M,0,M,,*49,1744186301742
NMEA,$GPRMC,081142.742,A,3959.655511,N,11628.947607,E,4.653,128.764,090425,,E,A*26,1744186302742
NMEA,$GPGLL,3959.655511,N,11628.947607,E,081142.742,A,A*54,1744186302742
NMEA,$GPGSA,A,3,19,11,25,20,17,12,6,,,,,,1.568,0.932,1.261*0A,1744186302742
NMEA,$BDGSA,A,3,238,235,210,229,219,,,,,,,,1.568,0.932,1.261*18,1744186302742
NMEA,$GAGSA,A,3,125,120,118,,,,,,,,,,1.568,0.932,1.261*18,1744186302742
NMEA,$GPGSV,4,1,16,196,1,,40.2,19,53,131,38.0,11,59,307,42.7,9,34,84,28.3*46,1744186302742
NMEA,$GPGSV,4,2,16,195,1,,30.6,194,1,,25.3,5,11,225,20.2,25,15,313,24.6*4A,1744186302742
NMEA,$GPGSV,4,3,16,20,48,234,27.7,17,26,134,36.7,12,35,281,29.2,6,64,30,33.2*74,1744186302742
NMEA,$GPGSV,4,4,16,4,19,51,31.7,22,5,180,0.0,193,1,,0.0,47,1,,0.0*47,1744186302742
NMEA,$BDGSV,2,1,7,238,74,234,42.0,222,1,,38.5,235,77,48,31.8,210,74,225,39.9*6C,1744186302742
NMEA,$BDGSV,2,2,7,229,23,109,38.7,203,1,,34.4,219,60,88,30.2*73,1744186302742
NMEA,$GAGSV,1,1,4,127,1,,36.7,125,42,252,33.7,120,39,64,33.0,118,22,310,36.7*6A,1744186302742
NMEA,$GPVTG,128.764,T,,M,4.653,N,8.618,K,A*00,1744186302742
NMEA,$RD_RSSI, 680, 814, 0, 0,1744186302742
NMEA,$GPGGA,081143.742,3959.654957,N,11628.948483,E,1,14,1.043,17.135,M,0,M,,*42,1744186303742
NMEA,$GPRMC,081143.742,A,3959.654957,N,11628.948483,E,4.879,130.392,090425,,E,A*2B,1744186303742
NMEA,$GPGLL,3959.654957,N,11628.948483,E,081143.742,A,A*5B,1744186303742
NMEA,$GPGSA,A,3,19,11,20,17,12,6,,,,,,,1.891,1.043,1.577*08,1744186303742
NMEA,$BDGSA,A,3,238,235,210,229,219,,,,,,,,1.891,1.043,1.577*1D,1744186303742
NMEA,$GAGSA,A,3,125,120,118,,,,,,,,,,1.891,1.043,1.577*1D,1744186303742
NMEA,$GPGSV,4,1,16,196,1,,40.5,19,53,131,38.4,11,59,307,43.0,9,34,84,27.8*47,1744186303742
NMEA,$GPGSV,4,2,16,195,1,,30.2,194,1,,26.3,5,11,225,20.7,25,15,313,24.5*4B,1744186303742
NMEA,$GPGSV,4,3,16,20,48,234,28.5,17,26,134,36.9,12,35,281,30.3,6,64,30,33.2*7E,1744186303742
NMEA,$GPGSV,4,4,16,4,19,51,32.2,22,5,180,0.0,193,1,,0.0,47,1,,0.0*41,1744186303742
NMEA,$BDGSV,2,1,7,238,74,234,41.7,222,1,,38.0,235,77,48,31.7,210,74,225,39.9*62,1744186303742
NMEA,$BDGSV,2,2,7,229,23,109,38.2,203,1,,34.4,219,60,88,30.2*76,1744186303742
NMEA,$GAGSV,1,1,4,127,1,,36.5,125,42,252,33.4,120,39,64,34.4,118,22,310,36.5*6A,1744186303742
NMEA,$GPVTG,130.392,T,,M,4.879,N,9.037,K,A*08,1744186303742
NMEA,$RD_RSSI, 658, 798, 0, 0,1744186303742
NMEA,$GPGGA,081144.742,3959.654317,N,11628.949231,E,1,15,0.962,14.645,M,0,M,,*4C,1744186303742
NMEA,$GPRMC,081144.742,A,3959.654317,N,11628.949231,E,5.154,124.594,090425,,E,A*2E,1744186304742
NMEA,$GPGLL,3959.654317,N,11628.949231,E,081144.742,A,A*5C,1744186304742
NMEA,$GPGSA,A,3,19,11,20,17,12,6,,,,,,,1.832,0.962,1.559*06,1744186304742
NMEA,$BDGSA,A,3,238,222,235,210,229,219,,,,,,,1.832,0.962,1.559*21,1744186304742
NMEA,$GAGSA,A,3,125,120,118,,,,,,,,,,1.832,0.962,1.559*13,1744186304742
NMEA,$GPGSV,4,1,16,196,1,,40.2,19,53,131,38.7,11,59,307,43.5,9,34,84,30.3*4B,1744186304742
NMEA,$GPGSV,4,2,16,195,1,,32.0,194,1,,27.5,5,11,225,26.5,25,15,313,24.3*4E,1744186304742
NMEA,$GPGSV,4,3,16,20,48,235,29.8,17,26,134,36.7,12,35,281,31.0,6,64,30,33.4*79,1744186304742
NMEA,$GPGSV,4,4,16,4,19,51,31.6,22,5,179,0.0,193,1,,0.0,47,1,,0.0*40,1744186304742
NMEA,$BDGSV,2,1,7,238,74,234,41.7,222,39,179,37.5,235,77,48,32.0,210,74,225,40.0*6F,1744186304742
NMEA,$BDGSV,2,2,7,229,23,109,38.7,203,1,,33.7,219,60,88,31.5*71,1744186304742
NMEA,$GAGSV,1,1,4,127,1,,36.7,125,42,252,34.4,120,39,64,33.5,118,22,310,35.5*6A,1744186304742
NMEA,$GPVTG,124.594,T,,M,5.154,N,9.546,K,A*09,1744186304742
NMEA,$RD_RSSI, 670, 792, 0, 0,1744186304742
NMEA,$GPGGA,081145.742,3959.653853,N,11628.950068,E,1,15,0.962,11.761,M,0,M,,*45,1744186305742
NMEA,$GPRMC,081145.742,A,3959.653853,N,11628.950068,E,4.178,123.204,090425,,E,A*23,1744186305742
NMEA,$GPGLL,3959.653853,N,11628.950068,E,081145.742,A,A*57,1744186305742
NMEA,$GPGSA,A,3,19,11,20,17,12,6,,,,,,,1.832,0.962,1.559*06,1744186305742
NMEA,$BDGSA,A,3,238,222,235,210,229,219,,,,,,,1.832,0.962,1.559*21,1744186305742
NMEA,$GAGSA,A,3,125,120,118,,,,,,,,,,1.832,0.962,1.559*13,1744186305742
NMEA,$GPGSV,4,1,16,196,1,,40.0,19,53,131,39.0,11,59,307,43.5,9,34,84,32.7*49,1744186305742
NMEA,$GPGSV,4,2,16,195,1,,32.5,194,1,,29.2,5,11,225,24.7,25,15,313,23.7*41,1744186305742
NMEA,$GPGSV,4,3,16,20,48,235,32.2,17,26,134,37.0,12,35,281,32.4,6,64,30,32.5*78,1744186305742
NMEA,$GPGSV,4,4,16,4,19,51,33.0,22,5,179,0.0,193,1,,0.0,47,1,,0.0*44,1744186305742
NMEA,$BDGSV,2,1,7,238,74,234,42.0,222,39,179,36.7,235,77,48,31.8,210,74,224,39.9*65,1744186305742
NMEA,$BDGSV,2,2,7,229,23,109,37.2,203,1,,34.7,219,60,88,31.6*7F,1744186305742
NMEA,$GAGSV,1,1,4,127,1,,36.7,125,42,252,32.5,120,39,64,34.0,118,22,310,34.7*6C,1744186305742
NMEA,$GPVTG,123.204,T,,M,4.178,N,7.738,K,A*0A,1744186305742
NMEA,$RD_RSSI, 656, 783, 0, 0,1744186305742
NMEA,$GPGGA,081146.742,3959.653553,N,11628.950535,E,1,15,0.962,9.848,M,0,M,,*7B,1744186306742
NMEA,$GPRMC,081146.742,A,3959.653553,N,11628.950535,E,5.701,85.440,090425,,E,A*12,1744186306742
NMEA,$GPGLL,3959.653553,N,11628.950535,E,081146.742,A,A*54,1744186306742
NMEA,$GPGSA,A,3,19,11,20,17,12,6,,,,,,,1.832,0.962,1.559*06,1744186306742
NMEA,$BDGSA,A,3,238,222,235,210,229,219,,,,,,,1.832,0.962,1.559*21,1744186306742
NMEA,$GAGSA,A,3,125,120,118,,,,,,,,,,1.832,0.962,1.559*13,1744186306742
NMEA,$GPGSV,4,1,16,196,1,,39.0,19,53,131,38.7,11,59,307,42.0,9,34,84,33.0*43,1744186306742
NMEA,$GPGSV,4,2,16,195,1,,32.7,194,1,,27.2,5,11,225,24.1,25,15,313,23.8*44,1744186306742
NMEA,$GPGSV,4,3,16,20,48,235,32.2,17,26,134,36.4,12,35,281,32.7,6,64,30,30.8*71,1744186306742
NMEA,$GPGSV,4,4,16,4,19,51,28.8,22,5,179,0.0,193,1,,0.0,47,1,,0.0*46,1744186306742
NMEA,$BDGSV,2,1,7,238,74,234,41.0,222,39,179,37.5,235,77,48,33.5,210,74,224,39.0*63,1744186306742
NMEA,$BDGSV,2,2,7,229,23,109,35.5,203,1,,33.2,219,60,88,31.2*7C,1744186306742
NMEA,$GAGSV,1,1,4,127,1,,36.0,125,42,252,33.7,120,39,64,31.7,118,22,310,34.2*6F,1744186306742
NMEA,$GPVTG,85.440,T,,M,5.701,N,10.559,K,A*0B,1744186306742
NMEA,$RD_RSSI, 720, 808, 0, 0,1744186306742
NMEA,$GPGGA,081147.642,3959.653968,N,11628.951634,E,1,16,0.958,9.321,M,0,M,,*72,1744186306742
NMEA,$GPRMC,081147.642,A,3959.653968,N,11628.951634,E,7.588,81.325,090425,,E,A*14,1744186307642
NMEA,$GPGLL,3959.653968,N,11628.951634,E,081147.642,A,A*53,1744186307642
NMEA,$GPGSA,A,3,19,11,20,17,12,6,,,,,,,1.709,0.958,1.415*01,1744186307642
NMEA,$BDGSA,A,3,238,222,235,210,229,219,,,,,,,1.709,0.958,1.415*26,1744186307642
NMEA,$GAGSA,A,3,127,125,120,118,,,,,,,,,1.709,0.958,1.415*20,1744186307642
NMEA,$GPGSV,4,1,16,196,1,,39.0,19,53,131,38.4,11,59,307,42.5,9,34,84,33.2*47,1744186307642
NMEA,$GPGSV,4,2,16,195,1,,32.7,194,1,,27.7,5,11,225,25.0,25,15,313,19.6*46,1744186307642
NMEA,$GPGSV,4,3,16,20,48,235,32.7,17,26,134,35.9,12,35,281,31.6,6,64,30,28.2*7B,1744186307642
NMEA,$GPGSV,4,4,16,4,19,51,26.2,22,5,179,0.0,193,1,,0.0,47,1,,0.0*42,1744186307642
NMEA,$BDGSV,2,1,7,238,74,234,41.2,222,39,179,36.9,235,77,48,34.5,210,74,224,39.4*6F,1744186307642
NMEA,$BDGSV,2,2,7,229,23,109,35.7,203,1,,32.0,219,60,88,29.3*75,1744186307642
NMEA,$GAGSV,1,1,4,127,67,338,36.0,125,42,252,34.4,120,39,64,31.2,118,22,310,34.2*66,1744186307642
NMEA,$GPVTG,81.325,T,,M,7.588,N,14.054,K,A*06,1744186307642
NMEA,$RD_RSSI, 670, 799, 0, 0,1744186307642
NMEA,$GPGGA,081148.542,3959.654746,N,11628.953675,E,1,16,0.958,8.772,M,0,M,,*7F,1744186307642
NMEA,$GPRMC,081148.542,A,3959.654746,N,11628.953675,E,11.077,83.050,090425,,E,A*2B,1744186308542
NMEA,$GPGLL,3959.654746,N,11628.953675,E,081148.542,A,A*5D,1744186308542
NMEA,$GPGSA,A,3,19,11,20,17,12,6,,,,,,,1.709,0.958,1.415*01,1744186308542
NMEA,$BDGSA,A,3,238,222,235,210,229,219,,,,,,,1.709,0.958,1.415*26,1744186308542
NMEA,$GAGSA,A,3,127,125,120,118,,,,,,,,,1.709,0.958,1.415*20,1744186308542
NMEA,$GPGSV,4,1,16,196,1,,38.9,19,53,131,37.7,11,59,307,42.2,9,34,84,32.4*43,1744186308542
NMEA,$GPGSV,4,2,16,195,1,,33.2,194,1,,26.2,5,11,225,22.7,25,15,313,19.8*48,1744186308542
NMEA,$GPGSV,4,3,16,20,48,235,31.7,17,26,134,34.2,12,35,281,30.0,6,64,30,30.7*79,1744186308542
NMEA,$GPGSV,4,4,16,4,19,51,21.6,22,5,179,0.0,193,1,,0.0,47,1,,0.0*41,1744186308542
NMEA,$BDGSV,2,1,7,238,74,234,41.0,222,39,179,36.7,235,77,48,34.5,210,74,224,38.7*61,1744186308542
NMEA,$BDGSV,2,2,7,229,23,109,34.0,203,1,,32.7,219,60,88,29.8*7F,1744186308542
NMEA,$GAGSV,1,1,4,127,67,338,35.2,125,42,252,32.5,120,39,64,32.2,118,22,310,33.5*63,1744186308542
NMEA,$GPVTG,83.050,T,,M,11.077,N,20.516,K,A*33,1744186308542
NMEA,$RD_RSSI, 708, 824, 0, 0,1744186308542
NMEA,$GPGGA,081149.442,3959.656637,N,11628.956505,E,1,16,0.958,14.326,M,0,M,,*43,1744186309442
NMEA,$GPRMC,081149.442,A,3959.656637,N,11628.956505,E,11.626,80.460,090425,,E,A*29,1744186309442
NMEA,$GPGLL,3959.656637,N,11628.956505,E,081149.442,A,A*59,1744186309442
NMEA,$GPGSA,A,3,19,11,20,17,12,6,,,,,,,1.709,0.958,1.415*01,1744186309442
NMEA,$BDGSA,A,3,238,222,235,210,229,219,,,,,,,1.709,0.958,1.415*26,1744186309442
NMEA,$GAGSA,A,3,127,125,120,118,,,,,,,,,1.709,0.958,1.415*20,1744186309442
NMEA,$GPGSV,4,1,16,196,1,,39.0,19,53,131,37.5,11,59,307,42.4,9,34,84,30.7*4E,1744186309442
NMEA,$GPGSV,4,2,16,195,1,,33.5,194,1,,27.1,5,11,225,23.1,25,15,313,19.7*45,1744186309442
NMEA,$GPGSV,4,3,16,20,48,235,30.6,17,26,134,32.7,12,35,281,27.2,6,64,30,33.0*7A,1744186309442
NMEA,$GPGSV,4,4,16,4,19,51,20.6,22,5,179,0.0,193,1,,0.0,47,1,,0.0*40,1744186309442
NMEA,$BDGSV,2,1,7,238,74,234,40.5,222,39,179,37.5,235,77,48,33.7,210,74,224,38.2*66,1744186309442
NMEA,$BDGSV,2,2,7,229,23,109,33.5,203,1,,34.0,219,60,88,29.6*72,1744186309442
NMEA,$GAGSV,1,1,4,127,67,338,36.7,125,42,252,31.2,120,39,64,32.4,118,22,310,34.0*65,1744186309442
NMEA,$GPVTG,80.460,T,,M,11.626,N,21.532,K,A*32,1744186309442
NMEA,$RD_RSSI, 645, 765, 0, 0,1744186309442
NMEA,$GPGGA,081150.342,3959.658359,N,11628.959491,E,1,16,0.958,18.306,M,0,M,,*42,1744186310342
NMEA,$GPRMC,081150.342,A,3959.658359,N,11628.959491,E,10.103,82.439,090425,,E,A*29,1744186310342
NMEA,$GPGLL,3959.658359,N,11628.959491,E,081150.342,A,A*56,1744186310342
NMEA,$GPGSA,A,3,19,11,20,17,12,6,,,,,,,1.709,0.958,1.415*01,1744186310342
NMEA,$BDGSA,A,3,238,222,235,210,229,219,,,,,,,1.709,0.958,1.415*26,1744186310342
NMEA,$GAGSA,A,3,127,125,120,118,,,,,,,,,1.709,0.958,1.415*20,1744186310342
NMEA,$GPGSV,4,1,16,196,1,,39.0,19,53,131,38.2,11,59,307,42.4,9,34,84,31.2*42,1744186310342
NMEA,$GPGSV,4,2,16,195,1,,32.5,194,1,,28.0,5,11,225,23.5,25,15,313,19.7*4E,1744186310342
NMEA,$GPGSV,4,3,16,20,48,235,33.2,17,26,134,34.2,12,35,281,30.5,6,64,30,31.7*7A,1744186310342
NMEA,$GPGSV,4,4,16,4,19,51,19.8,22,5,179,0.0,193,1,,0.0,47,1,,0.0*44,1744186310342
NMEA,$BDGSV,2,1,7,238,74,234,40.7,222,39,179,37.5,235,77,48,33.2,210,74,224,38.9*6A,1744186310342
NMEA,$BDGSV,2,2,7,229,23,109,31.2,203,1,,34.5,219,60,88,28.6*73,1744186310342
NMEA,$GAGSV,1,1,4,127,67,338,37.2,125,42,252,32.7,120,39,64,33.2,118,22,310,35.5*64,1744186310342
NMEA,$GPVTG,82.439,T,,M,10.103,N,18.712,K,A*37,1744186310342
NMEA,$RD_RSSI, 729, 797, 0, 0,1744186310342
NMEA,$GPGGA,081151.242,3959.659681,N,11628.962006,E,1,18,0.830,21.227,M,0,M,,*48,1744186311242
NMEA,$GPRMC,081151.242,A,3959.659681,N,11628.962006,E,11.637,83.859,090425,,E,A*20,1744186311242
NMEA,$GPGLL,3959.659681,N,11628.962006,E,081151.242,A,A*55,1744186311242
NMEA,$GPGSA,A,3,196,19,11,25,20,17,12,6,,,,,1.408,0.830,1.138*3F,1744186311242
NMEA,$BDGSA,A,3,238,222,235,210,229,219,,,,,,,1.408,0.830,1.138*21,1744186311242
NMEA,$GAGSA,A,3,127,125,120,118,,,,,,,,,1.408,0.830,1.138*27,1744186311242
NMEA,$GPGSV,4,1,16,196,48,135,39.0,19,53,131,38.2,11,59,307,42.2,9,34,84,34.2*4B,1744186311242
NMEA,$GPGSV,4,2,16,195,1,,32.4,194,1,,26.7,5,11,225,21.7,25,15,313,19.3*42,1744186311242
NMEA,$GPGSV,4,3,16,20,48,235,33.0,17,26,134,35.7,12,35,281,32.2,6,64,30,29.2*75,1744186311242
NMEA,$GPGSV,4,4,16,4,19,51,20.1,22,5,179,0.0,193,1,,0.0,47,1,,0.0*47,1744186311242
NMEA,$BDGSV,2,1,7,238,74,235,40.9,222,39,179,38.0,235,77,48,33.0,210,74,224,39.2*67,1744186311242
NMEA,$BDGSV,2,2,7,229,23,109,29.0,203,1,,33.5,219,60,88,28.7*7E,1744186311242
NMEA,$GAGSV,1,1,4,127,67,338,35.7,125,42,252,32.9,120,39,64,32.2,118,22,310,34.5*6D,1744186311242
NMEA,$GPVTG,83.859,T,,M,11.637,N,21.551,K,A*32,1744186311242
NMEA,$RD_RSSI, 698, 766, 0, 0,1744186311242
NMEA,$GPGGA,081152.142,3959.660666,N,11628.964992,E,1,18,0.830,23.332,M,0,M,,*4E,1744186312142
NMEA,$GPRMC,081152.142,A,3959.660666,N,11628.964992,E,14.559,82.083,090425,,E,A*21,1744186312142
NMEA,$GPGLL,3959.660666,N,11628.964992,E,081152.142,A,A*54,1744186312142
NMEA,$GPGSA,A,3,196,19,11,25,20,17,12,6,,,,,1.408,0.830,1.138*3F,1744186312142
NMEA,$BDGSA,A,3,238,222,235,210,229,219,,,,,,,1.408,0.830,1.138*21,1744186312142
NMEA,$GAGSA,A,3,127,125,120,118,,,,,,,,,1.408,0.830,1.138*27,1744186312142
NMEA,$GPGSV,4,1,16,196,48,135,39.0,19,53,131,37.7,11,59,307,42.5,9,34,84,34.2*46,1744186312142
NMEA,$GPGSV,4,2,16,195,1,,32.2,194,1,,26.6,5,11,225,23.6,25,15,313,19.1*44,1744186312142
NMEA,$GPGSV,4,3,16,20,48,235,31.7,17,26,134,33.4,12,35,281,30.5,6,64,30,25.1*7F,1744186312142
NMEA,$GPGSV,4,4,16,4,19,51,20.1,22,5,179,0.0,193,1,,0.0,47,1,,0.0*47,1744186312142
NMEA,$BDGSV,2,1,7,238,74,235,41.0,222,39,179,38.2,235,77,48,32.5,210,74,224,38.7*6D,1744186312142
NMEA,$BDGSV,2,2,7,229,23,109,25.0,203,1,,32.5,219,60,88,29.5*70,1744186312142
NMEA,$GAGSV,1,1,4,127,67,338,35.5,125,42,252,32.2,120,39,64,30.8,118,22,310,32.7*68,1744186312142
NMEA,$GPVTG,82.083,T,,M,14.559,N,26.964,K,A*3F,1744186312142
NMEA,$RD_RSSI, 714, 833, 0, 0,1744186312142
NMEA,$GPGGA,081153.042,3959.661704,N,11628.968920,E,1,18,0.890,24.933,M,0,M,,*49,1744186313042
NMEA,$GPRMC,081153.042,A,3959.661704,N,11628.968920,E,16.715,78.851,090425,,E,A*2A,1744186313042
NMEA,$GPGLL,3959.661704,N,11628.968920,E,081153.042,A,A*55,1744186313042
NMEA,$GPGSA,A,3,196,19,11,9,20,17,12,6,,,,,1.637,0.890,1.373*08,1744186313042
NMEA,$BDGSA,A,3,238,222,235,210,229,219,,,,,,,1.637,0.890,1.373*28,1744186313042
NMEA,$GAGSA,A,3,127,125,120,118,,,,,,,,,1.637,0.890,1.373*2E,1744186313042
NMEA,$GPGSV,4,1,16,196,48,135,38.7,19,53,131,39.5,11,59,307,42.7,9,34,84,34.9*45,1744186313042
NMEA,$GPGSV,4,2,16,195,1,,34.0,194,1,,27.7,5,11,225,25.7,25,15,313,23.1*4E,1744186313042
NMEA,$GPGSV,4,3,16,20,48,235,34.0,17,26,134,28.1,12,35,281,27.2,6,64,30,28.0*7F,1744186313042
NMEA,$GPGSV,4,4,16,4,19,51,20.3,22,5,179,0.0,193,1,,0.0,47,1,,0.0*45,1744186313042
NMEA,$BDGSV,2,1,7,238,74,235,41.2,222,39,179,39.2,235,77,48,32.0,210,74,224,37.0*63,1744186313042
NMEA,$BDGSV,2,2,7,229,23,109,22.0,203,1,,33.5,219,60,88,27.7*7A,1744186313042
NMEA,$GAGSV,1,1,4,127,67,338,36.0,125,42,252,31.1,120,39,64,30.2,118,22,310,31.0*60,1744186313042
NMEA,$GPVTG,78.851,T,,M,16.715,N,30.957,K,A*32,1744186313042
NMEA,$RD_RSSI, 630, 804, 0, 0,1744186313042
NMEA,$GPGGA,081154.000,3959.663040,N,11628.973633,E,1,20,0.791,26.265,M,0,M,,*45,1744186314000
NMEA,$GPRMC,081154.000,A,3959.663040,N,11628.973633,E,17.522,78.957,090425,,E,A*29,1744186314000
NMEA,$GPGLL,3959.663040,N,11628.973633,E,081154.000,A,A*56,1744186314000
NMEA,$GPGSA,A,3,196,19,11,9,195,25,20,17,12,6,,,1.347,0.791,1.090*30,1744186314000
NMEA,$BDGSA,A,3,238,222,235,210,229,219,,,,,,,1.347,0.791,1.090*2A,1744186314000
NMEA,$GAGSA,A,3,127,125,120,118,,,,,,,,,1.347,0.791,1.090*2C,1744186314000
NMEA,$GPGSV,4,1,16,196,48,135,38.0,19,53,131,40.0,11,59,307,42.9,9,34,84,31.8*43,1744186314000
NMEA,$GPGSV,4,2,16,195,66,87,34.5,194,1,,27.0,5,11,225,30.0,25,15,313,22.5*74,1744186314000
NMEA,$GPGSV,4,3,16,20,48,235,34.7,17,26,134,23.7,12,35,281,27.7,6,64,30,31.1*79,1744186314000
NMEA,$GPGSV,4,4,16,4,19,51,0.0,22,5,179,0.0,193,1,,0.0,47,1,,0.0*74,1744186314000
NMEA,$BDGSV,2,1,7,238,74,235,41.4,222,39,179,39.9,235,77,48,31.8,210,74,224,36.9*6D,1744186314000
NMEA,$BDGSV,2,2,7,229,23,109,24.3,203,1,,34.4,219,60,88,28.6*77,1744186314000
NMEA,$GAGSV,1,1,4,127,67,338,35.7,125,42,252,30.7,120,39,64,31.8,118,22,310,32.0*6B,1744186314000
NMEA,$GPVTG,78.957,T,,M,17.522,N,32.451,K,A*3B,1744186314000
NMEA,$RD_RSSI, 615, 796, 0, 0,1744186314000
NMEA,$GPGGA,081155.000,3959.664570,N,11628.979124,E,1,19,0.886,27.166,M,0,M,,*4C,1744186315000
NMEA,$GPRMC,081155.000,A,3959.664570,N,11628.979124,E,18.719,80.862,090425,,E,A*27,1744186315000
NMEA,$GPGLL,3959.664570,N,11628.979124,E,081155.000,A,A*5D,1744186315000
NMEA,$GPGSA,A,3,196,19,11,9,195,20,17,12,6,,,,1.595,0.886,1.326*39,1744186315000
NMEA,$BDGSA,A,3,238,222,235,210,229,219,,,,,,,1.595,0.886,1.326*24,1744186315000
NMEA,$GAGSA,A,3,127,125,120,118,,,,,,,,,1.595,0.886,1.326*22,1744186315000
NMEA,$GPGSV,4,1,16,196,48,135,38.7,19,53,131,40.7,11,59,307,43.2,9,34,84,27.6*40,1744186315000
NMEA,$GPGSV,4,2,16,195,66,87,34.0,194,1,,25.8,5,11,225,29.8,25,15,313,21.3*7E,1744186315000
NMEA,$GPGSV,4,3,16,20,48,235,33.2,17,26,134,23.0,12,35,281,25.2,6,64,30,33.2*7A,1744186315000
NMEA,$GPGSV,4,4,16,4,19,51,0.0,22,5,179,0.0,193,1,,0.0,47,1,,0.0*74,1744186315000
NMEA,$BDGSV,2,1,7,238,74,235,41.2,222,40,179,38.5,235,77,48,31.7,210,74,224,36.7*69,1744186315000
NMEA,$BDGSV,2,2,7,229,23,109,28.5,203,1,,34.5,219,60,88,29.7*7C,1744186315000
NMEA,$GAGSV,1,1,4,127,67,338,36.4,125,42,252,30.5,120,39,64,29.1,118,22,310,28.0*62,1744186315000
NMEA,$GPVTG,80.862,T,,M,18.719,N,34.668,K,A*30,1744186315000
NMEA,$RD_RSSI, 631, 760, 0, 0,1744186315000
NMEA,$GPGGA,081156.000,3959.665868,N,11628.985093,E,1,19,0.886,27.415,M,0,M,,*45,1744186315000
NMEA,$GPRMC,081156.000,A,3959.665868,N,11628.985093,E,18.642,83.534,090425,,E,A*2D,1744186316000
NMEA,$GPGLL,3959.665868,N,11628.985093,E,081156.000,A,A*55,1744186316000
NMEA,$GPGSA,A,3,196,19,11,9,195,20,17,12,6,,,,1.595,0.886,1.326*39,1744186316000
NMEA,$BDGSA,A,3,238,222,235,210,229,219,,,,,,,1.595,0.886,1.326*24,1744186316000
NMEA,$GAGSA,A,3,127,125,120,118,,,,,,,,,1.595,0.886,1.326*22,1744186316000
NMEA,$GPGSV,4,1,16,196,48,135,35.9,19,53,131,39.7,11,59,307,43.4,9,34,84,24.7*49,1744186316000
NMEA,$GPGSV,4,2,16,195,66,87,32.5,194,1,,23.2,5,11,225,29.3,25,15,313,17.5*79,1744186316000
NMEA,$GPGSV,4,3,16,20,48,235,29.3,17,26,134,30.6,12,35,281,27.5,6,64,30,35.0*75,1744186316000
NMEA,$GPGSV,4,4,16,4,19,51,0.0,22,5,179,0.0,193,1,,0.0,47,1,,0.0*74,1744186316000
NMEA,$BDGSV,2,1,7,238,74,235,41.2,222,40,179,38.0,235,77,48,31.6,210,74,224,37.7*6C,1744186316000
NMEA,$BDGSV,2,2,7,229,23,109,29.0,203,1,,34.5,219,60,88,30.7*70,1744186316000
NMEA,$GAGSV,1,1,4,127,67,338,38.2,125,42,252,32.5,120,39,64,24.7,118,22,310,22.7*6E,1744186316000
NMEA,$GPVTG,83.534,T,,M,18.642,N,34.526,K,A*3B,1744186316000
NMEA,$RD_RSSI, 636, 805, 0, 0,1744186316000
NMEA,$GPGGA,081157.000,3959.666830,N,11628.991219,E,1,19,0.886,28.016,M,0,M,,*47,1744186317000
NMEA,$GPRMC,081157.000,A,3959.666830,N,11628.991219,E,18.344,85.150,090425,,E,A*24,1744186317000
NMEA,$GPGLL,3959.666830,N,11628.991219,E,081157.000,A,A*5F,1744186317000
NMEA,$GPGSA,A,3,196,19,11,9,195,20,17,12,6,,,,1.595,0.886,1.326*39,1744186317000
NMEA,$BDGSA,A,3,238,222,235,210,229,219,,,,,,,1.595,0.886,1.326*24,1744186317000
NMEA,$GAGSA,A,3,127,125,120,118,,,,,,,,,1.595,0.886,1.326*22,1744186317000
NMEA,$GPGSV,4,1,16,196,48,135,36.5,19,53,131,40.5,11,59,307,43.0,9,34,84,20.6*4B,1744186317000
NMEA,$GPGSV,4,2,16,195,66,87,31.7,194,1,,24.2,5,11,225,24.7,25,15,313,16.5*77,1744186317000
NMEA,$GPGSV,4,3,16,20,48,235,31.3,17,26,134,32.7,12,35,281,25.3,6,64,30,36.2*7A,1744186317000
NMEA,$GPGSV,4,4,16,22,5,179,19.6,4,19,51,0.0,193,1,,0.0,47,1,,0.0*4A,1744186317000
NMEA,$BDGSV,2,1,7,238,74,235,41.4,222,40,179,34.7,235,77,48,32.2,210,74,224,38.7*69,1744186317000
NMEA,$BDGSV,2,2,7,229,23,109,25.8,203,1,,33.7,219,60,88,32.5*71,1744186317000
NMEA,$GAGSV,1,1,4,127,67,338,38.4,125,42,252,35.0,120,39,64,20.7,118,22,310,17.8*67,1744186317000
NMEA,$GPVTG,85.150,T,,M,18.344,N,33.973,K,A*33,1744186317000
NMEA,$RD_RSSI, 666, 830, 0, 0,1744186317000
NMEA,$GPGGA,081158.000,3959.667753,N,11628.997503,E,1,19,0.886,28.703,M,0,M,,*4A,1744186317000
NMEA,$GPRMC,081158.000,A,3959.667753,N,11628.997503,E,18.658,84.486,090425,,E,A*2D,1744186318000
NMEA,$GPGLL,3959.667753,N,11628.997503,E,081158.000,A,A*51,1744186318000
NMEA,$GPGSA,A,3,196,19,11,9,195,20,17,12,6,,,,1.595,0.886,1.326*39,1744186318000
NMEA,$BDGSA,A,3,238,222,235,210,229,219,,,,,,,1.595,0.886,1.326*24,1744186318000
NMEA,$GAGSA,A,3,127,125,120,118,,,,,,,,,1.595,0.886,1.326*22,1744186318000
NMEA,$GPGSV,4,1,16,196,48,135,38.9,19,53,131,41.2,11,59,307,42.9,9,34,84,15.6*41,1744186318000
NMEA,$GPGSV,4,2,16,195,66,87,31.5,194,1,,26.5,5,11,225,23.2,25,15,313,16.5*72,1744186318000
NMEA,$GPGSV,4,3,16,20,48,235,33.9,17,26,134,33.5,12,35,281,27.6,6,64,30,36.4*70,1744186318000
NMEA,$GPGSV,4,4,16,22,5,179,17.7,4,19,51,0.0,193,1,,0.0,47,1,,0.0*45,1744186318000
NMEA,$BDGSV,2,1,7,238,74,235,41.9,222,40,179,30.1,235,77,48,32.4,210,74,224,39.2*64,1744186318000
NMEA,$BDGSV,2,2,7,229,23,109,24.7,203,1,,31.0,219,59,88,33.7*73,1744186318000
NMEA,$GAGSV,1,1,4,127,67,338,39.4,125,42,252,36.5,120,39,64,19.2,118,22,310,12.6*64,1744186318000
NMEA,$GPVTG,84.486,T,,M,18.658,N,34.556,K,A*38,1744186318000
NMEA,$RD_RSSI, 639, 765, 0, 0,1744186318000
NMEA,$GPGGA,081159.000,3959.668922,N,11629.004415,E,1,18,0.959,29.624,M,0,M,,*4F,1744186319000
NMEA,$GPRMC,081159.000,A,3959.668922,N,11629.004415,E,17.240,86.605,090425,,E,A*26,1744186319000
NMEA,$GPGLL,3959.668922,N,11629.004415,E,081159.000,A,A*53,1744186319000
NMEA,$GPGSA,A,3,196,19,11,9,195,20,17,6,,,,,1.740,0.959,1.452*37,1744186319000
NMEA,$BDGSA,A,3,238,222,235,210,229,219,,,,,,,1.740,0.959,1.452*29,1744186319000
NMEA,$GAGSA,A,3,127,125,120,118,,,,,,,,,1.740,0.959,1.452*2F,1744186319000
NMEA,$GPGSV,4,1,16,196,48,135,38.4,19,53,131,41.2,11,59,307,43.2,9,34,84,14.1*40,1744186319000
NMEA,$GPGSV,4,2,16,195,66,87,30.7,194,1,,28.7,5,11,225,18.7,25,15,313,16.2*77,1744186319000
NMEA,$GPGSV,4,3,16,20,48,235,34.7,17,26,134,31.5,12,35,281,28.6,6,64,30,36.7*77,1744186319000
NMEA,$GPGSV,4,4,16,22,5,179,17.2,4,19,51,0.0,193,1,,0.0,47,1,,0.0*40,1744186319000
NMEA,$BDGSV,2,1,7,238,74,235,42.0,222,40,179,29.7,235,77,48,32.4,210,74,224,39.2*60,1744186319000
NMEA,$BDGSV,2,2,7,229,23,109,23.5,203,1,,30.3,219,59,88,32.7*75,1744186319000
NMEA,$GAGSV,1,1,4,127,67,338,40.4,125,42,252,36.9,120,39,64,24.3,118,22,310,12.1*6E,1744186319000
NMEA,$GPVTG,86.605,T,,M,17.240,N,31.929,K,A*30,1744186319000
NMEA,$RD_RSSI, 628, 814, 0, 0,1744186319000
NMEA,$GPGGA,081200.000,3959.669819,N,11629.010385,E,1,18,0.924,29.980,M,0,M,,*48,1744186320000
NMEA,$GPRMC,081200.000,A,3959.669819,N,11629.010385,E,14.822,90.102,090425,,E,A*20,1744186320000
NMEA,$GPGLL,3959.669819,N,11629.010385,E,081200.000,A,A*5F,1744186320000
NMEA,$GPGSA,A,3,196,19,11,9,195,20,12,6,,,,,1.659,0.924,1.377*31,1744186320000
NMEA,$BDGSA,A,3,238,222,235,210,229,219,,,,,,,1.659,0.924,1.377*2A,1744186320000
NMEA,$GAGSA,A,3,127,125,120,118,,,,,,,,,1.659,0.924,1.377*2C,1744186320000
NMEA,$GPGSV,4,1,16,196,48,135,39.2,19,53,131,41.2,11,59,307,43.5,9,34,84,9.1*7C,1744186320000
NMEA,$GPGSV,4,2,16,195,66,87,32.4,194,1,,28.2,5,11,225,24.7,25,15,313,22.6*7F,1744186320000
NMEA,$GPGSV,4,3,16,20,48,235,34.0,17,26,134,29.7,12,35,281,31.3,6,64,30,33.0*74,1744186320000
NMEA,$GPGSV,4,4,16,22,5,179,17.0,4,19,51,0.0,193,1,,0.0,47,1,,0.0*42,1744186320000
NMEA,$BDGSV,2,1,7,238,74,235,42.0,222,40,179,31.5,235,77,48,31.7,210,74,224,38.7*6F,1744186320000
NMEA,$BDGSV,2,2,7,229,23,109,22.6,203,1,,30.3,219,59,88,33.9*78,1744186320000
NMEA,$GAGSV,1,1,4,127,67,338,41.0,125,42,252,37.2,120,39,64,23.7,118,22,310,21.2*61,1744186320000
NMEA,$GPVTG,90.102,T,,M,14.822,N,27.450,K,A*3E,1744186320000
NMEA,$RD_RSSI, 620, 780, 0, 0,1744186320000
NMEA,$GPGGA,081201.000,3959.670159,N,11629.015412,E,1,18,0.924,30.786,M,0,M,,*40,1744186320000
NMEA,$GPRMC,081201.000,A,3959.670159,N,11629.015412,E,13.506,90.126,090425,,E,A*22,1744186321000
NMEA,$GPGLL,3959.670159,N,11629.015412,E,081201.000,A,A*57,1744186321000
NMEA,$GPGSA,A,3,196,19,11,9,195,20,12,6,,,,,1.659,0.924,1.377*31,1744186321000
NMEA,$BDGSA,A,3,238,222,235,210,229,219,,,,,,,1.659,0.924,1.377*2A,1744186321000
NMEA,$GAGSA,A,3,127,125,120,118,,,,,,,,,1.659,0.924,1.377*2C,1744186321000
NMEA,$GPGSV,4,1,16,196,48,135,37.5,19,53,131,40.2,11,59,307,43.5,9,34,84,9.6*73,1744186321000
NMEA,$GPGSV,4,2,16,195,66,87,33.7,194,1,,29.0,5,11,225,23.0,25,15,313,21.7*7C,1744186321000
NMEA,$GPGSV,4,3,16,20,48,235,34.5,17,26,134,26.7,12,35,281,33.5,6,64,30,27.8*77,1744186321000
NMEA,$GPGSV,4,4,16,22,5,179,17.7,4,19,51,0.0,193,1,,0.0,47,1,,0.0*45,1744186321000
NMEA,$BDGSV,2,1,7,238,74,235,42.0,222,40,179,30.7,235,77,49,32.2,210,74,224,38.7*6B,1744186321000
NMEA,$BDGSV,2,2,7,229,23,109,23.6,203,1,,28.7,219,59,88,35.4*7F,1744186321000
NMEA,$GAGSV,1,1,4,127,67,338,41.0,125,42,252,35.7,120,39,64,29.0,118,22,310,22.3*69,1744186321000
NMEA,$GPVTG,90.126,T,,M,13.506,N,25.013,K,A*35,1744186321000
NMEA,$RD_RSSI, 646, 790, 0, 0,1744186321000
NMEA,$GPGGA,081202.000,3959.670434,N,11629.020283,E,1,18,0.924,31.346,M,0,M,,*4C,1744186322000
NMEA,$GPRMC,081202.000,A,3959.670434,N,11629.020283,E,13.005,91.909,090425,,E,A*25,1744186322000
NMEA,$GPGLL,3959.670434,N,11629.020283,E,081202.000,A,A*52,1744186322000
NMEA,$GPGSA,A,3,196,19,11,9,195,20,12,6,,,,,1.659,0.924,1.377*31,1744186322000
NMEA,$BDGSA,A,3,238,222,235,210,229,219,,,,,,,1.659,0.924,1.377*2A,1744186322000
NMEA,$GAGSA,A,3,127,125,120,118,,,,,,,,,1.659,0.924,1.377*2C,1744186322000
NMEA,$GPGSV,4,1,16,196,48,135,39.0,19,53,131,39.5,11,59,307,44.0,9,34,84,14.0*49,1744186322000
NMEA,$GPGSV,4,2,16,195,66,87,33.9,194,1,,30.1,5,11,225,22.1,25,15,313,20.8*75,1744186322000
NMEA,$GPGSV,4,3,16,20,48,235,33.0,17,26,134,28.1,12,35,281,35.7,6,64,30,30.3*74,1744186322000
NMEA,$GPGSV,4,4,16,22,5,179,17.7,4,19,51,0.0,193,1,,0.0,47,1,,0.0*45,1744186322000
NMEA,$BDGSV,2,1,7,238,74,235,42.0,222,40,179,31.2,235,77,49,31.2,210,74,224,38.7*6C,1744186322000
NMEA,$BDGSV,2,2,7,229,23,109,27.2,203,1,,17.5,219,59,88,35.5*70,1744186322000
NMEA,$GAGSV,1,1,4,127,67,338,41.5,125,42,252,34.4,120,39,64,31.1,118,22,310,20.2*65,1744186322000
NMEA,$GPVTG,91.909,T,,M,13.005,N,24.086,K,A*3A,1744186322000
NMEA,$RD_RSSI, 654, 796, 0, 0,1744186322000
NMEA,$GPGGA,081203.000,3959.670561,N,11629.024929,E,1,18,0.924,31.409,M,0,M,,*4F,1744186323000
NMEA,$GPRMC,081203.000,A,3959.670561,N,11629.024929,E,12.042,91.810,090425,,E,A*21,1744186323000
NMEA,$GPGLL,3959.670561,N,11629.024929,E,081203.000,A,A*5D,1744186323000
NMEA,$GPGSA,A,3,196,19,11,9,195,20,12,6,,,,,1.659,0.924,1.377*31,1744186323000
NMEA,$BDGSA,A,3,238,222,235,210,229,219,,,,,,,1.659,0.924,1.377*2A,1744186323000
NMEA,$GAGSA,A,3,127,125,120,118,,,,,,,,,1.659,0.924,1.377*2C,1744186323000
NMEA,$GPGSV,4,1,16,196,48,135,40.5,19,53,131,39.5,11,59,307,43.5,9,34,84,13.8*4F,1744186323000
NMEA,$GPGSV,4,2,16,195,66,87,34.7,194,1,,30.0,5,11,225,22.0,25,15,313,20.5*71,1744186323000
NMEA,$GPGSV,4,3,16,20,48,235,32.5,17,26,134,28.5,12,35,281,38.2,6,64,30,35.5*7F,1744186323000
NMEA,$GPGSV,4,4,16,22,5,179,17.6,4,19,51,0.0,193,1,,0.0,47,1,,0.0*44,1744186323000
NMEA,$BDGSV,2,1,7,238,74,235,42.2,222,40,179,31.0,235,77,49,31.7,210,74,224,38.2*6C,1744186323000
NMEA,$BDGSV,2,2,7,229,23,109,31.5,203,1,,26.7,219,59,88,36.0*76,1744186323000
NMEA,$GAGSV,1,1,4,127,67,338,37.0,125,42,252,31.7,120,39,64,34.0,118,22,310,19.8*63,1744186323000
NMEA,$GPVTG,91.810,T,,M,12.042,N,22.301,K,A*3B,1744186323000
NMEA,$RD_RSSI, 648, 791, 0, 0,1744186323000
NMEA,$GPGGA,081204.000,3959.670877,N,11629.029454,E,1,18,0.924,30.389,M,0,M,,*46,1744186323000
NMEA,$GPRMC,081204.000,A,3959.670877,N,11629.029454,E,10.968,95.478,090425,,E,A*23,1744186324000
NMEA,$GPGLL,3959.670877,N,11629.029454,E,081204.000,A,A*5A,1744186324000
NMEA,$GPGSA,A,3,196,19,11,9,195,20,12,6,,,,,1.659,0.924,1.377*31,1744186324000
NMEA,$BDGSA,A,3,238,222,235,210,229,219,,,,,,,1.659,0.924,1.377*2A,1744186324000
NMEA,$GAGSA,A,3,127,125,120,118,,,,,,,,,1.659,0.924,1.377*2C,1744186324000
NMEA,$GPGSV,4,1,16,196,48,135,37.9,19,53,131,38.2,11,59,307,43.0,9,34,84,14.6*49,1744186324000
NMEA,$GPGSV,4,2,16,195,66,87,35.5,194,1,,28.8,5,11,225,21.7,25,15,313,20.0*72,1744186324000
NMEA,$GPGSV,4,3,16,20,48,235,32.7,17,26,134,32.4,12,35,281,38.2,6,64,30,36.5*74,1744186324000
NMEA,$GPGSV,4,4,16,22,5,179,17.2,4,19,51,0.0,193,1,,0.0,47,1,,0.0*40,1744186324000
NMEA,$BDGSV,2,1,7,238,74,235,42.0,222,40,179,31.0,235,77,49,31.7,210,74,224,37.2*61,1744186324000
NMEA,$BDGSV,2,2,7,229,23,109,33.0,203,1,,24.7,219,59,88,36.2*71,1744186324000
NMEA,$GAGSV,1,1,4,127,67,338,33.7,125,42,252,29.7,120,39,64,34.2,118,22,310,15.3*6C,1744186324000
NMEA,$GPVTG,95.478,T,,M,10.968,N,20.313,K,A*3F,1744186324000
NMEA,$RD_RSSI, 629, 773, 0, 0,1744186324000
NMEA,$GPGGA,081205.000,3959.671039,N,11629.033409,E,1,19,0.886,30.744,M,0,M,,*4A,1744186325000
NMEA,$GPRMC,081205.000,A,3959.671039,N,11629.033409,E,11.515,97.731,090425,,E,A*29,1744186325000
NMEA,$GPGLL,3959.671039,N,11629.033409,E,081205.000,A,A*5B,1744186325000
NMEA,$GPGSA,A,3,196,19,11,9,195,20,17,12,6,,,,1.595,0.886,1.326*39,1744186325000
NMEA,$BDGSA,A,3,238,222,235,210,229,219,,,,,,,1.595,0.886,1.326*24,1744186325000
NMEA,$GAGSA,A,3,127,125,120,118,,,,,,,,,1.595,0.886,1.326*22,1744186325000
NMEA,$GPGSV,4,1,16,196,48,135,33.5,19,53,131,38.0,11,59,307,42.2,9,34,84,15.1*46,1744186325000
NMEA,$GPGSV,4,2,16,195,66,87,36.2,194,1,,32.0,5,11,225,21.7,25,15,313,19.7*78,1744186325000
NMEA,$GPGSV,4,3,16,20,48,235,34.4,17,26,134,33.7,12,35,281,36.0,6,64,30,37.2*79,1744186325000
NMEA,$GPGSV,4,4,16,22,5,179,17.5,4,19,51,0.0,193,1,,0.0,47,1,,0.0*47,1744186325000
NMEA,$BDGSV,2,1,7,238,74,235,42.2,222,40,179,30.7,235,77,49,30.6,210,74,224,36.4*62,1744186325000
NMEA,$BDGSV,2,2,7,229,23,109,34.2,203,1,,25.6,219,59,88,35.5*70,1744186325000
NMEA,$GAGSV,1,1,4,127,67,338,39.2,125,42,252,30.6,120,39,64,33.7,118,22,310,23.7*69,1744186325000
NMEA,$GPVTG,97.731,T,,M,11.515,N,21.326,K,A*33,1744186325000
NMEA,$RD_RSSI, 633, 806, 0, 0,1744186325000
NMEA,$GPGGA,081206.000,3959.670871,N,11629.037644,E,1,19,0.886,31.276,M,0,M,,*46,1744186326000
NMEA,$GPRMC,081206.000,A,3959.670871,N,11629.037644,E,12.152,100.450,090425,,E,A*1F,1744186326000
NMEA,$GPGLL,3959.670871,N,11629.037644,E,081206.000,A,A*52,1744186326000
NMEA,$GPGSA,A,3,196,19,11,9,195,20,17,12,6,,,,1.595,0.886,1.326*39,1744186326000
NMEA,$BDGSA,A,3,238,222,235,210,229,219,,,,,,,1.595,0.886,1.326*24,1744186326000
NMEA,$GAGSA,A,3,127,125,120,118,,,,,,,,,1.595,0.886,1.326*22,1744186326000
NMEA,$GPGSV,4,1,16,196,48,135,29.7,19,53,131,38.0,11,59,307,39.7,9,34,84,16.2*46,1744186326000
NMEA,$GPGSV,4,2,16,195,66,87,35.7,194,1,,29.7,5,11,225,21.5,25,15,313,24.3*7B,1744186326000
NMEA,$GPGSV,4,3,16,20,48,235,37.0,17,26,134,30.7,12,35,281,33.0,6,64,30,36.7*7C,1744186326000
NMEA,$GPGSV,4,4,16,22,5,179,17.2,4,19,51,0.0,193,1,,0.0,47,1,,0.0*40,1744186326000
NMEA,$BDGSV,2,1,7,238,74,235,41.9,222,40,179,30.5,235,77,49,29.6,210,74,224,37.0*65,1744186326000
NMEA,$BDGSV,2,2,7,229,23,109,36.5,203,1,,26.7,219,59,88,33.2*76,1744186326000
NMEA,$GAGSV,1,1,4,127,67,338,42.0,125,42,252,30.1,120,39,64,30.7,118,22,310,27.7*67,1744186326000
NMEA,$GPVTG,100.450,T,,M,12.152,N,22.506,K,A*0B,1744186326000
NMEA,$RD_RSSI, 622, 808, 0, 0,1744186326000
NMEA,$GPGGA,081207.000,3959.670526,N,11629.042120,E,1,17,0.992,31.465,M,0,M,,*41,1744186326000
NMEA,$GPRMC,081207.000,A,3959.670526,N,11629.042120,E,12.644,100.987,090425,,E,A*11,1744186327000
NMEA,$GPGLL,3959.670526,N,11629.042120,E,081207.000,A,A*5B,1744186327000
NMEA,$GPGSA,A,3,196,19,11,195,20,17,6,,,,,,1.798,0.992,1.500*0A,1744186327000
NMEA,$BDGSA,A,3,238,222,235,210,229,219,,,,,,,1.798,0.992,1.500*2D,1744186327000
NMEA,$GAGSA,A,3,127,125,120,118,,,,,,,,,1.798,0.992,1.500*2B,1744186327000
NMEA,$GPGSV,4,1,16,196,48,135,30.8,19,53,131,35.9,11,59,307,41.0,9,34,84,16.6*49,1744186327000
NMEA,$GPGSV,4,2,16,195,66,87,34.9,194,1,,27.5,5,11,225,21.2,25,15,313,23.5*7E,1744186327000
NMEA,$GPGSV,4,3,16,20,48,235,36.5,17,26,134,32.0,12,35,281,39.0,6,64,30,36.2*72,1744186327000
NMEA,$GPGSV,4,4,16,22,5,179,17.2,4,19,51,0.0,193,1,,0.0,47,1,,0.0*40,1744186327000
NMEA,$BDGSV,2,1,7,238,74,235,41.0,222,40,179,30.0,235,77,49,28.7,210,74,224,37.2*6B,1744186327000
NMEA,$BDGSV,2,2,7,229,23,109,37.4,203,1,,27.8,219,59,88,29.1*70,1744186327000
NMEA,$GAGSV,1,1,4,127,67,338,42.9,125,42,252,29.0,120,39,64,27.7,118,22,310,24.7*62,1744186327000
NMEA,$GPVTG,100.987,T,,M,12.644,N,23.417,K,A*0C,1744186327000
NMEA,$RD_RSSI, 633, 764, 0, 0,1744186327000
NMEA,$GPGGA,081208.000,3959.670009,N,11629.046675,E,1,17,0.992,31.476,M,0,M,,*47,1744186328000
NMEA,$GPRMC,081208.000,A,3959.670009,N,11629.046675,E,13.676,104.749,090425,,E,A*1D,1744186328000
NMEA,$GPGLL,3959.670009,N,11629.046675,E,081208.000,A,A*5F,1744186328000
