     3.04           OBSERVATION DATA    M: Mixed            RINEX VERSION / TYPE
RTKCONV demo5 b34k                      20250410 083352 UTC PGM / RUN BY / DATE 
format: RINEX                                               COMMENT             
log: E:\Proj-ES\GNSS-SPP\RTKLIB-py\data\beijing\Íû¾©\rover.oCOMMENT             
  bs                                                        COMMENT             
Geo++                                                       MARKER NAME         
                                                            MARKER NUMBER       
                                                            MARKER TYPE         
                                                            OBSERVER / AGENCY   
unknown             UNISOC              uis7865_6h10_go_a32bREC # / TYPE / VERS 
unknown             uis7865_6h10_go_a32b                    ANT # / TYPE        
 -2181939.4492  4379692.9449  4077514.8036                  APPROX POSITION XYZ 
        0.0000        0.0000        0.0000                  ANTENNA: DELTA H/E/N
G    4 C1C L1C D1C S1C                                      SYS / # / OBS TYPES 
E    4 C1C L1C D1C S1C                                      SYS / # / OBS TYPES 
J    4 C1C L1C D1C S1C                                      SYS / # / OBS TYPES 
C    4 C2I L2I D2I S2I                                      SYS / # / OBS TYPES 
  2025    04    09    08    11   47.7430057     GPS         TIME OF FIRST OBS   
  2025    04    09    08    50   47.0001706     GPS         TIME OF LAST OBS    
G L1C                                                       SYS / PHASE SHIFT   
E L1C  0.00000                                              SYS / PHASE SHIFT   
J L1C                                                       SYS / PHASE SHIFT   
C L2I                                                       SYS / PHASE SHIFT   
 24 R01  1 R02 -4 R03  5 R04  6 R05  1 R06 -4 R07  5 R08  6 GLONASS SLOT / FRQ #
    R09 -2 R10 -5 R11  0 R12 -1 R13 -2 R14 -7 R15  0 R16 -1 GLONASS SLOT / FRQ #
    R17  4 R18 -3 R19  3 R20  2 R21  4 R22 -3 R23  3 R24  2 GLONASS SLOT / FRQ #
 C1C    0.000 C1P    0.000 C2C    0.000 C2P    0.000        GLONASS COD/PHS/BIS 
                                                            END OF HEADER       
> 2025 04 09 08 11 47.7430057  0 15                     
C10  36090533.793   187932879.9851       -170.783          39.000  
C19  22496201.054   117143621.9931        -34.515          28.000  
C29  24644608.543   128330943.7091      -2402.235          36.000  
C35  21629048.371   112628130.0461        -40.558          29.000  
C38  36023477.416   187583699.7541        272.361          42.000  
E24  26966028.057   141707434.0101       1276.932          32.000  
E26  25177169.458   132306918.0881      -1534.161          20.000  
E31  24934284.204   131030548.0921      -1311.619          30.000  
G06  20817608.520   109397270.5661       -631.624          31.000  
G11  21136541.527   111073274.9361       1137.120          43.000  
G12  22393534.429   117678817.0121       -157.131          29.000  
G17  23096781.881   121374407.7831      -2835.840          32.000  
G19  20685644.976   108703797.2741      -2061.954          37.000  
G20  21434066.055   112636777.2841       2202.537          30.000  
G25  23785067.890   124991374.6241       1486.310          26.000  
> 2025 04 09 08 11 48.7429446  0 15                     
C10  36090563.810   187933035.873        -172.717          39.000  
C19  22496208.586   117143642.138         -35.733          28.000  
C29  24645072.059   128333331.860       -2405.204          38.000  
C35  21629063.698   112628156.729         -40.781          29.000  
C38  36023424.090   187583414.231         270.307          41.000  
E24  26965784.963   141706143.243        1276.358          33.000  
E26  25177449.502   132308437.403       -1534.083          28.000  
E31  24934525.275   131031845.305       -1312.448          33.000  
G06  20817730.573   109397887.046        -634.117          31.000  
G11  21136323.615   111072124.742        1134.854          42.000  
G12  22393563.546   117678958.942        -155.881          29.000  
G17  23097318.846   121377229.540       -2836.254          35.000  
G19  20686034.144   108705845.954       -2063.482          36.000  
G20  21433649.381   112634562.054        2199.781          32.000  
G25  23784782.225   124989874.280        1485.816          25.000  
> 2025 04 09 08 11 49.7428835  0 15                     
C10  36090595.138   187933192.253        -171.223          39.000  
C19  22496215.032   117143665.684         -36.632          28.000  
C29  24645531.491   128335721.660       -2403.798          39.000  
C35  21629071.943   112628183.685         -40.617          28.000  
C38  36023371.177   187583129.685         270.970          41.000  
E24  26965541.382   141704853.705        1276.275          34.000  
E26  25177739.551   132309955.682       -1533.233          28.000  
E31  24934770.055   131033143.183       -1311.007          33.000  
G06  20817853.338   109398506.770        -633.101          31.000  
G11  21136105.516   111070975.247        1136.920          41.000  
G12  22393600.271   117679101.425        -159.635          28.000  
G17  23097854.426   121380051.127       -2836.196          35.000  
G19  20686424.324   108707894.592       -2063.322          36.000  
G20  21433230.421   112632348.877        2199.470          31.000  
G25  23784492.776   124988376.042        1485.294          24.000  
> 2025 04 09 08 11 50.7428224  0 15                     
C10  36090626.242   187933349.629        -169.815          38.000  
C19  22496221.852   117143685.704         -35.997          28.000  
C29  24645992.497   128338107.604       -2401.475          40.000  
C35  21629081.761   112628207.447         -40.571          26.000  
C38  36023317.139   187582843.257         273.632          41.000  
E24  26965296.976   141703562.636        1276.909          34.000  
E26  25178032.973   132311473.236       -1532.362          28.000  
E31  24935017.609   131034439.468       -1311.964          33.000  
G06  20817973.779   109399122.793        -631.691          31.000  
G11  21135886.293   111069823.608        1137.768          41.000  
G12  22393632.573   117679246.189        -158.686          29.000  
G17  23098390.080   121382870.212       -2834.895          35.000  
G19  20686814.279   108709942.093       -2061.971          36.000  
G20  21432813.335   112630134.825        2201.989          31.000  
G25  23784205.200   124986875.201        1487.120          23.000  
> 2025 04 09 08 11 51.7427614  0 15                     
C10  36090688.599   187933661.262        -167.726          38.000  
C19  22496260.525   117143864.619         -34.948          27.000  
C29  24646482.957   128340651.707       -2400.395          40.000  
C35  21629118.935   112628391.637         -40.060          26.000  
C38  36023292.256   187582713.002         275.185          41.000  
E24  26965080.526   141702430.353        1277.616          34.000  
E26  25178348.055   132313149.237       -1531.510          28.000  
E31  24935292.818   131035894.603       -1310.708          33.000  
G06  20818122.476   109399899.661        -630.037          30.000  
G11  21135698.023   111068831.282        1137.463          41.000  
G12  22393694.630   117679549.517        -157.451          28.000  
G17  23098956.987   121385848.103       -2833.929          35.000  
G19  20687234.288   108712147.933       -2061.878          36.000  
G20  21432426.303   112628077.929        2202.870          30.000  
G25  23783951.276   124985533.256        1487.981          21.000  
> 2025 04 09 08 11 52.7427003  0 15                     
C10  36090718.840   187933813.693        -168.258          38.000  
C19  22496266.484   117143882.679         -34.071          26.000  
C29  24646942.202   128343036.190       -2399.735          40.000  
C35  21629124.893   112628414.964         -38.989          25.000  
C38  36023238.256   187582423.927         274.844          41.000  
E24  26964834.958   141701138.242        1277.946          34.000  
E26  25178638.816   132314663.469       -1529.797          28.000  
E31  24935540.709   131037187.594       -1309.965          33.000  
G06  20818243.855   109400514.089        -630.404          30.000  
G11  21135479.737   111067678.101        1139.769          41.000  
G12  22393728.769   117679691.662        -157.546          27.000  
G17  23099495.977   121388667.321       -2833.020          35.000  
G19  20687624.581   108714193.159       -2060.612          36.000  
G20  21432008.354   112625861.308        2202.717          30.000  
G25  23783670.932   124984031.017        1488.044          21.000  
> 2025 04 09 08 11 53.7426392  0 15                     
C10  36090747.845   187933962.812        -163.825          39.000  
C19  22496272.105   117143901.759         -32.253          27.000  
C29  24647400.510   128345418.015       -2395.793          39.000  
C35  21629131.114   112628437.420         -36.952          25.000  
C38  36023182.420   187582131.702         279.399          41.000  
E24  26964591.152   141699844.308        1279.743          33.000  
E26  25178929.840   132316176.840       -1527.362          29.000  
E31  24935790.661   131038478.825       -1306.552          33.000  
G06  20818360.699   109401126.947        -628.524          30.000  
G11  21135261.413   111066523.332        1141.530          42.000  
G12  22393757.175   117679832.242        -154.840          30.000  
G17  23100035.228   121391481.471       -2828.772          35.000  
G19  20688015.435   108716237.616       -2058.720          37.000  
G20  21431586.771   112623642.820        2205.342          28.000  
G25  23783391.451   124982528.033        1489.460          21.000  
> 2025 04 09 08 11 54.7425782  0 15                     
C10  36090807.541   187934268.295        -165.163          39.000  
C19  22496305.719   117144073.331         -31.866          31.000  
C29  24647890.408   128347955.296       -2397.325          39.000  
C35  21629165.328   112628614.868         -36.028          28.000  
C38  36023156.675   187581993.642         277.569          41.000  
E24  26964378.037   141698705.634        1280.734          34.000  
E26  25179253.953   132317845.065       -1526.455          29.000  
E31  24936066.508   131039928.666       -1307.873          32.000  
G06  20818505.836   109401897.703        -628.234          33.000  
G11  21135072.881   111065524.000        1142.328          43.000  
G12  22393812.674   117680128.471        -155.673          32.000  
G17  23100604.872   121394451.323       -2829.763          35.000  
G19  20688433.083   108718439.222       -2059.315          38.000  
G20  21431190.183   112621579.416        2206.157          28.000  
G25  23783146.858   124981180.133        1490.845          21.000  
> 2025 04 09 08 11 55.7425171  0 15                     
C10  36090837.633   187934417.316        -163.160          39.000  
C19  22496309.729   117144089.424         -30.993          31.000  
C29  24648348.603   128350334.908       -2395.084          39.000  
C35  21629171.136   112628633.063         -35.799          31.000  
C38  36023101.026   187581700.622         279.730          41.000  
E24  26964136.517   141697408.808        1281.904          35.000  
E26  25179555.357   132319354.604       -1525.405          31.000  
E31  24936317.547   131041218.579       -1307.137          32.000  
G06  20818618.071   109402508.473        -626.073          32.000  
G11  21134854.745   111064366.851        1141.964          43.000  
G12  22393842.465   117680266.636        -154.837          32.000  
G17  23101142.212   121397263.910       -2828.690          35.000  
G19  20688823.825   108720480.140       -2058.442          37.000  
G20  21430763.991   112619357.311        2208.006          28.000  
G25  23782868.463   124979673.715        1491.716          21.000  
> 2025 04 09 08 11 56.7424560  0 15                     
C10  36090867.650   187934566.882        -163.829          39.000  
C19  22496312.464   117144106.993         -30.822          30.000  
C29  24648805.824   128352717.978       -2396.347          39.000  
C35  21629176.270   112628656.244         -35.805          31.000  
C38  36023045.002   187581408.829         279.465          42.000  
E24  26963891.624   141696115.144        1281.204          35.000  
E26  25179843.195   132320867.588       -1525.717          31.000  
E31  24936568.510   131042513.769       -1307.263          33.000  
G06  20818731.430   109403121.133        -626.317          31.000  
G11  21134636.233   111063212.375        1142.469          43.000  
G12  22393868.885   117680408.361        -154.987          32.000  
G17  23101682.476   121400079.888       -2829.933          36.000  
G19  20689214.792   108722525.707       -2058.951          37.000  
G20  21430336.824   112617138.658        2205.172          27.000  
G25  23782582.798   124978169.848        1491.307          20.000  
> 2025 04 09 08 11 57.7423950  0 15                     
C10  36090928.358   187934874.117        -164.340          39.000  
C19  22496345.592   117144283.246         -32.889          30.000  
C29  24649295.235   128355256.988       -2396.593          39.000  
C35  21629212.096   112628835.752         -35.654          32.000  
C38  36023020.569   187581274.601         278.503          42.000  
E24  26963679.221   141694979.692        1281.393          36.000  
E26  25180159.026   132322538.698       -1525.552          31.000  
E31  24936850.165   131043965.405       -1307.433          33.000  
G06  20818877.578   109403891.579        -626.614          31.000  
G11  21134447.814   111062215.372        1142.269          43.000  
G12  22393927.494   117680709.340        -157.247          32.000  
G17  23102251.332   121403054.462       -2829.388          36.000  
G19  20689633.752   108724728.517       -2058.183          37.000  
G20  21429938.250   112615079.597        2204.945          26.000  
G25  23782329.623   124976824.789        1490.384          22.000  
> 2025 04 09 08 11 58.7423339  0 15                     
C10  36090958.075   187935023.578        -164.673          39.000  
C19  22496348.927   117144301.599         -33.185          30.000  
C29  24649753.955   128357638.465       -2397.346          39.000  
C35  21629218.129   112628855.744         -35.599          32.000  
C38  36022963.946   187580981.075         278.141          41.000  
E24  26963433.728   141693685.374        1280.738          35.000  
E26  25180440.569   132324048.843       -1525.005          32.000  
E31  24937099.330   131045257.045       -1307.133          33.000  
G06  20818994.235   109404502.493        -626.488          32.000  
G11  21134229.303   111061058.253        1143.046          43.000  
G12  22393959.010   117680850.246        -156.468          32.000  
G17  23102788.297   121405868.435       -2830.163          36.000  
G19  20690022.021   108726773.020       -2058.909          37.000  
G20  21429510.484   112612860.917        2204.753          26.000  
G25  23782046.057   124975321.433        1489.066          22.000  
> 2025 04 09 08 11 59.7422728  0 15                     
C10  36090988.429   187935169.973        -162.911          39.000  
C19  22496352.000   117144318.365         -32.832          30.000  
C29  24650212.413   128360018.205       -2396.078          38.000  
C35  21629221.202   112628874.109         -35.180          31.000  
C38  36022907.960   187580686.222         280.588          41.000  
E24  26963188.573   141692389.675        1280.709          35.000  
E26  25180731.442   132325556.041       -1524.189          32.000  
E31  24937351.831   131046548.339       -1306.169          33.000  
G06  20819111.829   109405112.131        -625.909          32.000  
G11  21134009.630   111059900.507        1143.197          43.000  
G12  22393989.064   117680989.400        -155.416          31.000  
G17  23103321.403   121408680.886       -2827.892          37.000  
G19  20690410.627   108728815.935       -2058.451          37.000  
G20  21429085.753   112610640.289        2205.115          27.000  
G25  23781681.285   124973817.792        1488.679          24.000  
> 2025 04 09 08 12 00.7422118  0 15                     
C10  36091048.724   187935474.432        -162.798          39.000  
C19  22496386.213   117144490.861         -32.800          30.000  
C29  24650698.714   128362555.657       -2395.013          38.000  
C35  21629254.516   112629050.243         -35.127          31.000  
C38  36022882.815   187580548.249         280.472          42.000  
E24  26962974.559   141691251.725        1281.656          36.000  
E26  25181048.360   132327223.550       -1524.507          33.000  
E31  24937630.675   131047997.666       -1307.009          33.000  
G06  20819259.064   109405879.165        -626.494          33.000  
G11  21133819.898   111058900.214        1142.863          42.000  
G12  22394044.263   117681285.657        -154.027          29.000  
G17  23103883.852   121411651.346       -2828.500          36.000  
G19  20690830.673   108731015.968       -2059.749          38.000  
G20  21428691.863   112608576.954        2207.889          27.000  
G25  23781278.401   124971461.014        1487.999          24.000  
> 2025 04 09 08 12 01.7421507  0 15                     
C10  36091078.329   187935620.855        -162.240          39.000  
C19  22496387.338   117144510.331         -32.737          30.000  
C29  24651156.122   128364934.219       -2394.369          38.000  
C35  21629257.439   112629073.286         -34.665          31.000  
C38  36022827.278   187580254.006         281.100          41.000  
E24  26962727.155   141689957.783        1280.732          36.000  
E26  25181337.285   132328733.451       -1524.086          34.000  
E31  24937876.130   131049289.637       -1306.061          33.000  
G06  20819376.808   109406494.096        -627.241          33.000  
G11  21133601.275   111057744.070        1143.128          43.000  
G12  22394071.769   117681427.742        -156.489          30.000  
G17  23104418.307   121414466.935       -2828.138          36.000  
G19  20691220.928   108733061.057       -2058.930          38.000  
G20  21428269.380   112606357.199        2205.349          28.000  
G25  23781010.312   124969959.976        1490.438          24.000  
> 2025 04 09 08 12 01.7421507  0 15                     
C10  36091078.329   187935620.855        -162.240          39.000  
C19  22496387.338   117144510.331         -32.737          30.000  
C29  24651156.122   128364934.219       -2394.369          38.000  
C35  21629257.439   112629073.286         -34.665          31.000  
C38  36022827.278   187580254.006         281.100          41.000  
E24  26962727.155   141689957.783        1280.732          36.000  
E26  25181337.285   132328733.451       -1524.086          34.000  
E31  24937876.130   131049289.637       -1306.061          33.000  
G06  20819376.808   109406494.096        -627.241          33.000  
G11  21133601.275   111057744.070        1143.128          43.000  
G12  22394071.769   117681427.742        -156.489          30.000  
G17  23104418.307   121414466.935       -2828.138          36.000  
G19  20691220.928   108733061.057       -2058.930          38.000  
G20  21428269.380   112606357.199        2205.349          28.000  
G25  23781010.312   124969959.976        1490.438          24.000  
> 2025 04 09 08 12 02.7420897  0 16                     
C10  36091138.737   187935925.790        -163.789          40.000  
C19  22496422.563   117144683.281         -33.364          31.000  
C22  23278283.992   121216133.1111       2918.988          37.000  
C29  24651641.636   128367471.084       -2395.095          38.000  
C35  21629289.967   112629248.036         -35.927          32.000  
C38  36022801.946   187580115.800         279.410          41.000  
E24  26962511.754   141688821.356        1279.255          35.000  
E26  25181649.220   132330400.507       -1523.966          33.000  
E31  24938146.993   131050740.661       -1309.146          34.000  
G06  20819525.055   109407261.128        -625.892          33.000  
G11  21133412.555   111056744.649        1141.630          43.000  
G12  22394126.182   117681727.770        -159.246          31.000  
G17  23104981.467   121417436.131       -2829.329          36.000  
G19  20691642.586   108735262.799       -2059.852          38.000  
G20  21427882.798   112604295.625        2203.423          29.000  
G25  23780769.129   124968612.927        1487.707          24.000  
> 2025 04 09 08 12 03.7420286  0 16                     
C10  36091167.405   187936071.100        -162.529          39.000  
C19  22496426.048   117144699.169         -31.132          31.000  
C22  23277722.968   121213197.855        2920.001          36.000  
C29  24652097.208   128369845.378       -2388.839          37.000  
C35  21629299.148   112629267.198         -34.692          31.000  
C38  36022747.571   187579819.433         280.466          42.000  
E24  26962264.013   141687526.626        1278.468          34.000  
E26  25181939.006   132331903.355       -1521.373          34.000  
E31  24938396.307   131052034.199       -1310.619          32.000  
G06  20819643.361   109407871.311        -626.136          32.000  
G11  21133193.894   111055587.158        1140.645          43.000  
G12  22394150.053   117681870.674        -162.244          32.000  
G17  23105518.582   121420247.102       -2824.906          37.000  
G19  20692034.902   108737304.304       -2057.941          39.000  
G20  21427468.073   112602076.854        2200.578          32.000  
G25  23780495.006   124967108.802        1489.334          23.000  
> 2025 04 09 08 12 05.6419126  0 17                     
C10  36091254.195   187936506.032        -171.690          39.000  
C19  22496461.874   117144869.432         -27.573          29.000  
C22  23276684.337   121207773.146        2913.593          36.000  
C29  24652992.838   128374488.277       -2377.219          35.000  
C35  21629343.367   112629446.311         -34.660          34.000  
C38  36022671.573   187579414.146         270.429          41.000  
E24  26961836.359   141685234.891        1263.381          34.000  
E26  25182514.458   132334895.078       -1511.505          31.000  
E31  24938895.612   131054661.663       -1328.358          34.000  
E33  23619092.293   124119167.5041        205.391          36.000  
G06  20819894.737   109409174.975        -626.052          28.000  
G11  21132807.912   111053548.788        1129.833          42.000  
G12  22394233.545   117682314.235        -183.209          31.000  
G17  23106565.907   121425723.280       -2819.480          35.000  
G19  20692804.919   108741327.501       -2054.701          38.000  
G20  21426707.949   112598027.158        2185.647          32.000  
G25  23779993.903   124964710.9341       1485.081          19.000  
> 2025 04 09 08 12 06.5418577  0 17                     
C10  36091308.382   187936788.853        -175.040          38.000  
C19  22496490.878   117145016.375         -21.362          29.000  
C22  23276206.393   121205279.839        2911.832          36.000  
C29  24653428.362   128376751.449       -2370.147          34.000  
C35  21629374.171   112629604.224         -33.181          34.000  
C38  36022651.412   187579299.567         268.188          41.000  
E24  26961637.822   141684233.067        1252.005          33.000  
E26  25182796.188   132336375.064       -1504.074          32.000  
E31  24939150.660   131055991.050       -1335.163          32.000  
E33  23619083.224   124119113.298         203.960          35.000  
G06  20820028.369   109409864.642        -621.223          30.000  
G11  21132640.253   111052662.903        1126.534          42.000  
G12  22394289.531   117682608.726        -187.823          30.000  
G17  23107073.381   121428386.474       -2813.112          34.000  
G19  20693182.583   108743301.691       -2051.902          37.000  
G20  21426361.913   112596191.947        2180.070          31.000  
G25  23779771.981   124963503.4101       1485.260          19.000  
> 2025 04 09 08 12 07.4418027  0 17                     
C10  36091335.064   187936917.851        -172.643          38.000  
C19  22496491.478   117145009.944         -25.545          29.000  
C22  23275697.945   121202632.870        2913.136          37.000  
C29  24653836.079   128378857.937       -2373.143          33.000  
C35  21629375.670   112629607.347         -35.039          33.000  
C38  36022599.848   187579032.002         269.320          40.000  
E24  26961424.669   141683079.248        1254.816          34.000  
E26  25183050.412   132337700.770       -1504.664          32.000  
E31  24939372.806   131057168.169       -1335.371          31.000  
E33  23619041.553   124118903.911         203.689          36.000  
G06  20820131.498   109410394.964        -621.984          33.000  
G11  21132443.889   111051622.974        1127.988          42.000  
G12  22394316.212   117682752.406        -189.471          27.000  
G17  23107551.250   121430890.264       -2816.182          32.000  
G19  20693530.342   108745120.670       -2053.306          37.000  
G20  21425986.873   112594204.350        2180.428          30.000  
G25  23779519.856   124962140.4261       1484.601          19.000  
> 2025 04 09 08 12 08.3417477  0 17                     
C10  36091360.846   187937044.242        -170.830          38.000  
C19  22496491.478   117145005.697         -30.467          28.000  
C22  23275191.295   121199983.029        2912.997          37.000  
C29  24654238.101   128380966.513       -2377.034          31.000  
C35  21629377.469   112629610.250         -35.142          33.000  
C38  36022548.284   187578760.501         271.184          40.000  
E24  26961201.923   141681918.957        1257.781          35.000  
E26  25183303.137   132339027.609       -1506.579          33.000  
E31  24939597.351   131058340.248       -1332.802          32.000  
E33  23619000.181   124118691.814         204.514          37.000  
G06  20820234.327   109410925.845        -622.645          31.000  
G11  21132245.426   111050578.524        1129.557          42.000  
G12  22394343.494   117682891.366        -187.056          30.000  
G17  23108029.719   121433398.058       -2819.688          34.000  
G19  20693876.902   108746940.582       -2054.339          38.000  
G20  21425609.734   112592211.154        2184.780          33.000  
G25  23779268.030   124960776.4481       1484.243          19.000  
> 2025 04 09 08 12 09.2416928  0 17                     
C10  36091417.169   187937324.774        -172.603          39.000  
C19  22496520.221   117145158.260         -26.833          28.000  
C22  23274712.489   121197487.603        2911.966          38.000  
C29  24654675.761   128383230.542       -2375.395          29.000  
C35  21629408.909   112629768.355         -33.311          33.000  
C38  36022526.661   187578642.629         270.242          40.000  
E24  26961012.117   141680914.573        1257.407          34.000  
E26  25183585.804   132340509.030       -1504.379          32.000  
E31  24939853.936   131059666.312       -1335.205          32.000  
E33  23618989.951   124118634.641         204.802          35.000  
G06  20820366.797   109411613.451        -622.778          29.000  
G11  21132077.205   111049690.059        1126.565          42.000  
G12  22394399.218   117683186.545        -187.089          32.000  
G17  23108538.729   121436060.752       -2814.701          35.000  
G19  20694254.303   108748914.997       -2052.965          38.000  
G20  21425261.038   112590373.158        2181.057          33.000  
G25  23779043.748   124959568.5051       1484.227          19.000  
> 2025 04 09 08 12 10.1416378  0 17                     
C10  36091441.977   187937454.360        -173.111          38.000  
C19  22496521.045   117145152.962         -18.455          29.000  
C22  23274203.067   121194841.756        2912.631          38.000  
C29  24655086.701   128385339.115       -2369.754          25.000  
C35  21629409.734   112629770.662         -31.729          32.000  
C38  36022476.521   187578375.501         268.327          41.000  
E24  26960789.896   141679760.230        1253.341          32.000  
E26  25183835.756   132341830.322       -1496.857          30.000  
E31  24940079.605   131060846.550       -1340.556          32.000  
E33  23618953.002   124118424.817         205.711          35.000  
G06  20820469.851   109412146.346        -621.608          25.000  
G11  21131880.166   111048650.814        1126.532          42.000  
G12  22394429.122   117683334.772        -197.278          30.000  
G17  23109016.823   121438564.873       -2809.402          33.000  
G19  20694601.988   108750734.346       -2049.268          37.000  
G20  21424884.424   112588387.190        2175.477          31.000  
G25  23778788.250   124958207.5031       1483.699          19.000  
> 2025 04 09 08 12 11.0415829  0 18                     
C10  36091497.551   187937736.687        -176.669          37.000  
C19  22496552.935   117145293.040         -18.902          27.000  
C22  23273726.809   121192348.249        2909.949          39.000  
C29  24655524.211   128387595.334       -2364.531          22.000  
C35  21629440.725   112629923.146         -30.818          32.000  
C38  36022455.948   187578260.850         266.553          41.000  
E24  26960607.435   141678761.549        1251.542          31.000  
E26  25184114.375   132343298.685       -1493.128          30.000  
E31  24940332.742   131062181.344       -1344.981          31.000  
E33  23618942.921   124118366.727         204.794          36.000  
G06  20820600.373   109412829.806        -618.043          28.000  
G09  22186661.369   116591691.9521        629.071          34.000  
G11  21131712.695   111047765.797        1121.610          42.000  
G12  22394484.996   117683638.052        -196.276          27.000  
G17  23109524.484   121441216.894       -2802.869          28.000  
G19  20694978.340   108752703.812       -2050.638          39.000  
G20  21424536.477   112586558.475        2170.217          34.000  
G25  23778568.614   124956998.583        1485.885          23.000  
> 2025 04 09 08 12 11.9995243  0 19                     
C10  36091507.669   187937787.328        -174.419          36.000  
C19  22496534.873   117145195.267         -20.152          28.000  
C22  23273171.519   121189446.936        2908.223          39.000  
C29  24655942.646   128389742.334       -2361.903          24.000  
C35  21629428.059   112630106.905         -31.245          31.000  
C38  36022386.920   187577890.620         265.970          41.000  
E24  26960359.432   141677447.750        1249.314          32.000  
E26  25184368.824   132344607.324       -1489.766          31.000  
E31  24940556.312   131063354.714       -1345.865          30.000  
E33  23618883.787   124118054.373         205.196          35.000  
G06  20820692.035   109413303.859        -617.039          31.000  
G09  22186526.987   116590974.908         626.535          31.000  
G11  21131486.876   111046574.137        1121.843          42.000  
G12  22394496.313   117683706.156        -205.903          27.000  
G17  23110017.268   121443781.436       -2798.418          23.000  
G19  20695331.120   108754551.067       -2050.673          40.000  
G20  21424120.590   112584362.803        2168.138          34.000  
G25  23778289.133   124955752.690        1490.327          22.000  
J03  39194633.020   205969186.0641        352.604          34.000  
> 2025 04 09 08 12 12.9994633  0 19                     
C10  36091570.288   187938108.106        -179.194          36.000  
C19  22496566.913   117145357.424         -20.252          29.000  
C22  23272641.448   121186683.724        2907.865          38.000  
C29  24656429.472   128392246.998       -2375.934          28.000  
C35  21629460.399   112630281.785         -32.194          31.000  
C38  36022364.698   187577770.304         263.653          41.000  
E24  26960154.636   141676346.734        1244.386          28.000  
E26  25184683.269   132346241.181       -1491.758          29.000  
E31  24940843.776   131064847.819       -1349.663          30.000  
E33  23618873.557   124117996.320         202.491          36.000  
G06  20820839.795   109414066.401        -617.467          33.000  
G09  22186436.412   116590494.495         624.086          27.000  
G11  21131302.766   111045597.899        1119.051          43.000  
G12  22394563.129   117684048.815        -149.152          25.000  
G17  23110583.239   121446722.010       -2796.379          23.000  
G19  20695750.493   108756744.991       -2049.308          40.000  
G20  21423736.219   112582338.471        2167.153          33.000  
G25  23778037.570   124954406.448        1491.703          21.000  
J03  39194594.309   205968978.012         352.705          34.000  
> 2025 04 09 08 12 14.0004021  0 19                     
C10  36091592.473   187938211.711        -179.173          37.000  
C19  22496554.622   117145302.212         -20.675          30.000  
C22  23272069.144   121183697.685        2909.397          38.000  
C29  24656879.160   128394839.640       -2380.209          29.000  
C35  21629453.204   112630239.428         -35.012          31.000  
C38  36022299.943   187577432.685         263.224          41.000  
E24  26959903.410   141675027.603        1239.285          22.000  
E26  25184953.982   132347660.598       -1498.069          24.000  
E31  24941092.304   131066124.624       -1353.030          32.000  
E33  23618823.491   124117720.573         200.314          38.000  
G06  20820943.823   109414608.242        -620.823          35.000  
G09  22186306.302   116589797.350         618.878          24.000  
G11  21131076.722   111044403.132        1117.113          43.000  
G12  22394586.513   117684119.624        -143.900          27.000  
G17  23111108.175   121449449.007       -2824.828          30.000  
G19  20696127.032   108758720.860       -2050.090          39.000  
G20  21423311.413   112580091.961        2181.327          29.000  
G25  23777745.872   124952837.0451       1493.210          17.000  
J03  39194513.665   205968549.067         353.012          32.000  
> 2025 04 09 08 12 15.0003411  0 19                     
C10  36091655.692   187938534.232        -178.841          38.000  
C19  22496586.962   117145467.433         -21.231          32.000  
C22  23271542.072   121180932.654        2910.369          34.000  
C29  24657360.589   128397364.957       -2384.441          25.000  
C35  21629487.043   112630418.253         -35.643          32.000  
C38  36022278.321   187577313.360         263.456          41.000  
E24  26959699.214   141673933.6091       1238.728          17.000  
E26  25185266.028   132349303.897       -1498.738          20.000  
E31  24941376.170   131067622.533       -1353.342          35.000  
E33  23618812.661   124117665.978         199.825          38.000  
G06  20821091.583   109415374.532        -621.056          36.000  
G09  22186219.325   116589324.368         617.087          20.000  
G11  21130892.912   111043431.595        1115.697          43.000  
G12  22394651.231   117684685.656        -138.843          25.000  
G17  23111686.138   121452729.748       -2835.754          32.000  
G19  20696546.104   108760914.395       -2049.777          40.000  
G20  21422926.741   112578062.235        2168.142          31.000  
G25  23777497.606   124951488.3851       1493.974          16.000  
J03  39194475.554   205968343.563         350.038          31.000  
> 2025 04 09 08 12 16.0002800  0 19                     
C10  36091688.444   187938696.291        -176.921          39.000  
C19  22496587.337   117145471.303         -19.501          33.000  
C22  23270995.325   121178004.698        2919.630          30.000  
C29  24657820.246   128399734.587       -2386.278          24.000  
C35  21629492.514   112630436.874         -34.665          32.000  
C38  36022225.632   187577034.252         264.745          41.000  
E24  26959456.157   141672679.9031       1238.881          12.000  
E26  25185554.204   132350783.8451      -1496.291          19.000  
E31  24941630.768   131068958.059       -1351.721          36.000  
E33  23618773.463   124117450.928         199.891          39.000  
G06  20821207.378   109415977.565        -619.855          36.000  
G09  22186099.783   116588693.9871        613.276          15.000  
G11  21130678.636   111042299.315        1118.954          42.000  
G12  22394692.077   117684815.186        -205.949          27.000  
G17  23112229.137   121455550.719       -2835.384          33.000  
G19  20696935.010   108762946.533       -2048.944          41.000  
G20  21422513.403   112575880.842        2166.932          33.000  
G25  23777222.172   124949978.6801       1495.489          16.000  
J03  39194405.478   205967976.864         354.270          31.000  
> 2025 04 09 08 12 17.0002189  0 18                     
C10  36091721.646   187938859.390        -176.888          39.000  
C19  22496588.761   117145478.431         -21.928          32.000  
C22  23270445.431   121175075.306        2912.128          29.000  
C29  24658279.154   128402108.294       -2387.055          23.000  
C35  21629495.437   112630458.145         -35.287          32.000  
C38  36022173.993   187576756.523         265.795          42.000  
E24  26959221.644   141671428.8241       1237.585          12.000  
E26  25185833.235   132352266.724       -1494.671          24.000  
E31  24941885.517   131070295.041       -1351.248          36.000  
E33  23618734.415   124117237.880         200.107          40.000  
G06  20821323.623   109416584.645        -622.515          36.000  
G09  22185989.384   116588072.5031        608.157          14.000  
G11  21130464.209   111041168.086        1118.474          43.000  
G17  23112771.986   121458372.134       -2837.351          31.000  
G19  20697323.766   108764982.550       -2050.718          41.000  
G20  21422099.014   112573699.071        2173.533          34.000  
G25  23776945.388   124948469.0591       1498.132          16.000  
J03  39194336.450   205967609.207         354.794          30.000  
> 2025 04 09 08 12 18.0001579  0 19                     
C10  36091783.628   187939176.302        -175.810          38.000  
C19  22496622.862   117145643.774         -28.213          33.000  
C22  23269927.614   121172618.847        2893.283          31.000  
C29  24658767.141   128404636.023       -2386.926          22.000  
C35  21629531.937   112630634.999         -39.691          31.000  
C38  36022151.733   187576631.569         265.797          42.000  
E24  26959018.910   141670600.273        1240.790          21.000  
E26  25186145.844   132353902.029       -1495.504          23.000  
E31  24942169.945   131071785.653       -1347.989          37.000  
E33  23618726.546   124117180.398         200.518          41.000  
G06  20821471.046   109417351.005        -626.311          33.000  
G09  22185908.365   116587608.6911        605.828           9.000  
G11  21130280.062   111040191.511        1119.333          43.000  
G12  22394802.251   117685355.8351       -203.534          31.000  
G17  23113345.414   121461351.982       -2841.618          29.000  
G19  20697742.801   108767176.481       -2054.112          41.000  
G20  21421714.306   112571663.260        2181.438          34.000  
G25  23776703.081   124947417.438        1502.285          22.000  
J03  39194298.302   205967401.213         346.041          32.000  
> 2025 04 09 08 12 19.0000968  0 19                     
C10  36091815.144   187939337.526        -175.247          38.000  
C19  22496628.895   117145657.983         -29.057          35.000  
C22  23269375.734   121169711.216        2907.626          30.000  
C29  24659211.171   128406988.587       -2368.438          23.000  
C35  21629539.169   112630657.237         -36.470          32.000  
C38  36022099.307   187576351.366         267.691          42.000  
E24  26958791.405   141669346.091        1240.771          22.000  
E26  25186429.185   132355384.051       -1499.513          29.000  
E31  24942426.005   131073116.363       -1346.560          35.000  
E33  23618687.311   124116966.582         200.330          41.000  
G06  20821590.700   109417964.466        -631.811          27.000  
G09  22185791.484   116586989.8271        604.384           9.000  
G11  21130065.448   111039057.250        1122.519          43.000  
G12  22394840.662   117685544.992        -202.237          33.000  
G17  23113888.675   121464183.455       -2848.737          26.000  
G19  20698132.269   108769216.997       -2054.244          40.000  
G20  21421299.730   112569469.323        2177.579          34.000  
G25  23776432.706   124945900.478        1503.704          21.000  
J03  39194232.085   205967039.694         349.376          33.000  
> 2025 04 09 08 12 20.0000357  0 19                     
C10  36091846.884   187939494.267        -173.338          38.000  
C19  22496630.357   117145670.496         -30.969          35.000  
C22  23268818.082   121166786.656        2908.556          31.000  
C29  24659644.034   128409340.771       -2369.762          27.000  
C35  21629545.127   112630677.460         -37.038          31.000  
C38  36022046.506   187576068.013         268.407          42.000  
E24  26958550.034   141668088.7711       1243.769          20.000  
E26  25186705.257   132356869.516       -1502.265          31.000  
E31  24942680.492   131074442.772       -1342.156          34.000  
E33  23618646.201   124116750.190         200.665          41.000  
G06  20821708.481   109418579.058        -627.262          30.000  
G09  22185674.227   116586364.0131        609.400          14.000  
G11  21129850.759   111037919.416        1121.301          44.000  
G12  22394877.199   117685728.895        -199.950          35.000  
G17  23114430.962   121467012.964       -2835.171          28.000  
G19  20698520.163   108771253.538       -2055.425          39.000  
G20  21420885.380   112567278.737        2176.716          33.000  
G25  23776154.161   124944380.911        1503.548          20.000  
J03  39194163.695   205966674.507         348.382          33.000  
> 2025 04 09 08 12 20.9999747  0 18                     
C10  36091909.878   187939809.595        -173.544          38.000  
C19  22496665.170   117145842.218         -30.300          36.000  
C22  23268287.487   121164023.769        2901.681          31.000  
C29  24660115.045   128411852.971       -2372.424          31.000  
C35  21629579.941   112630858.305         -39.235          31.000  
C38  36022022.860   187575941.861         268.342          42.000  
E24  26958340.817   141666988.3511       1244.876          19.000  
E26  25187026.372   132358516.221       -1504.379          34.000  
E31  24942962.334   131075922.431       -1340.051          31.000  
E33  23618637.845   124116693.358         200.391          37.000  
G06  20821854.518   109419347.509        -625.871          35.000  
G09  22185588.224   116585899.2431        607.395          13.000  
G11  21129665.524   111036941.031        1121.978          43.000  
G12  22394942.591   117686070.732        -197.997          38.000  
G19  20698939.910   108773453.117       -2057.289          39.000  
G20  21420499.284   112565242.940        2182.089          32.000  
G25  23775910.767   124943022.955        1500.255          20.000  
J03  39194126.259   205966470.951         346.741          34.000  
> 2025 04 09 08 12 21.9999136  0 19                     
C10  36091941.169   187939968.157        -173.018          37.000  
C19  22496668.580   117145860.422         -31.576          36.000  
C22  23267725.489   121161108.554        2903.543          31.000  
C29  24660566.345   128414211.941       -2372.752          33.000  
C35  21629587.548   112630881.204         -38.944          31.000  
C38  36021970.209   187575658.967         270.477          42.000  
E24  26958112.787   141665729.5551       1246.105          15.000  
E26  25187305.591   132360005.929       -1508.382          34.000  
E31  24943218.469   131077246.531       -1338.949          29.000  
E33  23618596.286   124116478.836         201.486          33.000  
G06  20821969.750   109419959.427        -628.592          36.000  
G09  22185472.917   116585279.3651        605.464          14.000  
G11  21129450.686   111035805.597        1121.799          43.000  
G12  22394978.679   117686254.194        -195.611          38.000  
G17  23115527.453   121472811.2491      -2838.742          32.000  
G19  20699329.452   108775495.852       -2057.653          38.000  
G20  21420080.887   112563047.146        2181.803          32.000  
G25  23775634.471   124941801.8941       1498.841          20.000  
J03  39194059.217   205966110.554         346.274          35.000  
> 2025 04 09 08 12 22.9998525  0 19                     
C10  36091971.598   187940124.984        -173.370          36.000  
C19  22496673.227   117145875.939         -33.130          35.000  
C22  23267152.735   121158186.065        2909.858          30.000  
C29  24661017.983   128416568.669       -2373.007          34.000  
C35  21629592.495   112630906.834         -40.893          30.000  
C38  36021917.296   187575374.731         269.341          42.000  
E24  26957873.103   141664467.527        1250.088          23.000  
E26  25187593.542   132361500.785       -1508.279          33.000  
E31  24943471.044   131078567.290       -1338.751          30.000  
E33  23618553.865   124116264.090         199.701          39.000  
G06  20822088.018   109420573.623        -630.172          37.000  
G09  22185355.848   116584660.4501        603.042          15.000  
G11  21129235.585   111034670.282        1120.492          42.000  
G12  22395016.902   117686427.460        -203.220          36.000  
G17  23115991.982   121475357.139       -2842.468          33.000  
G19  20699720.532   108777537.561       -2058.312          38.000  
G20  21419664.625   112560852.339        2178.701          34.000  
G25  23775360.011   124940289.6771       1496.349          19.000  
J03  39193991.314   205965750.341         345.769          36.000  
> 2025 04 09 08 12 23.9997915  0 19                     
C10  36092034.217   187940440.490        -173.418          37.000  
C19  22496707.966   117146053.366         -35.681          33.000  
C22  23266622.665   121155422.433        2895.044          30.000  
C29  24661500.311   128419084.444       -2372.102          36.000  
C35  21629629.332   112631090.298         -41.716          29.000  
C38  36021893.275   187575248.658         268.003          41.000  
E24  26957671.005   141663362.171        1249.049          27.000  
E26  25187906.787   132363152.094       -1507.506          30.000  
E31  24943759.407   131080340.326       -1339.409          30.000  
E33  23618547.232   124116210.543         198.214          42.000  
G06  20822236.978   109421347.675        -630.412          36.000  
G09  22185276.365   116584204.7121        580.926          16.000  
G11  21129051.175   111033694.267        1119.775          39.000  
G12  22395084.318   117686771.640        -193.234          33.000  
G17  23116568.145   121478343.394       -2841.560          30.000  
G19  20700141.103   108779738.192       -2056.666          38.000  
G20  21419278.754   112558818.574        2178.143          37.000  
G25  23775113.244   124938939.365        1491.190          24.000  
J03  39193953.803   205965548.317         347.118          35.000  
> 2025 04 09 08 12 24.9997304  0 19                     
C10  36092064.084   187940596.328        -171.593          37.000  
C19  22496713.549   117146071.896         -36.459          29.000  
C22  23266061.940   121152511.989        2894.566          30.000  
C29  24661953.485   128421436.068       -2366.225          37.000  
C35  21629635.515   112631115.517         -41.040          28.000  
C38  36021839.799   187574964.007         270.747          41.000  
E24  26957443.051   141662096.776        1248.979          24.000  
E26  25188190.279   132364641.222       -1505.587          27.000  
E31  24944009.921   131081662.109       -1339.588          29.000  
E33  23618508.747   124115997.544         197.208          42.000  
G06  20822354.384   109421958.908        -629.412          36.000  
G09  22185165.330   116583608.5911        578.986          16.000  
G11  21128836.111   111032559.720        1117.618          41.000  
G12  22395130.074   117687202.841        -162.013          39.000  
G17  23117114.555   121481169.500       -2844.678          32.000  
G19  20700531.620   108781781.507       -2060.950          35.000  
G20  21418864.029   112556889.694        2176.942          36.000  
G25  23774844.518   124937434.100        1487.257          23.000  
J03  39193885.638   205965183.828         349.163          34.000  
> 2025 04 09 08 12 25.9996693  0 18                     
C10  36092096.611   187940758.141        -174.083          37.000  
C19  22496721.794   117146096.675         -36.028          25.000  
C22  23265505.676   121149605.893        2892.984          27.000  
C29  24662406.321   128423791.795       -2367.573          37.000  
C35  21629645.258   112631142.098         -39.889          27.000  
C38  36021786.286   187574683.771         268.026          40.000  
E24  26957208.463   141660836.0741       1249.200          20.000  
E26  25188475.531   132366135.839       -1506.524          30.000  
E31  24944264.295   131082988.337       -1343.378          30.000  
E33  23618470.223   124115790.277         195.623          43.000  
G06  20822472.952   109422577.066        -630.694          35.000  
G09  22185057.554   116583018.1591        578.582          16.000  
G11  21128622.509   111031431.802        1116.372          40.000  
G17  23117661.826   121484005.532       -2854.662          29.000  
G19  20700922.699   108783826.232       -2055.814          36.000  
G20  21418448.367   112554701.519        2177.453          36.000  
G25  23774573.355   124936226.103        1489.355          24.000  
J03  39193820.133   205964824.341         348.423          35.000  
> 2025 04 09 08 12 26.9996083  0 19                     
C10  36092160.580   187941350.875        -172.273          37.000  
C19  22496759.080   117146271.723         -33.545          25.000  
C22  23264982.650   121146855.468        2890.572          25.000  
C29  24662888.500   128426297.571       -2365.652          37.000  
C35  21629681.046   112631322.486         -40.125          28.000  
C38  36021763.315   187574556.007         268.918          40.000  
E24  26957014.310   141660065.9591       1249.811          19.000  
E26  25188797.621   132367784.309       -1504.437          33.000  
E31  24944545.313   131084469.844       -1342.400          35.000  
E33  23618461.342   124115737.052         195.596          43.000  
G06  20822621.462   109423614.027        -630.707          36.000  
G09  22184975.524   116582582.1961        612.654          16.000  
G11  21128438.849   111030458.688        1115.049          40.000  
G12  22395237.362   117687655.9601       -182.656          34.000  
G17  23118107.730   121486475.091       -2804.001          25.000  
G19  20701341.622   108786022.984       -2053.388          33.000  
G20  21418062.346   112552665.711        2178.139          37.000  
G25  23774332.734   124934880.569        1487.964          24.000  
J03  39193782.771   205964618.272         349.058          34.000  
> 2025 04 09 08 12 27.9995472  0 19                     
C10  36092191.346   187941509.793        -173.719          36.000  
C19  22496761.666   117146289.271         -31.321          27.000  
C22  23264427.922   121143953.944        2886.320          23.000  
C29  24663340.475   128428648.887       -2364.003          35.000  
C35  21629687.529   112631351.375         -42.336          29.000  
C38  36021711.938   187574274.626         267.325          39.000  
E24  26956783.957   141658803.7101       1246.292          17.000  
E26  25189076.615   132369276.143       -1507.018          34.000  
E31  24944799.425   131085797.576       -1343.203          35.000  
E33  23618422.856   124115530.203         193.782          42.000  
G06  20822740.067   109424231.532        -633.535          38.000  
G09  22184850.997   116581957.643         610.034          21.000  
G11  21128225.584   111029331.368        1112.833          39.000  
G12  22395273.225   117687837.818        -211.397          35.000  
G17  23118652.340   121489267.389       -2808.418          26.000  
G19  20701730.340   108788326.842       -2051.852          31.000  
G20  21417647.021   112550475.377        2177.321          36.000  
G25  23774059.811   124933381.387        1483.556          23.000  
J03  39193715.206   205964255.635         349.479          34.000  
> 2025 04 09 08 12 28.9994862  0 18                     
C10  36092252.091   187941823.257        -173.148          36.000  
C19  22496795.730   117146460.207         -32.304          29.000  
C22  23263906.770   121141212.974        2879.294          24.000  
C29  24663823.927   128431153.272       -2365.229          32.000  
C35  21629722.192   112631531.501         -42.482          30.000  
C38  36021689.041   187574146.949         268.464          39.000  
E24  26956576.688   141657699.0401       1245.758          12.000  
E26  25189391.884   132370924.184       -1507.399          34.000  
E31  24945086.513   131087279.908       -1344.051          35.000  
E33  23618413.450   124115478.704         193.260          42.000  
G06  20822888.352   109425006.206        -632.779          39.000  
G11  21128041.399   111028359.495        1114.171          39.000  
G12  22395340.866   117688194.720        -209.341          35.000  
G17  23119226.930   121492215.858       -2806.181          28.000  
G19  20702147.839   108790516.382       -2050.657          31.000  
G20  21417259.877   112548439.006        2179.652          34.000  
G25  23773819.565   124932039.775        1482.186          23.000  
J03  39193675.221   205964047.217         349.372          34.000  
> 2025 04 09 08 12 30.0004250  0 19                     
C10  36092273.751   187941922.071        -170.887          35.000  
C19  22496789.509   117146685.665         -34.180          31.000  
C22  23263340.537   121138260.948        2877.276          22.000  
C29  24664267.096   128433448.373       -2369.267          30.000  
C35  21629721.068   112631501.931         -43.523          30.000  
C38  36021624.661   187573805.444         270.147          40.000  
E24  26956331.233   141656380.7501       1244.889          12.000  
E26  25189669.567   132372361.834       -1511.907          29.000  
E31  24945327.022   131088551.452       -1342.663          34.000  
E33  23618364.359   124115212.685         193.816          42.000  
G06  20822996.052   109425566.916        -634.711          39.000  
G09  22184574.851   116580820.6041        596.518          29.000  
G11  21127816.629   111027172.351        1113.677          39.000  
G12  22395367.023   117688333.875        -210.640          35.000  
G17  23119756.738   121494951.839       -2806.694          29.000  
G19  20702525.352   108792497.553       -2053.602          29.000  
G20  21416833.048   112546183.917        2181.020          32.000  
G25  23773540.233   124930796.739        1490.807          27.000  
J03  39193595.551   205963626.407         347.021          33.000  
> 2025 04 09 08 12 31.0003640  0 19                     
C10  36092333.672   187942236.251        -172.570          32.000  
C19  22496823.948   117146862.635         -37.297          31.000  
C22  23262818.561   121135523.902        2877.592          21.000  
C29  24664753.921   128435963.167       -2376.150          28.000  
C35  21629760.004   112631687.695         -45.297          33.000  
C38  36021600.340   187573678.014         269.577          40.000  
E24  26956127.636   141655279.7001       1243.990          11.000  
E26  25189985.811   132374018.189       -1513.945          24.000  
E31  24945610.888   131090034.127       -1341.777          35.000  
E33  23618357.127   124115162.596         193.153          42.000  
G06  20823146.511   109426343.459        -636.832          42.000  
G09  22184495.069   116580369.935         591.935          29.000  
G11  21127633.119   111026201.245        1115.691          39.000  
G12  22395434.438   117688684.258        -206.364          33.000  
G17  23120325.107   121497903.008       -2810.282          30.000  
G19  20702944.425   108794694.366       -2058.257          28.000  
G20  21416446.278   112544146.420        2180.332          29.000  
G25  23773300.062   124929452.142        1482.989          25.000  
J03  39193558.639   205963423.670         343.501          32.000  
> 2025 04 09 08 12 32.0003029  0 18                     
C10  36092366.575   187942391.022        -170.634          33.000  
C19  22496829.569   117146883.435         -36.396          34.000  
C22  23262266.568   121132631.8791       2875.660          19.000  
C29  24665211.330   128438325.704       -2385.418          26.000  
C35  21629766.224   112631715.343         -46.008          32.000  
C38  36021546.602   187573391.695         272.540          40.000  
E26  25190278.333   132375806.2311      -1513.670          19.000  
E31  24945866.836   131091357.572       -1338.917          34.000  
E33  23618316.580   124114951.495         195.459          42.000  
G06  20823268.151   109426964.688        -635.109          41.000  
G09  22184382.272   116579759.905         596.398          32.000  
G11  21127418.093   111025331.032        1117.767          39.000  
G12  22395471.238   117688870.253        -203.273          32.000  
G17  23120866.757   121500973.901       -2814.188          31.000  
G19  20703331.982   108796738.687       -2062.470          27.000  
G20  21416033.389   112541950.922        2179.932          25.000  
G25  23773024.777   124927957.252        1475.082          24.000  
J03  39193491.411   205963063.272         344.349          32.000  
> 2025 04 09 08 12 33.0002418  0 18                     
C10  36092398.465   187942549.263        -170.823          33.000  
C19  22496836.277   117146912.327         -42.305          36.000  
C22  23261718.360   121129744.5351       2877.198          19.000  
C29  24665665.927   128440694.712       -2369.983          29.000  
C35  21629769.035   112631750.060         -45.558          32.000  
C38  36021493.651   187573369.630         269.469          40.000  
E26  25190571.942   132377305.8071      -1513.426          18.000  
E31  24946120.573   131092679.907       -1335.491          29.000  
E33  23618280.417   124114745.244         193.997          42.000  
G06  20823387.581   109427587.243        -636.773          42.000  
G09  22184264.266   116579151.761         594.822          34.000  
G11  21127204.753   111024202.650        1117.395          40.000  
G12  22395508.525   117689059.400        -199.052          30.000  
G17  23121407.095   121503777.416       -2814.834          32.000  
G19  20703724.522   108798788.539       -2062.998          30.000  
G20  21415624.584   112539759.8241       2179.079          20.000  
G25  23772756.576   124926473.695        1473.821          23.000  
J03  39193424.969   205962707.666         342.762          31.000  
> 2025 04 09 08 12 34.0001808  0 19                     
C10  36092458.086   187942861.171        -170.727          33.000  
C19  22496873.414   117147094.196         -43.084          35.000  
C22  23261195.185   121127008.4991       2879.450          19.000  
C29  24666152.753   128443210.141       -2376.695          28.000  
