$GNGGA,081133.00,3959.66295798,N,11628.93658011,E,4,32,0.5,35.8944,M,-8.1161,M,1.0,1828*71
$GNRMC,081133.00,D,3959.66295798,N,11628.93658011,E,0.005,140.3,090425,7.3,W,R,S*56
$GPGSV,3,1,09,06,64,030,44,11,59,307,40,12,35,281,43,20,48,234,41,1*63
$GPGSV,3,2,09,04,19,051,34,17,26,134,41,19,53,131,43,25,15,313,24,1*6C
$GPGSV,3,3,09,09,34,084,44,1*5F
$GPGSV,2,1,08,06,64,030,42,11,59,307,42,12,35,281,38,20,48,234,32,4*6A
$GPGSV,2,2,08,04,19,051,33,17,26,134,37,19,53,131,36,09,34,084,38,4*60
$GPGSV,1,1,04,06,64,030,38,11,59,307,42,04,19,051,32,09,34,084,37,8*64
$GLGSV,2,1,07,80,20,305,43,82,19,305,40,79,18,250,30,81,55,349,44,1*73
$GLGSV,2,2,07,66,53,137,47,65,44,050,40,88,39,079,46,1*4B
$GLGSV,2,1,05,80,20,305,37,82,19,305,37,81,55,349,34,66,53,137,40,3*73
$GLGSV,2,2,05,88,39,079,38,3*40
$GBGSV,4,1,14,10,74,225,40,35,77,048,46,44,42,307,42,13,45,228,36,1*77
$GBGSV,4,2,14,19,60,089,44,20,22,042,41,22,39,179,42,08,60,229,39,1*75
$GBGSV,4,3,14,38,74,234,45,40,63,145,43,59,37,145,41,07,69,183,40,1*75
$GBGSV,4,4,14,01,36,139,38,04,27,122,37,1*73
$GBGSV,4,1,14,10,74,225,31,35,77,048,36,44,42,307,34,13,45,228,30,8*78
$GBGSV,4,2,14,19,60,089,38,20,22,042,32,22,39,179,36,08,60,229,31,8*78
$GBGSV,4,3,14,38,74,234,36,40,63,145,35,59,37,145,35,07,69,183,34,8*79
$GBGSV,4,4,14,01,36,139,30,04,27,122,27,8*73
$GBGSV,2,1,06,10,74,225,41,13,45,228,37,08,60,229,39,07,69,183,43,B*05
$GBGSV,2,2,06,01,36,139,40,04,27,122,39,B*02
$GAGSV,2,1,07,12,24,277,30,24,22,310,26,31,42,252,33,33,67,337,35,1*74
$GAGSV,2,2,07,29,28,127,38,07,26,066,35,26,39,064,36,1*40
$GAGSV,2,1,07,12,24,277,34,24,22,310,31,31,42,252,37,33,67,337,38,2*7C
$GAGSV,2,2,07,29,28,127,42,07,26,066,37,26,39,064,40,2*4D
$GAGSV,2,1,07,12,24,277,27,24,22,310,37,31,42,252,39,33,67,337,44,7*78
$GAGSV,2,2,07,29,28,127,41,07,26,066,42,26,39,064,45,7*4C
$GNGGA,081134.00,3959.66295849,N,11628.93658015,E,4,32,0.5,35.8796,M,-8.1161,M,1.0,1828*70
$GNRMC,081134.00,D,3959.66295849,N,11628.93658015,E,0.005,117.1,090425,7.3,W,R,S*56
$GPGSV,2,1,08,06,64,030,44,11,59,307,40,12,35,281,43,20,48,234,42,1*60
$GPGSV,2,2,08,04,19,051,34,17,26,134,41,19,53,131,43,09,34,084,43,1*6D
$GPGSV,2,1,08,06,64,030,42,11,59,307,42,12,35,281,38,20,48,234,33,4*6B
$GPGSV,2,2,08,04,19,051,33,17,26,134,37,19,53,131,36,09,34,084,38,4*60
$GPGSV,1,1,04,06,64,030,38,11,59,307,42,04,19,051,32,09,34,084,37,8*64
$GLGSV,2,1,07,80,20,305,43,82,19,305,40,79,18,250,32,81,55,349,44,1*71
$GLGSV,2,2,07,66,53,137,46,65,44,050,40,88,39,079,46,1*4A
$GLGSV,2,1,05,80,20,305,36,82,19,305,37,81,55,349,34,66,53,137,40,3*72
$GLGSV,2,2,05,88,39,079,38,3*40
$GBGSV,4,1,14,10,74,225,40,35,77,048,46,44,42,307,42,13,45,228,36,1*77
$GBGSV,4,2,14,19,60,089,44,20,22,042,41,22,39,179,42,08,60,229,39,1*75
$GBGSV,4,3,14,38,74,234,45,40,63,145,43,59,37,145,41,07,69,183,40,1*75
$GBGSV,4,4,14,01,36,139,38,04,27,122,37,1*73
$GBGSV,4,1,14,10,74,225,31,35,77,048,36,44,42,307,34,13,45,228,30,8*78
$GBGSV,4,2,14,19,60,089,38,20,22,042,32,22,39,179,36,08,60,229,31,8*78
$GBGSV,4,3,14,38,74,234,36,40,63,145,35,59,37,145,35,07,69,183,34,8*79
$GBGSV,4,4,14,01,36,139,31,04,27,122,28,8*7D
$GBGSV,2,1,06,10,74,225,40,13,45,228,37,08,60,229,39,07,69,183,42,B*05
$GBGSV,2,2,06,01,36,139,39,04,27,122,39,B*0C
$GAGSV,2,1,07,12,24,277,30,24,22,310,26,31,42,252,33,33,67,337,35,1*74
$GAGSV,2,2,07,29,28,127,38,07,26,066,35,26,39,064,36,1*40
$GAGSV,2,1,07,12,24,277,34,24,22,310,31,31,42,252,37,33,67,337,38,2*7C
$GAGSV,2,2,07,29,28,127,42,07,26,066,37,26,39,064,40,2*4D
$GAGSV,2,1,07,12,24,277,26,24,22,310,37,31,42,252,39,33,67,337,44,7*79
$GAGSV,2,2,07,29,28,127,41,07,26,066,41,26,39,064,45,7*4F
$GNGGA,081135.00,3959.66295803,N,11628.93657836,E,4,32,0.5,35.8820,M,-8.1161,M,1.0,1828*7B
$GNRMC,081135.00,D,3959.66295803,N,11628.93657836,E,0.003,136.1,090425,7.3,W,R,S*5A
$GPGSV,2,1,08,06,64,030,44,11,59,307,40,12,35,281,43,20,48,234,42,1*60
$GPGSV,2,2,08,04,19,051,35,17,26,134,41,19,53,131,43,09,34,084,44,1*6B
$GPGSV,2,1,08,06,64,030,42,11,59,307,42,12,35,281,37,20,48,234,32,4*65
$GPGSV,2,2,08,04,19,051,33,17,26,134,37,19,53,131,36,09,34,084,38,4*60
$GPGSV,1,1,04,06,64,030,38,11,59,307,42,04,19,051,32,09,34,084,37,8*64
$GLGSV,2,1,06,80,20,305,43,82,19,305,40,81,55,349,44,66,53,137,47,1*71
$GLGSV,2,2,06,65,44,050,41,88,39,079,47,1*7A
$GLGSV,2,1,05,80,20,305,36,82,19,305,37,81,55,349,34,66,53,137,40,3*72
$GLGSV,2,2,05,88,39,079,38,3*40
$GBGSV,4,1,14,10,74,225,40,35,77,048,46,44,42,307,42,13,45,228,36,1*77
$GBGSV,4,2,14,19,60,088,44,20,22,042,41,22,39,179,42,08,60,229,39,1*74
$GBGSV,4,3,14,38,74,234,45,40,63,145,43,59,37,145,41,07,69,183,40,1*75
$GBGSV,4,4,14,01,36,139,38,04,27,122,37,1*73
$GBGSV,4,1,14,10,74,225,31,35,77,048,36,44,42,307,34,13,45,228,30,8*78
$GBGSV,4,2,14,19,60,088,38,20,22,042,32,22,39,179,36,08,60,229,31,8*79
$GBGSV,4,3,14,38,74,234,36,40,63,145,35,59,37,145,35,07,69,183,34,8*79
$GBGSV,4,4,14,01,36,139,30,04,27,122,28,8*7C
$GBGSV,2,1,06,10,74,225,40,13,45,228,37,08,60,229,39,07,69,183,42,B*05
$GBGSV,2,2,06,01,36,139,39,04,27,122,39,B*0C
$GAGSV,2,1,07,12,24,277,30,24,22,310,26,31,42,252,34,33,67,337,35,1*73
$GAGSV,2,2,07,29,28,127,38,07,26,066,35,26,39,064,36,1*40
$GAGSV,2,1,07,12,24,277,34,24,22,310,31,31,42,252,37,33,67,337,38,2*7C
$GAGSV,2,2,07,29,28,127,41,07,26,066,37,26,39,064,40,2*4E
$GAGSV,2,1,07,12,24,277,26,24,22,310,37,31,42,252,39,33,67,337,44,7*79
$GAGSV,2,2,07,29,28,127,41,07,26,066,41,26,39,064,45,7*4F
$GNGGA,081136.00,3959.66295373,N,11628.93657908,E,4,32,0.5,35.8889,M,-8.1161,M,1.0,1828*7B
$GNRMC,081136.00,D,3959.66295373,N,11628.93657908,E,0.003,169.5,090425,7.3,W,R,S*57
$GPGSV,2,1,08,06,64,030,44,11,59,307,40,12,35,281,43,20,48,234,42,1*60
$GPGSV,2,2,08,04,19,051,35,17,26,134,41,19,53,131,43,09,34,084,44,1*6B
$GPGSV,2,1,08,06,64,030,42,11,59,307,42,12,35,281,38,20,48,234,33,4*6B
$GPGSV,2,2,08,04,19,051,33,17,26,134,36,19,53,131,36,09,34,084,38,4*61
$GPGSV,1,1,04,06,64,030,38,11,59,307,42,04,19,051,31,09,34,084,37,8*67
$GLGSV,2,1,06,80,20,305,43,82,19,305,40,81,55,349,44,66,53,137,47,1*71
$GLGSV,2,2,06,65,44,050,40,88,39,079,46,1*7A
$GLGSV,2,1,05,80,20,305,36,82,19,305,36,81,55,349,34,66,53,137,40,3*73
$GLGSV,2,2,05,88,39,079,38,3*40
$GBGSV,4,1,14,10,74,225,40,35,77,048,45,44,42,307,42,13,45,228,36,1*74
$GBGSV,4,2,14,19,60,088,44,20,22,042,41,22,39,179,42,08,60,229,39,1*74
$GBGSV,4,3,14,38,74,234,45,40,63,145,43,59,37,145,41,07,69,183,40,1*75
$GBGSV,4,4,14,01,36,139,38,04,27,122,38,1*7C
$GBGSV,4,1,14,10,74,225,31,35,77,048,37,44,42,307,34,13,45,228,30,8*79
$GBGSV,4,2,14,19,60,088,38,20,22,042,32,22,39,179,36,08,60,229,31,8*79
$GBGSV,4,3,14,38,74,234,36,40,63,145,35,59,37,145,34,07,69,183,34,8*78
$GBGSV,4,4,14,01,36,139,30,04,27,122,27,8*73
$GBGSV,2,1,06,10,74,225,40,13,45,228,37,08,60,229,39,07,69,183,42,B*05
$GBGSV,2,2,06,01,36,139,39,04,27,122,39,B*0C
$GAGSV,2,1,07,12,24,277,30,24,22,310,26,31,42,252,34,33,67,337,35,1*73
$GAGSV,2,2,07,29,28,127,37,07,26,066,35,26,39,064,36,1*4F
$GAGSV,2,1,07,12,24,277,34,24,22,310,31,31,42,252,37,33,67,337,37,2*73
$GAGSV,2,2,07,29,28,127,41,07,26,066,37,26,39,064,40,2*4E
$GAGSV,2,1,07,12,24,277,27,24,22,310,37,31,42,252,39,33,67,337,45,7*79
$GAGSV,2,2,07,29,28,127,42,07,26,066,42,26,39,064,44,7*4E
$GNGGA,081137.00,3959.66295377,N,11628.93657804,E,4,32,0.5,35.8881,M,-8.1161,M,1.0,1828*7B
$GNRMC,081137.00,D,3959.66295377,N,11628.93657804,E,0.004,184.9,090425,7.3,W,R,S*57
$GPGSV,2,1,08,06,64,030,44,11,59,307,41,12,35,281,43,20,48,234,42,1*61
$GPGSV,2,2,08,04,19,051,36,17,26,134,41,19,53,131,43,09,34,084,43,1*6F
$GPGSV,2,1,08,06,64,030,42,11,59,307,41,12,35,281,38,20,48,234,33,4*68
$GPGSV,2,2,08,04,19,051,32,17,26,134,36,19,53,131,36,09,34,084,38,4*60
$GPGSV,1,1,04,06,64,030,38,11,59,307,42,04,19,051,32,09,34,084,38,8*6B
$GLGSV,2,1,06,80,20,305,44,82,19,305,40,81,55,349,44,66,53,137,47,1*76
$GLGSV,2,2,06,65,44,050,40,88,39,079,46,1*7A
$GLGSV,2,1,05,80,20,305,35,82,19,305,36,81,55,349,35,66,53,137,40,3*71
$GLGSV,2,2,05,88,39,079,38,3*40
$GBGSV,4,1,14,10,74,225,41,35,77,048,45,44,42,307,42,13,45,228,36,1*75
$GBGSV,4,2,14,19,60,088,44,20,22,042,41,22,39,179,42,08,60,229,39,1*74
$GBGSV,4,3,14,38,74,234,45,40,63,145,43,59,37,145,41,07,69,183,40,1*75
$GBGSV,4,4,14,01,36,139,38,04,27,122,38,1*7C
$GBGSV,4,1,14,10,74,225,31,35,77,048,37,44,42,307,34,13,45,228,30,8*79
$GBGSV,4,2,14,19,60,088,37,20,22,042,32,22,39,179,36,08,60,229,31,8*76
$GBGSV,4,3,14,38,74,234,36,40,63,145,35,59,37,145,34,07,69,183,34,8*78
$GBGSV,4,4,14,01,36,139,30,04,27,122,27,8*73
$GBGSV,2,1,06,10,74,225,40,13,45,228,36,08,60,229,39,07,69,183,42,B*04
$GBGSV,2,2,06,01,36,139,39,04,27,122,38,B*0D
$GAGSV,2,1,07,12,24,277,30,24,22,310,26,31,42,252,33,33,67,337,35,1*74
$GAGSV,2,2,07,29,28,127,38,07,26,066,35,26,39,064,37,1*41
$GAGSV,2,1,07,12,24,277,33,24,22,310,31,31,42,252,37,33,67,337,37,2*74
$GAGSV,2,2,07,29,28,127,41,07,26,066,37,26,39,064,40,2*4E
$GAGSV,2,1,07,12,24,277,27,24,22,310,37,31,42,252,39,33,67,337,45,7*79
$GAGSV,2,2,07,29,28,127,42,07,26,066,42,26,39,064,44,7*4E
$GNGGA,081138.00,3959.66295707,N,11628.93658069,E,4,32,0.5,35.8851,M,-8.1161,M,2.0,1828*75
$GNRMC,081138.00,D,3959.66295707,N,11628.93658069,E,0.004,184.5,090425,7.3,W,R,S*5B
$GPGSV,2,1,08,06,64,030,44,11,59,307,41,12,35,281,43,20,48,234,42,1*61
$GPGSV,2,2,08,04,19,051,36,17,26,134,41,19,53,131,43,09,34,084,43,1*6F
$GPGSV,2,1,08,06,64,030,42,11,59,307,42,12,35,281,38,20,48,234,33,4*6B
$GPGSV,2,2,08,04,19,051,33,17,26,134,36,19,53,131,36,09,34,084,38,4*61
$GPGSV,1,1,04,06,64,030,38,11,59,307,42,04,19,051,32,09,34,084,38,8*6B
$GLGSV,2,1,06,80,20,305,43,82,19,305,40,81,55,349,44,66,53,137,47,1*71
$GLGSV,2,2,06,65,44,050,41,88,39,079,46,1*7B
$GLGSV,2,1,05,80,20,305,36,82,19,305,36,81,55,349,34,66,53,137,40,3*73
$GLGSV,2,2,05,88,39,079,38,3*40
$GBGSV,4,1,14,10,74,225,41,35,77,048,45,44,42,307,43,13,45,228,36,1*74
$GBGSV,4,2,14,19,60,088,44,20,22,042,41,22,39,179,42,08,60,229,39,1*74
$GBGSV,4,3,14,38,74,234,45,40,63,145,43,59,37,145,41,07,69,183,40,1*75
$GBGSV,4,4,14,01,36,139,38,04,27,122,37,1*73
$GBGSV,4,1,14,10,74,225,31,35,77,048,37,44,42,307,34,13,45,228,30,8*79
$GBGSV,4,2,14,19,60,088,37,20,22,042,32,22,39,179,37,08,60,229,31,8*77
$GBGSV,4,3,14,38,74,234,36,40,63,145,35,59,37,145,34,07,69,183,34,8*78
$GBGSV,4,4,14,01,36,139,31,04,27,122,29,8*7C
$GBGSV,2,1,06,10,74,225,40,13,45,228,36,08,60,229,39,07,69,183,42,B*04
$GBGSV,2,2,06,01,36,139,39,04,27,122,38,B*0D
$GAGSV,2,1,07,12,24,277,30,24,22,310,26,31,42,252,34,33,67,337,35,1*73
$GAGSV,2,2,07,29,28,127,38,07,26,066,35,26,39,064,37,1*41
$GAGSV,2,1,07,12,24,277,33,24,22,310,31,31,42,252,37,33,67,337,37,2*74
$GAGSV,2,2,07,29,28,127,41,07,26,066,37,26,39,064,39,2*40
$GAGSV,2,1,07,12,24,277,27,24,22,310,37,31,42,252,40,33,67,337,45,7*77
$GAGSV,2,2,07,29,28,127,42,07,26,066,42,26,39,064,44,7*4E
$GNGGA,081139.00,3959.66295589,N,11628.93657825,E,4,32,0.5,35.8825,M,-8.1161,M,1.0,1828*7F
$GNRMC,081139.00,D,3959.66295589,N,11628.93657825,E,0.005,212.5,090425,7.3,W,R,S*5C
$GPGSV,2,1,08,06,64,030,44,11,59,307,41,12,35,281,43,20,48,234,42,1*61
$GPGSV,2,2,08,04,19,051,37,17,26,134,41,19,53,131,43,09,34,084,43,1*6E
$GPGSV,2,1,08,06,64,030,41,11,59,307,41,12,35,281,38,20,48,234,33,4*6B
$GPGSV,2,2,08,04,19,051,33,17,26,134,36,19,53,131,36,09,34,084,38,4*61
$GPGSV,1,1,04,06,64,030,38,11,59,307,42,04,19,051,32,09,34,084,38,8*6B
$GLGSV,2,1,06,80,20,305,42,82,19,305,39,81,55,349,44,66,53,137,47,1*7E
$GLGSV,2,2,06,65,44,050,41,88,39,079,47,1*7A
$GLGSV,2,1,05,80,20,305,35,82,19,305,36,81,55,349,34,66,53,137,40,3*70
$GLGSV,2,2,05,88,39,079,38,3*40
$GBGSV,4,1,14,10,74,225,41,35,77,048,45,44,42,307,43,13,45,228,36,1*74
$GBGSV,4,2,14,19,60,088,44,20,22,042,41,22,39,179,42,08,60,229,39,1*74
$GBGSV,4,3,14,38,74,234,45,40,63,145,43,59,37,145,41,07,69,183,40,1*75
$GBGSV,4,4,14,01,36,139,38,04,27,122,37,1*73
$GBGSV,4,1,14,10,74,225,31,35,77,048,37,44,42,307,34,13,45,228,30,8*79
$GBGSV,4,2,14,19,60,088,37,20,22,042,31,22,39,179,37,08,60,229,31,8*74
$GBGSV,4,3,14,38,74,234,36,40,63,145,35,59,37,145,34,07,69,183,34,8*78
$GBGSV,4,4,14,01,36,139,31,04,27,122,30,8*74
$GBGSV,2,1,06,10,74,225,40,13,45,228,36,08,60,229,39,07,69,183,42,B*04
$GBGSV,2,2,06,01,36,139,39,04,27,122,38,B*0D
$GAGSV,2,1,07,12,24,277,30,24,22,310,25,31,42,252,33,33,67,337,35,1*77
$GAGSV,2,2,07,29,28,127,38,07,26,066,35,26,39,064,37,1*41
$GAGSV,2,1,07,12,24,277,32,24,22,310,31,31,42,252,37,33,67,337,37,2*75
$GAGSV,2,2,07,29,28,127,41,07,26,066,37,26,39,064,39,2*40
$GAGSV,2,1,07,12,24,277,27,24,22,310,37,31,42,252,40,33,67,337,46,7*74
$GAGSV,2,2,07,29,28,127,42,07,26,066,42,26,39,064,44,7*4E
$GNGGA,081140.00,3959.66295833,N,11628.93657733,E,4,32,0.5,35.8809,M,-8.1161,M,1.0,1828*7B
$GNRMC,081140.00,D,3959.66295833,N,11628.93657733,E,0.004,240.1,090425,7.3,W,R,S*54
$GPGSV,2,1,08,06,64,030,44,11,59,307,41,12,35,281,43,20,48,234,42,1*61
$GPGSV,2,2,08,04,19,051,38,17,26,134,41,19,53,131,43,09,34,084,43,1*61
$GPGSV,2,1,08,06,64,030,42,11,59,307,41,12,35,281,38,20,48,234,33,4*68
$GPGSV,2,2,08,04,19,051,33,17,26,134,35,19,53,131,36,09,34,084,38,4*62
$GPGSV,1,1,04,06,64,030,38,11,59,307,42,04,19,051,32,09,34,084,38,8*6B
$GLGSV,2,1,06,80,20,305,42,82,19,305,39,81,55,349,44,66,53,137,47,1*7E
$GLGSV,2,2,06,65,44,050,41,88,39,079,47,1*7A
$GLGSV,2,1,05,80,20,305,35,82,19,305,36,81,55,349,34,66,53,137,40,3*70
$GLGSV,2,2,05,88,39,079,38,3*40
$GBGSV,4,1,14,10,74,225,41,35,77,048,45,44,42,307,43,13,45,228,36,1*74
$GBGSV,4,2,14,19,60,088,44,20,22,042,41,22,39,179,42,08,60,229,39,1*74
$GBGSV,4,3,14,38,74,234,45,40,63,145,43,59,37,145,41,07,69,183,40,1*75
$GBGSV,4,4,14,01,36,139,38,04,27,122,37,1*73
$GBGSV,4,1,14,10,74,225,31,35,77,048,37,44,42,307,35,13,45,228,30,8*78
$GBGSV,4,2,14,19,60,088,37,20,22,042,32,22,39,179,37,08,60,229,31,8*77
$GBGSV,4,3,14,38,74,234,36,40,63,145,35,59,37,145,34,07,69,183,34,8*78
$GBGSV,4,4,14,01,36,139,31,04,27,122,30,8*74
$GBGSV,2,1,06,10,74,225,40,13,45,228,36,08,60,229,39,07,69,183,42,B*04
$GBGSV,2,2,06,01,36,139,39,04,27,122,38,B*0D
$GAGSV,2,1,07,12,24,277,30,24,22,310,25,31,42,252,34,33,67,338,35,1*7F
$GAGSV,2,2,07,29,28,127,38,07,26,066,35,26,39,064,37,1*41
$GAGSV,2,1,07,12,24,277,32,24,22,310,31,31,42,252,36,33,67,338,37,2*7B
$GAGSV,2,2,07,29,28,127,41,07,26,066,37,26,39,064,40,2*4E
$GAGSV,2,1,07,12,24,277,28,24,22,310,37,31,42,252,40,33,67,338,46,7*74
$GAGSV,2,2,07,29,28,127,42,07,26,066,42,26,39,064,45,7*4F
$GNGGA,081141.00,3959.66295587,N,11628.93657850,E,4,32,0.5,35.8942,M,-8.1161,M,1.0,1828*7C
$GNRMC,081141.00,D,3959.66295587,N,11628.93657850,E,0.002,255.1,090425,7.3,W,R,S*5F
$GPGSV,2,1,08,06,64,030,44,11,59,307,41,12,35,281,43,20,48,234,42,1*61
$GPGSV,2,2,08,04,19,051,38,17,26,134,42,19,53,131,43,09,34,084,43,1*62
$GPGSV,2,1,08,06,64,030,42,11,59,307,41,12,35,281,38,20,48,234,33,4*68
$GPGSV,2,2,08,04,19,051,33,17,26,134,35,19,53,131,36,09,34,084,38,4*62
$GPGSV,1,1,04,06,64,030,38,11,59,307,42,04,19,051,32,09,34,084,38,8*6B
$GLGSV,2,1,06,80,20,305,42,82,19,305,39,81,55,349,44,66,53,137,47,1*7E
$GLGSV,2,2,06,65,44,050,41,88,39,079,46,1*7B
$GLGSV,2,1,05,80,20,305,36,82,19,305,36,81,55,349,35,66,53,137,39,3*7C
$GLGSV,2,2,05,88,39,079,38,3*40
$GBGSV,4,1,14,10,74,225,41,35,77,048,45,44,42,307,43,13,45,228,36,1*74
$GBGSV,4,2,14,19,60,088,44,20,22,042,41,22,39,179,42,08,60,229,39,1*74
$GBGSV,4,3,14,38,74,234,45,40,63,145,43,59,37,145,41,07,69,183,40,1*75
$GBGSV,4,4,14,01,36,139,38,04,27,122,37,1*73
$GBGSV,4,1,14,10,74,225,31,35,77,048,37,44,42,307,35,13,45,228,30,8*78
$GBGSV,4,2,14,19,60,088,37,20,22,042,32,22,39,179,37,08,60,229,31,8*77
$GBGSV,4,3,14,38,74,234,36,40,63,145,35,59,37,145,34,07,69,183,34,8*78
$GBGSV,4,4,14,01,36,139,31,04,27,122,29,8*7C
$GBGSV,2,1,06,10,74,225,40,13,45,228,36,08,60,229,39,07,69,183,42,B*04
$GBGSV,2,2,06,01,36,139,39,04,27,122,39,B*0C
$GAGSV,2,1,07,12,24,277,30,24,22,310,26,31,42,252,34,33,67,338,35,1*7C
$GAGSV,2,2,07,29,28,127,38,07,26,066,35,26,39,064,37,1*41
$GAGSV,2,1,07,12,24,277,32,24,22,310,32,31,42,252,37,33,67,338,37,2*79
$GAGSV,2,2,07,29,28,127,41,07,26,066,37,26,39,064,40,2*4E
$GAGSV,2,1,07,12,24,277,28,24,22,310,37,31,42,252,40,33,67,338,45,7*77
$GAGSV,2,2,07,29,28,127,42,07,26,066,42,26,39,064,45,7*4F
$GNGGA,081142.00,3959.66295823,N,11628.93657946,E,4,32,0.5,35.8904,M,-8.1161,M,1.0,1828*78
$GNRMC,081142.00,D,3959.66295823,N,11628.93657946,E,0.004,317.2,090425,7.3,W,R,S*5B
$GPGSV,2,1,08,06,64,030,44,11,59,307,41,12,35,281,43,20,48,234,41,1*62
$GPGSV,2,2,08,04,19,051,37,17,26,134,42,19,53,131,43,09,34,084,43,1*6D
$GPGSV,2,1,08,06,64,030,42,11,59,307,41,12,35,281,38,20,48,234,33,4*68
$GPGSV,2,2,08,04,19,051,32,17,26,134,35,19,53,131,36,09,34,084,38,4*63
$GPGSV,1,1,04,06,64,030,38,11,59,307,42,04,19,051,32,09,34,084,38,8*6B
$GLGSV,2,1,06,80,20,305,42,82,19,305,39,81,55,349,43,66,53,137,46,1*78
$GLGSV,2,2,06,65,44,050,41,88,39,079,47,1*7A
$GLGSV,2,1,05,80,20,305,36,82,19,305,36,81,55,349,35,66,53,137,39,3*7C
$GLGSV,2,2,05,88,39,079,38,3*40
$GBGSV,4,1,14,10,74,225,41,35,77,048,45,44,42,307,43,13,45,228,36,1*74
$GBGSV,4,2,14,19,60,088,44,20,22,042,41,22,39,179,42,08,60,229,39,1*74
$GBGSV,4,3,14,38,74,234,45,40,63,145,43,59,37,145,41,07,69,183,40,1*75
$GBGSV,4,4,14,01,36,139,37,04,27,122,37,1*7C
$GBGSV,4,1,14,10,74,225,31,35,77,048,37,44,42,307,34,13,45,228,30,8*79
$GBGSV,4,2,14,19,60,088,37,20,22,042,32,22,39,179,37,08,60,229,31,8*77
$GBGSV,4,3,14,38,74,234,36,40,63,145,35,59,37,145,34,07,69,183,34,8*78
$GBGSV,4,4,14,01,36,139,31,04,27,122,30,8*74
$GBGSV,2,1,06,10,74,225,40,13,45,228,36,08,60,229,39,07,69,183,42,B*04
$GBGSV,2,2,06,01,36,139,39,04,27,122,39,B*0C
$GAGSV,2,1,07,12,24,277,30,24,22,310,26,31,42,252,34,33,67,338,35,1*7C
$GAGSV,2,2,07,29,28,127,38,07,26,066,35,26,39,064,37,1*41
$GAGSV,2,1,07,12,24,277,32,24,22,310,31,31,42,252,37,33,67,338,37,2*7A
$GAGSV,2,2,07,29,28,127,41,07,26,066,37,26,39,064,40,2*4E
$GAGSV,2,1,07,12,24,277,28,24,22,310,37,31,42,252,40,33,67,338,45,7*77
$GAGSV,2,2,07,29,28,127,42,07,26,066,42,26,39,064,44,7*4E
$GNGGA,081143.00,3959.66295603,N,11628.93657958,E,4,32,0.5,35.8891,M,-8.1161,M,1.0,1828*77
$GNRMC,081143.00,D,3959.66295603,N,11628.93657958,E,0.005,347.6,090425,7.3,W,R,S*59
$GPGSV,2,1,08,06,64,030,44,11,59,307,41,12,35,281,42,20,48,234,42,1*60
$GPGSV,2,2,08,04,19,051,37,17,26,134,42,19,53,131,43,09,34,084,43,1*6D
$GPGSV,2,1,08,06,64,030,42,11,59,307,41,12,35,281,38,20,48,234,33,4*68
$GPGSV,2,2,08,04,19,051,32,17,26,134,35,19,53,131,36,09,34,084,38,4*63
$GPGSV,1,1,04,06,64,030,38,11,59,307,42,04,19,051,32,09,34,084,38,8*6B
$GLGSV,2,1,07,80,20,305,42,82,19,305,40,79,18,250,34,81,55,349,43,1*71
$GLGSV,2,2,07,66,53,137,46,65,44,050,41,88,39,079,46,1*4B
$GLGSV,2,1,05,80,20,305,36,82,19,305,36,81,55,349,35,66,53,137,39,3*7C
$GLGSV,2,2,05,88,39,079,38,3*40
$GBGSV,4,1,14,10,74,225,41,35,77,048,45,44,42,307,43,13,45,228,36,1*74
$GBGSV,4,2,14,19,60,088,44,20,22,042,41,22,39,179,42,08,60,229,39,1*74
$GBGSV,4,3,14,38,74,234,45,40,63,145,43,59,37,145,41,07,69,183,40,1*75
$GBGSV,4,4,14,01,36,139,38,04,27,122,37,1*73
$GBGSV,4,1,14,10,74,225,31,35,77,048,37,44,42,307,34,13,45,228,30,8*79
$GBGSV,4,2,14,19,60,088,37,20,22,042,32,22,39,179,37,08,60,229,31,8*77
$GBGSV,4,3,14,38,74,234,36,40,63,145,35,59,37,145,34,07,69,183,34,8*78
$GBGSV,4,4,14,01,36,139,31,04,27,122,30,8*74
$GBGSV,2,1,06,10,74,225,40,13,45,228,37,08,60,229,38,07,69,183,42,B*04
$GBGSV,2,2,06,01,36,139,39,04,27,122,39,B*0C
$GAGSV,2,1,07,12,24,277,30,24,22,310,26,31,42,252,34,33,67,338,35,1*7C
$GAGSV,2,2,07,29,28,127,38,07,26,066,35,26,39,064,37,1*41
$GAGSV,2,1,07,12,24,277,33,24,22,310,31,31,42,252,36,33,67,338,37,2*7A
$GAGSV,2,2,07,29,28,127,41,07,26,066,37,26,39,064,40,2*4E
$GAGSV,2,1,07,12,24,277,28,24,22,310,37,31,42,252,40,33,67,338,46,7*74
$GAGSV,2,2,07,29,28,127,42,07,26,066,42,26,39,064,45,7*4F
$GNGGA,081144.00,3959.66295462,N,11628.93657907,E,4,32,0.5,35.8876,M,-8.1161,M,1.0,1828*76
$GNRMC,081144.00,D,3959.66295462,N,11628.93657907,E,0.005,337.4,090425,7.3,W,R,S*54
$GPGSV,2,1,08,06,64,030,44,11,59,307,41,12,35,281,42,20,48,234,41,1*63
$GPGSV,2,2,08,04,19,051,37,17,26,134,42,19,53,131,43,09,34,084,43,1*6D
$GPGSV,2,1,08,06,64,030,42,11,59,307,41,12,35,281,38,20,48,234,33,4*68
$GPGSV,2,2,08,04,19,051,32,17,26,134,35,19,53,131,36,09,34,084,37,4*6C
$GPGSV,1,1,04,06,64,030,38,11,59,307,42,04,19,051,32,09,34,084,38,8*6B
$GLGSV,2,1,07,80,20,305,43,82,19,305,39,79,18,250,30,81,55,349,44,1*7D
$GLGSV,2,2,07,66,53,137,46,65,44,050,41,88,39,079,46,1*4B
$GLGSV,2,1,05,80,20,305,37,82,19,305,36,81,55,349,35,66,53,137,39,3*7D
$GLGSV,2,2,05,88,39,079,38,3*40
$GBGSV,4,1,14,10,74,225,41,35,77,048,46,44,42,307,43,13,45,228,36,1*77
$GBGSV,4,2,14,19,60,088,44,20,22,042,41,22,39,179,42,08,60,229,39,1*74
$GBGSV,4,3,14,38,74,234,45,40,63,145,43,59,37,145,41,07,69,183,40,1*75
$GBGSV,4,4,14,01,36,139,37,04,27,122,37,1*7C
$GBGSV,4,1,14,10,74,225,31,35,77,048,37,44,42,307,34,13,45,228,30,8*79
$GBGSV,4,2,14,19,60,088,37,20,22,042,32,22,39,179,37,08,60,229,31,8*77
$GBGSV,4,3,14,38,74,234,36,40,63,145,35,59,37,145,34,07,69,183,34,8*78
$GBGSV,4,4,14,01,36,139,31,04,27,122,30,8*74
$GBGSV,2,1,06,10,74,225,40,13,45,228,36,08,60,229,38,07,69,183,42,B*05
$GBGSV,2,2,06,01,36,139,39,04,27,122,39,B*0C
$GAGSV,2,1,07,12,24,277,30,24,22,310,26,31,42,252,33,33,67,338,35,1*7B
$GAGSV,2,2,07,29,28,127,38,07,26,066,35,26,39,064,37,1*41
$GAGSV,2,1,07,12,24,277,32,24,22,310,31,31,42,252,37,33,67,338,37,2*7A
$GAGSV,2,2,07,29,28,127,41,07,26,066,37,26,39,064,40,2*4E
$GAGSV,2,1,07,12,24,277,29,24,22,310,37,31,42,252,40,33,67,338,45,7*76
$GAGSV,2,2,07,29,28,127,42,07,26,066,41,26,39,064,45,7*4C
$GNGGA,081145.00,3959.66297836,N,11628.93676063,E,4,32,0.5,35.8815,M,-8.1161,M,1.0,1828*75
$GNRMC,081145.00,D,3959.66297836,N,11628.93676063,E,0.948,81.6,090425,7.3,W,R,S*6E
$GPGSV,2,1,08,06,64,030,44,11,59,307,41,12,35,281,42,20,48,234,41,1*63
$GPGSV,2,2,08,04,19,051,37,17,26,134,43,19,53,131,44,09,34,084,43,1*6B
$GPGSV,2,1,08,06,64,030,41,11,59,307,41,12,35,281,38,20,48,234,33,4*6B
$GPGSV,2,2,08,04,19,051,32,17,26,134,35,19,53,131,36,09,34,084,37,4*6C
$GPGSV,1,1,04,06,64,030,38,11,59,307,42,04,19,051,34,09,34,084,38,8*6D
$GLGSV,2,1,06,80,20,305,43,82,19,305,39,81,55,349,44,66,53,137,47,1*7F
$GLGSV,2,2,06,65,44,050,41,88,39,079,47,1*7A
$GLGSV,2,1,05,80,20,305,36,82,19,305,35,81,55,349,36,66,53,137,40,3*72
$GLGSV,2,2,05,88,39,079,37,3*4F
$GBGSV,4,1,14,10,74,225,41,35,77,048,46,44,42,307,43,13,45,228,37,1*76
$GBGSV,4,2,14,19,60,088,43,20,22,042,41,22,39,179,42,08,60,229,40,1*7D
$GBGSV,4,3,14,38,74,234,45,40,63,145,43,59,37,145,41,07,69,183,40,1*75
$GBGSV,4,4,14,01,36,139,38,04,27,122,36,1*72
$GBGSV,4,1,14,10,74,225,31,35,77,048,36,44,42,307,34,13,45,228,30,8*78
$GBGSV,4,2,14,19,60,088,37,20,22,042,32,22,39,179,37,08,60,229,31,8*77
$GBGSV,4,3,14,38,74,234,36,40,63,145,35,59,37,145,34,07,69,183,34,8*78
$GBGSV,4,4,14,01,36,139,30,04,27,122,30,8*75
$GBGSV,2,1,06,10,74,225,40,13,45,228,36,08,60,229,38,07,69,183,42,B*05
$GBGSV,2,2,06,01,36,139,40,04,27,122,39,B*02
$GAGSV,2,1,07,12,24,277,30,24,22,310,25,31,42,252,33,33,67,338,35,1*78
$GAGSV,2,2,07,29,28,127,39,07,26,066,35,26,39,064,37,1*40
$GAGSV,2,1,07,12,24,277,32,24,22,310,31,31,42,252,36,33,67,338,37,2*7B
$GAGSV,2,2,07,29,28,127,41,07,26,066,37,26,39,064,40,2*4E
$GAGSV,2,1,07,12,24,277,29,24,22,310,38,31,42,252,39,33,67,338,45,7*77
$GAGSV,2,2,07,29,28,127,42,07,26,066,41,26,39,064,45,7*4C
$GNGGA,081146.00,3959.66305204,N,11628.93752036,E,4,33,0.5,35.8882,M,-8.1160,M,1.0,1828*7E
$GNRMC,081146.00,D,3959.66305204,N,11628.93752036,E,3.849,83.1,090425,7.3,W,R,S*6D
$GPGSV,3,1,09,06,64,030,44,11,59,307,41,12,35,281,42,20,48,235,42,1*61
$GPGSV,3,2,09,04,19,051,37,17,26,134,42,19,53,131,44,25,15,313,29,1*66
$GPGSV,3,3,09,09,34,084,43,1*58
$GPGSV,2,1,08,06,64,030,41,11,59,307,41,12,35,281,39,20,48,235,34,4*6C
$GPGSV,2,2,08,04,19,051,32,17,26,134,36,19,53,131,37,09,34,084,38,4*61
$GPGSV,1,1,04,06,64,030,38,11,59,307,42,04,19,051,32,09,34,084,38,8*6B
$GLGSV,2,1,06,80,20,305,43,82,19,305,38,81,56,349,43,66,53,137,47,1*7A
$GLGSV,2,2,06,65,44,050,41,88,39,079,47,1*7A
$GLGSV,2,1,05,80,20,305,34,82,19,305,34,81,56,349,36,66,53,137,40,3*72
$GLGSV,2,2,05,88,39,079,38,3*40
$GBGSV,4,1,14,10,74,225,41,35,77,048,46,44,42,307,42,13,45,228,37,1*77
$GBGSV,4,2,14,19,60,088,43,20,22,042,40,22,39,179,42,08,60,230,38,1*7B
$GBGSV,4,3,14,38,74,234,45,40,63,145,43,59,37,145,41,07,69,183,39,1*7B
$GBGSV,4,4,14,01,36,139,38,04,27,122,36,1*72
$GBGSV,4,1,14,10,74,225,31,35,77,048,36,44,42,307,35,13,45,228,30,8*79
$GBGSV,4,2,14,19,60,088,37,20,22,042,32,22,39,179,37,08,60,230,31,8*7F
$GBGSV,4,3,14,38,74,234,36,40,63,145,36,59,37,145,34,07,69,183,34,8*7B
$GBGSV,4,4,14,01,36,139,30,04,27,122,27,8*73
$GBGSV,2,1,06,10,74,225,41,13,45,228,36,08,60,230,39,07,69,183,42,B*0D
$GBGSV,2,2,06,01,36,139,40,04,27,122,38,B*03
$GAGSV,2,1,07,12,24,277,30,24,22,310,26,31,42,252,35,33,67,338,35,1*7D
$GAGSV,2,2,07,29,28,127,37,07,26,066,35,26,39,064,38,1*41
$GAGSV,2,1,07,12,24,277,32,24,22,310,30,31,42,252,37,33,67,338,37,2*7B
$GAGSV,2,2,07,29,28,127,41,07,26,066,38,26,39,064,40,2*41
$GAGSV,2,1,07,12,24,277,31,24,22,310,38,31,42,252,39,33,67,338,45,7*7E
$GAGSV,2,2,07,29,28,127,41,07,26,066,42,26,39,064,44,7*4D
$GNGGA,081147.00,3959.66327340,N,11628.93956520,E,4,33,0.5,35.9026,M,-8.1160,M,1.0,1828*71
$GNRMC,081147.00,D,3959.66327340,N,11628.93956520,E,7.216,81.4,090425,7.3,W,R,S*66
$GPGSV,2,1,08,06,64,030,44,11,59,307,41,12,35,281,42,20,48,235,41,1*62
$GPGSV,2,2,08,04,19,051,33,17,26,134,41,19,53,131,43,09,34,084,43,1*6A
$GPGSV,2,1,08,06,64,030,41,11,59,307,41,12,35,281,38,20,48,235,33,4*6A
$GPGSV,2,2,08,04,19,051,29,17,26,134,35,19,53,131,36,09,34,084,37,4*66
$GPGSV,1,1,04,06,64,030,38,11,59,307,42,04,19,051,30,09,34,084,37,8*66
$GLGSV,2,1,06,80,20,305,42,82,19,305,39,81,56,349,43,66,53,137,47,1*7A
$GLGSV,2,2,06,65,44,050,42,88,39,079,47,1*79
$GLGSV,2,1,05,80,20,305,34,82,19,305,34,81,56,349,35,66,53,137,40,3*71
$GLGSV,2,2,05,88,39,079,38,3*40
$GBGSV,4,1,14,10,74,224,41,35,77,048,46,44,42,307,42,13,45,228,36,1*77
$GBGSV,4,2,14,19,60,088,44,20,22,042,40,22,39,179,42,08,60,230,39,1*7D
$GBGSV,4,3,14,38,74,234,45,40,63,145,43,59,37,145,41,07,69,183,39,1*7B
$GBGSV,4,4,14,01,36,139,38,04,27,122,36,1*72
$GBGSV,4,1,14,10,74,224,32,35,77,048,36,44,42,307,35,13,45,228,30,8*7B
$GBGSV,4,2,14,19,60,088,37,20,22,042,32,22,39,179,37,08,60,230,31,8*7F
$GBGSV,4,3,14,38,74,234,37,40,63,145,36,59,37,145,34,07,69,183,34,8*7A
$GBGSV,4,4,14,01,36,139,30,04,27,122,26,8*72
$GBGSV,2,1,06,10,74,224,40,13,45,228,35,08,60,230,39,07,69,183,41,B*0D
$GBGSV,2,2,06,01,36,139,40,04,27,122,38,B*03
$GAGSV,2,1,07,12,24,277,29,24,22,310,27,31,42,252,35,33,67,338,35,1*74
$GAGSV,2,2,07,29,28,127,37,07,26,066,36,26,39,064,38,1*42
$GAGSV,2,1,07,12,24,277,32,24,22,310,29,31,42,252,36,33,67,338,37,2*72
$GAGSV,2,2,07,29,28,127,41,07,26,066,38,26,39,064,40,2*41
$GAGSV,2,1,07,12,24,277,30,24,22,310,36,31,42,252,39,33,67,338,45,7*71
$GAGSV,2,2,07,29,28,127,41,07,26,066,42,26,39,064,44,7*4D
$GNGGA,081148.00,3959.66366665,N,11628.94294300,E,4,32,0.5,35.9354,M,-8.1158,M,1.0,1828*73
$GNRMC,081148.00,D,3959.66366665,N,11628.94294300,E,11.563,81.5,090425,7.3,W,R,S*5B
$GPGSV,2,1,08,06,64,030,44,11,59,307,41,12,35,281,42,20,48,235,42,1*61
$GPGSV,2,2,08,04,19,051,29,17,26,134,41,19,53,131,44,09,34,084,43,1*66
$GPGSV,2,1,08,06,64,030,41,11,59,307,41,12,35,281,38,20,48,235,33,4*6A
$GPGSV,2,2,08,04,19,051,23,17,26,134,35,19,53,131,36,09,34,084,37,4*6C
$GPGSV,1,1,04,06,64,030,38,11,59,307,42,04,19,051,25,09,34,084,38,8*6D
$GLGSV,2,1,06,80,20,305,44,82,19,305,41,81,56,349,42,66,53,137,48,1*7D
$GLGSV,2,2,06,65,44,050,42,88,39,079,47,1*79
$GLGSV,2,1,05,80,20,305,34,82,19,305,34,81,56,349,35,66,53,137,40,3*71
$GLGSV,2,2,05,88,39,079,38,3*40
$GBGSV,4,1,14,10,74,224,41,35,77,048,46,44,42,307,42,13,45,228,37,1*76
$GBGSV,4,2,14,19,60,088,44,20,22,042,40,22,39,179,43,08,60,230,39,1*7C
$GBGSV,4,3,14,38,74,234,45,40,63,145,43,59,37,145,41,07,69,183,39,1*7B
$GBGSV,4,4,14,01,36,139,38,04,27,122,36,1*72
$GBGSV,4,1,14,10,74,224,31,35,77,048,36,44,42,307,35,13,45,228,30,8*78
$GBGSV,4,2,14,19,60,088,37,20,22,042,32,22,39,179,37,08,60,230,31,8*7F
$GBGSV,4,3,14,38,74,234,37,40,63,145,36,59,37,145,34,07,69,183,34,8*7A
$GBGSV,4,4,14,01,36,139,30,04,27,122,28,8*7C
$GBGSV,2,1,06,10,74,224,41,13,45,228,36,08,60,230,39,07,69,183,41,B*0F
$GBGSV,2,2,06,01,36,139,40,04,27,122,38,B*03
$GAGSV,2,1,07,12,24,277,29,24,22,310,27,31,42,252,35,33,67,338,35,1*74
$GAGSV,2,2,07,29,28,127,37,07,26,066,36,26,39,064,37,1*4D
$GAGSV,2,1,07,12,24,277,32,24,22,310,30,31,42,252,37,33,67,338,38,2*74
$GAGSV,2,2,07,29,28,127,41,07,26,066,37,26,39,064,40,2*4E
$GAGSV,2,1,07,12,24,277,30,24,22,310,36,31,42,252,39,33,67,338,45,7*71
$GAGSV,2,2,07,29,28,127,41,07,26,066,41,26,39,064,44,7*4E
$GNGGA,081149.00,3959.66410928,N,11628.94721243,E,4,32,0.5,35.8967,M,-8.1157,M,1.0,1828*7B
$GNRMC,081149.00,D,3959.66410928,N,11628.94721243,E,11.456,82.9,090425,7.3,W,R,S*5F
$GPGSV,2,1,08,06,64,030,44,11,59,307,41,12,35,281,42,20,48,235,42,1*61
$GPGSV,2,2,08,04,19,051,25,17,26,134,41,19,53,131,44,09,34,084,44,1*6D
$GPGSV,2,1,08,06,64,030,41,11,59,307,41,12,35,281,38,20,48,235,32,4*6B
$GPGSV,2,2,08,04,19,051,20,17,26,134,36,19,53,131,36,09,34,084,37,4*6C
$GPGSV,1,1,03,06,64,030,38,11,59,307,42,09,34,084,38,8*55
$GLGSV,2,1,06,80,20,304,43,82,19,305,41,81,56,349,43,66,53,137,47,1*75
$GLGSV,2,2,06,65,44,050,42,88,39,079,47,1*79
$GLGSV,2,1,05,80,20,304,34,82,19,305,34,81,56,349,35,66,53,137,40,3*70
$GLGSV,2,2,05,88,39,079,38,3*40
$GBGSV,4,1,14,10,74,224,42,35,77,048,46,44,42,307,42,13,45,228,38,1*7A
$GBGSV,4,2,14,19,60,088,44,20,22,042,41,22,39,179,43,08,60,230,39,1*7D
$GBGSV,4,3,14,38,74,234,45,40,63,145,43,59,37,145,41,07,69,183,39,1*7B
$GBGSV,4,4,14,01,36,139,39,04,27,122,36,1*73
$GBGSV,4,1,14,10,74,224,31,35,77,048,36,44,42,307,35,13,45,228,31,8*79
$GBGSV,4,2,14,19,60,088,37,20,22,042,32,22,39,179,37,08,60,230,30,8*7E
$GBGSV,4,3,14,38,74,234,37,40,63,145,35,59,37,145,34,07,69,183,34,8*79
$GBGSV,4,4,14,01,36,139,30,04,27,122,27,8*73
$GBGSV,2,1,06,10,74,224,41,13,45,228,36,08,60,230,39,07,69,183,41,B*0F
$GBGSV,2,2,06,01,36,139,40,04,27,122,38,B*03
$GAGSV,2,1,07,12,24,277,29,24,22,310,26,31,42,252,35,33,67,338,35,1*75
$GAGSV,2,2,07,29,28,126,38,07,26,066,35,26,39,064,37,1*40
$GAGSV,2,1,07,12,24,277,32,24,22,310,28,31,42,252,36,33,67,338,38,2*7C
$GAGSV,2,2,07,29,28,126,41,07,26,066,37,26,39,064,40,2*4F
$GAGSV,2,1,07,12,24,277,29,24,22,310,36,31,42,252,38,33,67,338,45,7*78
$GAGSV,2,2,07,29,28,126,41,07,26,066,39,26,39,064,44,7*40
$GNGGA,081150.00,3959.66445612,N,11628.95103687,E,4,32,0.6,35.9162,M,-8.1156,M,1.0,1828*70
$GNRMC,081150.00,D,3959.66445612,N,11628.95103687,E,10.292,83.3,090425,7.3,W,R,S*5E
$GPGSV,2,1,08,06,64,030,44,11,59,307,41,12,35,281,41,20,48,235,41,1*61
$GPGSV,2,2,08,04,19,051,23,17,26,134,40,19,53,131,44,09,34,084,44,1*6A
$GPGSV,2,1,08,06,64,030,41,11,59,307,42,12,35,281,39,20,48,235,32,4*69
$GPGSV,2,2,08,04,19,051,19,17,26,134,35,19,53,131,36,09,34,084,37,4*65
$GPGSV,1,1,04,06,64,030,38,11,59,307,42,04,19,051,16,09,34,084,37,8*62
$GLGSV,2,1,06,80,20,304,41,82,19,305,40,81,56,349,43,66,53,137,47,1*76
$GLGSV,2,2,06,65,44,050,42,88,39,079,47,1*79
$GLGSV,2,1,05,80,20,304,34,82,19,305,35,81,56,349,35,66,53,137,40,3*71
$GLGSV,2,2,05,88,39,079,38,3*40
$GBGSV,4,1,14,10,74,224,42,35,77,048,46,44,42,307,42,13,45,228,38,1*7A
$GBGSV,4,2,14,19,60,088,44,20,22,042,38,22,39,179,43,08,60,230,39,1*73
$GBGSV,4,3,14,38,74,234,46,40,63,145,43,59,37,145,41,07,69,183,39,1*78
$GBGSV,4,4,14,01,36,139,39,04,27,122,36,1*73
$GBGSV,4,1,14,10,74,224,31,35,77,048,36,44,42,307,35,13,45,228,30,8*78
$GBGSV,4,2,14,19,60,088,37,20,22,042,29,22,39,179,37,08,60,230,31,8*75
$GBGSV,4,3,14,38,74,234,37,40,63,145,36,59,37,145,34,07,69,183,34,8*7A
$GBGSV,4,4,14,01,36,139,30,04,27,122,27,8*73
$GBGSV,2,1,06,10,74,224,41,13,45,228,35,08,60,230,39,07,69,183,41,B*0C
$GBGSV,2,2,06,01,36,139,40,04,27,122,37,B*0C
$GAGSV,2,1,07,12,24,277,29,24,22,310,26,31,42,252,35,33,67,338,35,1*75
$GAGSV,2,2,07,29,28,126,37,07,26,066,32,26,39,064,38,1*47
$GAGSV,2,1,07,12,24,277,33,24,22,310,29,31,42,252,36,33,67,338,37,2*73
$GAGSV,2,2,07,29,28,126,41,07,26,066,35,26,39,064,40,2*4D
$GAGSV,2,1,07,12,24,277,29,24,22,310,37,31,42,252,39,33,67,338,45,7*78
$GAGSV,2,2,07,29,28,126,41,07,26,066,36,26,39,064,44,7*4F
$GNGGA,081151.00,3959.66487636,N,11628.95497509,E,4,30,0.6,35.9594,M,-8.1154,M,1.0,1828*79
$GNRMC,081151.00,D,3959.66487636,N,11628.95497509,E,12.326,81.1,090425,7.3,W,R,S*56
$GPGSV,2,1,08,06,64,030,44,11,59,307,41,12,35,281,41,20,48,235,41,1*61
$GPGSV,2,2,08,04,19,051,22,17,26,134,39,19,53,131,44,09,34,084,44,1*65
$GPGSV,2,1,08,06,64,030,41,11,59,307,41,12,35,281,38,20,48,235,33,4*6A
$GPGSV,2,2,08,04,19,051,19,17,26,134,35,19,53,131,36,09,34,084,37,4*65
$GPGSV,1,1,04,06,64,030,38,11,59,307,42,04,19,051,17,09,34,084,37,8*63
$GLGSV,2,1,06,80,20,304,43,82,19,305,40,81,56,349,43,66,53,137,47,1*74
$GLGSV,2,2,06,65,44,050,42,88,39,079,47,1*79
$GLGSV,2,1,05,80,20,304,34,82,19,305,34,81,56,349,35,66,53,137,40,3*70
$GLGSV,2,2,05,88,39,079,38,3*40
$GBGSV,4,1,14,10,74,224,41,35,77,048,46,44,42,307,43,13,45,228,37,1*77
$GBGSV,4,2,14,19,60,088,44,20,22,042,33,22,39,179,43,08,60,230,39,1*78
$GBGSV,4,3,14,38,74,234,46,40,63,145,44,59,37,145,41,07,69,183,40,1*71
$GBGSV,4,4,14,01,36,139,39,04,27,122,37,1*72
$GBGSV,4,1,14,10,74,224,31,35,77,048,36,44,42,307,35,13,45,228,30,8*78
$GBGSV,4,2,14,19,60,088,37,20,22,042,23,22,39,179,37,08,60,230,31,8*7F
$GBGSV,4,3,14,38,74,234,36,40,63,145,36,59,37,145,33,07,69,183,34,8*7C
$GBGSV,4,4,14,01,36,139,30,04,27,122,28,8*7C
$GBGSV,2,1,06,10,74,224,40,13,45,228,35,08,60,230,39,07,69,183,41,B*0D
$GBGSV,2,2,06,01,36,139,40,04,27,122,38,B*03
$GAGSV,2,1,07,12,24,277,29,24,22,310,26,31,42,252,35,33,67,338,35,1*75
$GAGSV,2,2,07,29,28,126,37,07,26,066,25,26,39,064,37,1*4E
$GAGSV,2,1,07,12,24,277,33,24,22,310,29,31,42,252,36,33,67,338,37,2*73
$GAGSV,2,2,07,29,28,126,40,07,26,066,28,26,39,064,39,2*4E
$GAGSV,2,1,07,12,24,277,29,24,22,310,37,31,42,252,39,33,67,338,45,7*78
$GAGSV,2,2,07,29,28,126,41,07,26,066,31,26,39,064,44,7*48
$GNGGA,081152.00,3959.66552818,N,11628.95985501,E,4,29,0.6,35.9821,M,-8.1153,M,1.0,1828*7B
$GNRMC,081152.00,D,3959.66552818,N,11628.95985501,E,14.992,79.7,090425,7.3,W,R,S*5A
$GPGSV,2,1,08,06,64,030,44,11,59,307,41,12,35,281,42,20,48,235,42,1*61
$GPGSV,2,2,08,04,19,051,23,17,26,134,38,19,53,131,44,09,34,084,43,1*62
$GPGSV,2,1,08,06,64,030,42,11,59,307,41,12,35,281,38,20,48,235,33,4*69
$GPGSV,2,2,08,04,19,051,21,17,26,134,33,19,53,131,37,09,34,084,38,4*66
$GPGSV,1,1,04,06,64,030,38,11,59,307,42,04,19,051,19,09,34,084,37,8*6D
$GLGSV,2,1,06,80,20,304,44,82,20,305,41,81,56,349,41,66,53,137,47,1*7A
$GLGSV,2,2,06,65,44,050,41,88,39,079,48,1*75
$GLGSV,2,1,05,80,20,304,35,82,20,305,36,81,56,349,36,66,53,137,40,3*7A
$GLGSV,2,2,05,88,39,079,38,3*40
$GBGSV,4,1,14,10,74,224,41,35,77,048,46,44,42,307,43,13,45,228,38,1*78
$GBGSV,4,2,14,19,60,088,45,20,22,042,29,22,39,179,43,08,60,230,39,1*72
$GBGSV,4,3,14,38,74,235,46,40,63,145,44,59,37,145,41,07,69,183,40,1*70
$GBGSV,4,4,14,01,36,139,39,04,27,122,33,1*76
$GBGSV,4,1,13,10,74,224,31,35,77,048,36,44,42,307,35,13,45,228,29,8*77
$GBGSV,4,2,13,19,60,088,36,20,22,042,22,22,39,179,37,08,60,230,31,8*78
$GBGSV,4,3,13,38,74,235,37,40,63,145,36,59,37,145,33,07,69,183,34,8*7B
$GBGSV,4,4,13,01,36,139,30,8*41
$GBGSV,2,1,06,10,74,224,40,13,45,228,35,08,60,230,39,07,69,183,41,B*0D
$GBGSV,2,2,06,01,36,139,40,04,27,122,34,B*0F
$GAGSV,2,1,07,12,24,277,28,24,22,310,27,31,42,252,35,33,67,338,34,1*74
$GAGSV,2,2,07,29,28,126,37,07,26,066,25,26,39,064,37,1*4E
$GAGSV,2,1,07,12,24,277,32,24,22,310,30,31,42,252,36,33,67,338,37,2*7A
$GAGSV,2,2,07,29,28,126,40,07,26,066,27,26,39,064,40,2*4F
$GAGSV,2,1,07,12,24,277,30,24,22,310,35,31,42,252,39,33,67,338,45,7*72
$GAGSV,2,2,07,29,28,126,40,07,26,066,27,26,39,064,44,7*4E
$GNGGA,081153.00,3959.66640166,N,11628.96552208,E,4,29,0.6,35.8383,M,-8.1151,M,1.0,1828*71
$GNRMC,081153.00,D,3959.66640166,N,11628.96552208,E,16.663,78.1,090425,7.3,W,R,S*54
$GPGSV,2,1,08,06,64,030,45,11,59,307,41,12,35,281,43,20,48,235,42,1*61
$GPGSV,2,2,08,04,19,051,23,17,26,134,29,19,53,131,44,09,34,084,45,1*64
$GPGSV,2,1,08,06,64,030,41,11,59,307,41,12,35,281,37,20,48,235,33,4*65
$GPGSV,2,2,08,04,19,051,21,17,26,134,27,19,53,131,37,09,34,084,39,4*62
$GPGSV,1,1,04,06,64,030,39,11,59,307,42,04,19,051,20,09,34,084,38,8*69
$GLGSV,2,1,06,80,20,304,43,82,20,305,41,81,56,349,41,66,53,137,46,1*7C
$GLGSV,2,2,06,65,44,050,43,88,39,079,48,1*77
$GLGSV,2,1,05,80,20,304,33,82,20,305,35,81,56,349,36,66,53,137,40,3*7F
$GLGSV,2,2,05,88,39,079,38,3*40
$GBGSV,4,1,13,10,74,224,42,35,77,048,45,44,42,307,43,13,45,228,38,1*7F
$GBGSV,4,2,13,19,60,088,44,20,22,042,27,22,39,179,43,08,60,230,39,1*7A
$GBGSV,4,3,13,38,74,235,45,40,63,145,43,59,37,145,41,07,69,183,41,1*72
$GBGSV,4,4,13,01,36,139,39,1*41
$GBGSV,4,1,13,10,74,224,32,35,77,048,36,44,42,307,35,13,45,228,28,8*75
$GBGSV,4,2,13,19,60,088,36,20,22,042,20,22,39,179,37,08,60,230,30,8*7B
$GBGSV,4,3,13,38,74,235,37,40,63,145,36,59,37,145,34,07,69,183,34,8*7C
$GBGSV,4,4,13,01,36,139,30,8*41
$GBGSV,2,1,06,10,74,224,41,13,45,228,36,08,60,230,39,07,69,183,41,B*0F
$GBGSV,2,2,06,01,36,139,40,04,27,122,26,B*0C
$GAGSV,2,1,07,12,24,277,27,24,22,310,25,31,42,252,34,33,67,338,34,1*78
$GAGSV,2,2,07,29,28,126,28,07,26,066,23,26,39,064,37,1*46
$GAGSV,2,1,07,12,24,277,30,24,22,310,29,31,42,252,37,33,67,338,37,2*71
$GAGSV,2,2,07,29,28,126,32,07,26,066,24,26,39,064,40,2*49
$GAGSV,2,1,07,12,24,277,30,24,22,310,35,31,42,252,38,33,67,338,45,7*73
$GAGSV,2,2,07,29,28,126,31,07,26,066,25,26,39,064,44,7*4A
$GNGGA,081154.00,3959.66735916,N,11628.97157122,E,4,29,0.6,35.6992,M,-8.1149,M,1.0,1828*7C
$GNRMC,081154.00,D,3959.66735916,N,11628.97157122,E,17.556,78.4,090425,7.3,W,R,S*55
$GPGSV,2,1,08,06,64,030,45,11,59,307,41,12,35,281,43,20,48,235,42,1*61
$GPGSV,2,2,08,04,19,051,25,17,26,134,28,19,53,131,44,09,34,084,42,1*64
$GPGSV,2,1,07,06,64,030,42,11,59,307,41,12,35,281,37,20,48,235,33,4*69
$GPGSV,2,2,07,04,19,051,26,19,53,131,37,09,34,084,36,4*54
$GPGSV,1,1,04,06,64,030,39,11,59,307,42,04,19,051,22,09,34,084,35,8*66
$GLGSV,2,1,07,80,20,304,42,82,20,305,40,79,18,250,37,81,56,349,41,1*78
$GLGSV,2,2,07,66,53,137,45,65,44,050,42,88,39,079,47,1*4A
$GLGSV,2,1,05,80,20,304,32,82,20,305,31,81,56,349,36,66,53,137,40,3*7A
$GLGSV,2,2,05,88,39,079,38,3*40
$GBGSV,4,1,15,10,74,224,42,35,77,048,45,44,42,307,43,13,45,228,38,1*79
$GBGSV,4,2,15,19,60,088,44,20,22,042,26,22,39,179,43,08,60,230,39,1*7D
$GBGSV,4,3,15,38,74,235,45,40,63,145,43,59,37,145,41,07,68,183,41,1*75
$GBGSV,4,4,15,01,36,139,39,60,30,229,34,04,27,122,20,1*4E
$GBGSV,4,1,13,10,74,224,31,35,77,048,36,44,42,307,35,13,45,228,28,8*76
$GBGSV,4,2,13,19,60,088,36,20,22,042,19,22,39,179,37,08,60,230,29,8*79
$GBGSV,4,3,13,38,74,235,37,40,63,145,35,59,37,145,34,07,68,183,34,8*7E
$GBGSV,4,4,13,01,36,139,30,8*41
$GBGSV,2,1,06,10,74,224,41,13,45,228,36,08,60,230,39,07,68,183,42,B*0D
$GBGSV,2,2,06,01,36,139,40,04,27,122,23,B*09
$GAGSV,2,1,06,12,24,277,26,24,22,310,25,31,42,252,34,33,67,338,34,1*78
$GAGSV,2,2,06,07,26,066,22,26,39,064,37,1*78
$GAGSV,2,1,07,12,24,277,30,24,22,310,30,31,42,252,37,33,67,338,37,2*79
$GAGSV,2,2,07,29,28,126,25,07,26,066,24,26,39,064,41,2*4E
$GAGSV,2,1,07,12,24,277,30,24,22,310,35,31,42,252,38,33,67,338,45,7*73
$GAGSV,2,2,07,29,28,126,25,07,26,066,24,26,39,064,44,7*4E
$GNGGA,081155.00,3959.66824476,N,11628.97795627,E,4,26,0.7,35.5994,M,-8.1146,M,1.0,1828*77
$GNRMC,081155.00,D,3959.66824476,N,11628.97795627,E,18.310,80.8,090425,7.3,W,R,S*5A
$GPGSV,2,1,07,06,64,030,45,11,59,307,41,12,35,281,43,20,48,235,42,1*6E
$GPGSV,2,2,07,04,19,051,28,19,53,131,44,09,34,084,35,1*58
$GPGSV,2,1,07,06,64,030,41,11,59,307,41,12,35,281,37,20,48,235,33,4*6A
$GPGSV,2,2,07,04,19,051,27,19,53,131,37,09,34,084,32,4*51
$GPGSV,1,1,04,06,64,030,39,11,59,307,42,04,19,051,27,09,34,084,33,8*65
$GLGSV,2,1,07,80,20,304,42,82,20,305,40,79,18,250,38,81,56,349,41,1*77
$GLGSV,2,2,07,66,53,137,46,65,44,050,42,88,39,079,47,1*49
$GLGSV,2,1,05,80,20,304,33,82,20,305,31,81,56,349,36,66,53,137,40,3*7B
$GLGSV,2,2,05,88,39,079,38,3*40
$GBGSV,4,1,14,10,74,224,42,35,77,048,45,44,42,307,43,13,45,228,38,1*78
$GBGSV,4,2,14,19,60,088,44,20,22,042,29,22,39,179,42,08,60,230,39,1*72
$GBGSV,4,3,14,38,74,235,45,40,63,145,43,59,37,145,38,07,68,183,41,1*7A
$GBGSV,4,4,14,01,36,139,35,60,30,229,34,1*71
$GBGSV,4,1,13,10,74,224,31,35,77,048,36,44,42,307,35,13,45,228,28,8*76
$GBGSV,4,2,13,19,60,088,36,20,22,042,19,22,39,179,36,08,60,230,30,8*70
$GBGSV,4,3,13,38,74,235,37,40,63,145,35,59,37,145,32,07,68,183,34,8*78
$GBGSV,4,4,13,01,36,139,20,8*40
$GBGSV,2,1,06,10,74,224,41,13,45,228,36,08,60,230,40,07,68,183,42,B*03
$GBGSV,2,2,06,01,36,139,35,04,27,122,21,B*09
$GAGSV,2,1,06,12,24,277,26,24,22,310,21,31,42,252,34,33,67,338,35,1*7D
$GAGSV,2,2,06,07,26,066,24,26,39,064,34,1*7D
$GAGSV,2,1,06,12,24,277,31,24,22,310,27,31,42,252,38,33,67,338,38,2*7F
$GAGSV,2,2,06,07,26,066,27,26,39,064,38,2*71
$GAGSV,2,1,06,12,24,277,30,24,22,310,29,31,42,252,38,33,67,338,45,7*7F
$GAGSV,2,2,06,07,26,066,25,26,39,064,41,7*78
$GNGGA,081156.00,3959.66894542,N,11628.98471928,E,4,24,0.7,35.5102,M,-8.1144,M,2.0,1828*7B
$GNRMC,081156.00,D,3959.66894542,N,11628.98471928,E,19.092,83.7,090425,7.3,W,R,S*56
$GPGSV,2,1,07,06,64,030,45,11,59,307,41,12,35,281,42,20,48,235,42,1*6F
$GPGSV,2,2,07,04,19,051,35,19,53,131,44,09,34,084,30,1*51
$GPGSV,2,1,07,06,64,030,42,11,59,307,42,12,35,281,38,20,48,235,32,4*64
$GPGSV,2,2,07,04,19,051,30,19,53,131,37,09,34,084,25,4*51
$GPGSV,1,1,04,06,64,030,38,11,59,307,42,04,19,051,28,09,34,084,25,8*6C
$GLGSV,2,1,07,80,20,304,43,82,20,305,41,79,18,249,37,81,56,349,41,1*70
$GLGSV,2,2,07,66,53,137,46,65,44,050,42,88,39,079,47,1*49
$GLGSV,2,1,05,80,20,304,34,82,20,305,32,81,56,349,34,66,53,137,40,3*7D
$GLGSV,2,2,05,88,39,079,39,3*41
$GBGSV,4,1,14,10,74,224,42,35,77,048,45,44,42,307,42,13,45,228,38,1*79
$GBGSV,4,2,14,19,60,088,43,20,22,042,30,22,40,179,43,08,60,230,39,1*72
$GBGSV,4,3,14,38,74,235,45,40,63,145,43,59,37,145,28,07,68,183,40,1*7A
$GBGSV,4,4,14,01,36,139,25,60,30,229,33,1*77
$GBGSV,3,1,11,10,74,224,31,35,77,048,36,44,42,307,35,13,45,228,29,8*72
$GBGSV,3,2,11,19,60,088,36,20,22,042,20,22,40,179,37,08,60,230,30,8*70
$GBGSV,3,3,11,38,74,235,37,40,63,145,35,07,68,183,34,8*44
$GBGSV,2,1,05,10,74,224,41,13,45,228,36,08,60,230,40,07,68,183,42,B*00
$GBGSV,2,2,05,01,36,139,27,B*3A
$GAGSV,2,1,06,12,24,277,29,24,22,310,20,31,42,252,34,33,67,338,35,1*73
$GAGSV,2,2,06,07,26,066,24,26,39,064,28,1*70
$GAGSV,2,1,05,12,24,277,32,31,42,252,37,33,67,338,38,07,26,066,27,2*77
$GAGSV,2,2,05,26,39,064,30,2*4C
$GAGSV,2,1,07,12,24,277,29,24,22,310,27,31,42,252,39,33,67,338,45,7*79
$GAGSV,2,2,07,29,28,126,21,07,26,066,25,26,39,064,32,7*4A
$GNGGA,081157.00,3959.66950957,N,11628.99160297,E,4,19,0.9,35.3933,M,-8.1142,M,2.0,1828*7A
$GNRMC,081157.00,D,3959.66950957,N,11628.99160297,E,18.977,84.5,090425,7.3,W,R,S*5B
$GPGSV,2,1,06,06,64,030,44,11,59,307,41,12,35,281,41,20,48,235,41,1*6F
$GPGSV,2,2,06,04,19,051,33,19,53,131,42,1*61
$GPGSV,2,1,07,06,64,030,41,11,59,307,42,12,35,281,38,20,48,235,32,4*67
$GPGSV,2,2,07,04,19,051,27,19,53,131,36,09,34,084,21,4*52
$GPGSV,1,1,04,06,64,030,39,11,59,307,42,04,19,051,28,09,34,084,26,8*6E
$GLGSV,2,1,07,80,20,304,39,82,20,305,37,79,18,249,35,81,56,349,33,1*7B
$GLGSV,2,2,07,66,53,137,48,65,44,050,39,88,39,079,47,1*4B
$GLGSV,1,1,04,82,20,305,32,81,56,349,22,66,53,137,40,88,39,079,39,3*7C
$GBGSV,4,1,14,10,74,224,41,35,77,048,46,44,42,307,42,13,45,228,37,1*76
$GBGSV,4,2,14,19,60,088,43,20,22,042,33,22,40,179,40,08,60,230,39,1*72
$GBGSV,4,3,14,38,74,235,45,40,63,145,44,59,37,145,28,07,68,183,40,1*7D
$GBGSV,4,4,14,01,36,139,23,60,30,229,32,1*70
$GBGSV,3,1,11,10,74,224,31,35,77,048,37,44,42,307,35,13,45,228,30,8*7B
$GBGSV,3,2,11,19,60,088,37,20,22,042,21,22,40,179,35,08,60,230,30,8*72
$GBGSV,3,3,11,38,74,235,36,40,63,145,35,07,68,183,34,8*45
$GBGSV,2,1,05,10,74,224,41,13,45,228,35,08,60,230,40,07,68,183,42,B*03
$GBGSV,2,2,05,01,36,139,25,B*38
$GAGSV,2,1,07,12,24,277,30,24,22,310,19,31,42,252,34,33,67,338,35,1*70
$GAGSV,2,2,07,29,28,126,19,07,26,066,26,26,39,064,27,1*40
$GAGSV,2,1,07,12,24,277,33,24,22,310,19,31,42,252,37,33,67,338,38,2*7E
$GAGSV,2,2,07,29,28,126,20,07,26,066,32,26,39,064,30,2*4A
$GAGSV,2,1,07,12,24,277,29,24,22,310,21,31,42,252,39,33,67,338,45,7*7F
$GAGSV,2,2,07,29,28,126,21,07,26,066,33,26,39,064,33,7*4C
$GNGGA,081158.00,3959.66994432,N,11628.99827779,E,4,19,0.9,35.4987,M,-8.1140,M,2.0,1828*76
$GNRMC,081158.00,D,3959.66994432,N,11628.99827779,E,18.179,85.7,090425,7.3,W,R,S*58
$GPGSV,2,1,07,06,64,030,44,11,59,307,41,12,35,281,41,20,48,235,41,1*6E
$GPGSV,2,2,07,17,26,134,25,19,53,131,42,09,34,084,30,1*5A
$GPGSV,2,1,08,06,64,030,41,11,59,307,42,12,35,281,39,20,48,235,31,4*6A
$GPGSV,2,2,08,04,19,051,21,17,26,134,22,19,53,131,35,09,34,084,21,4*6C
$GPGSV,1,1,03,06,64,030,39,11,59,307,42,09,34,084,22,8*5F
$GLGSV,2,1,05,82,20,305,31,81,56,349,33,66,53,137,48,65,44,050,30,1*7C
$GLGSV,2,2,05,88,39,079,48,1*45
$GLGSV,1,1,04,82,20,305,27,81,56,349,26,66,53,137,40,88,39,079,39,3*7C
$GBGSV,4,1,14,10,74,224,41,35,77,048,46,44,42,307,42,13,45,228,38,1*79
$GBGSV,4,2,14,19,60,088,43,20,22,042,33,22,40,179,31,08,60,230,38,1*75
$GBGSV,4,3,14,38,74,235,45,40,63,145,43,59,37,145,27,07,68,183,40,1*75
$GBGSV,4,4,14,01,36,139,29,60,30,229,30,1*78
$GBGSV,3,1,10,10,74,224,31,35,77,048,36,44,42,307,35,13,45,228,30,8*7B
$GBGSV,3,2,10,19,60,088,37,20,22,042,28,08,60,230,30,38,74,235,36,8*7E
$GBGSV,3,3,10,40,63,145,35,07,68,183,33,8*7A
$GBGSV,2,1,05,10,74,224,41,13,45,228,35,08,60,230,39,07,68,183,42,B*0D
$GBGSV,2,2,05,01,36,139,30,B*3C
$GAGSV,2,1,07,12,24,277,29,24,22,310,18,31,42,252,35,33,67,338,35,1*78
$GAGSV,2,2,07,29,28,126,18,07,26,066,30,26,39,064,33,1*43
$GAGSV,2,1,07,12,24,277,33,24,22,310,18,31,42,252,37,33,67,338,38,2*7F
$GAGSV,2,2,07,29,28,126,20,07,26,066,36,26,39,064,36,2*48
$GAGSV,2,1,07,12,24,277,29,24,22,310,20,31,42,252,40,33,67,338,45,7*70
$GAGSV,2,2,07,29,28,126,22,07,26,066,37,26,39,064,40,7*4F
$GNGGA,081159.00,3959.67028318,N,11629.00457435,E,4,17,1.0,35.5296,M,-8.1137,M,1.0,1828*79
$GNRMC,081159.00,D,3959.67028318,N,11629.00457435,E,16.949,86.6,090425,7.3,W,R,S*5F
$GPGSV,2,1,07,06,64,030,43,11,59,307,41,12,35,281,41,20,48,235,41,1*69
$GPGSV,2,2,07,17,26,134,25,19,53,131,41,09,34,084,21,1*59
$GPGSV,2,1,07,06,64,030,41,11,59,307,42,12,35,281,39,20,48,235,31,4*65
$GPGSV,2,2,07,04,19,051,18,19,53,131,34,09,34,084,20,4*5D
$GPGSV,1,1,03,06,64,030,38,11,59,307,42,09,34,084,20,8*5C
$GLGSV,1,1,03,82,20,305,31,66,53,137,47,88,39,079,46,1*41
$GLGSV,1,1,03,81,56,349,28,66,53,137,39,88,39,079,37,3*4E
$GBGSV,4,1,15,10,74,224,41,35,77,048,46,44,42,307,34,13,45,228,37,1*76
$GBGSV,4,2,15,19,60,088,43,20,22,042,30,22,40,179,31,08,60,230,38,1*77
$GBGSV,4,3,15,38,74,235,45,40,63,145,43,59,37,145,31,07,68,183,40,1*73
$GBGSV,4,4,15,01,36,139,30,60,30,229,30,04,27,122,26,1*45
$GBGSV,3,1,10,10,74,224,31,35,77,048,36,44,42,307,27,13,45,228,30,8*78
$GBGSV,3,2,10,19,60,088,38,20,22,042,21,08,60,230,30,38,74,235,36,8*78
$GBGSV,3,3,10,40,63,145,35,07,68,183,33,8*7A
$GBGSV,2,1,06,10,74,224,41,13,45,228,34,08,60,230,39,07,68,183,42,B*0F
$GBGSV,2,2,06,01,36,139,30,04,27,122,23,B*0E
$GAGSV,2,1,07,12,24,277,29,24,22,310,16,31,42,252,35,33,67,338,35,1*76
$GAGSV,2,2,07,29,28,126,17,07,26,066,38,26,39,064,36,1*41
$GAGSV,2,1,07,12,24,277,33,24,22,310,17,31,42,252,37,33,67,338,38,2*70
$GAGSV,2,2,07,29,28,126,19,07,26,066,40,26,39,064,38,2*4D
$GAGSV,2,1,07,12,24,277,29,24,22,310,18,31,42,252,41,33,67,338,45,7*7A
$GAGSV,2,2,07,29,28,126,22,07,26,066,42,26,39,064,42,7*4F
$GNGGA,081200.00,3959.67049939,N,11629.01041715,E,4,13,1.3,35.5708,M,-8.1136,M,1.0,1828*7F
$GNRMC,081200.00,D,3959.67049939,N,11629.01041715,E,15.481,87.9,090425,7.3,W,R,S*59
$GPGSV,2,1,07,06,64,030,38,11,59,307,40,12,35,281,40,20,48,235,41,1*65
$GPGSV,2,2,07,17,26,134,25,19,53,131,41,09,34,084,17,1*5C
$GPGSV,2,1,08,06,64,030,34,11,59,307,41,12,35,281,38,20,48,235,30,4*6B
$GPGSV,2,2,08,04,19,051,16,17,26,134,24,19,53,131,34,09,34,084,21,4*6F
$GPGSV,1,1,03,06,64,030,34,11,59,307,42,09,34,084,20,8*50
$GLGSV,1,1,03,82,20,305,22,66,53,137,47,88,39,079,39,1*4B
$GLGSV,1,1,03,81,56,349,29,66,53,137,39,88,39,079,32,3*4A
$GBGSV,4,1,13,10,74,224,40,35,77,048,46,44,42,307,27,13,45,228,37,1*73
$GBGSV,4,2,13,19,59,088,43,20,22,042,27,08,60,230,38,38,74,235,45,1*79
$GBGSV,4,3,13,40,63,145,44,59,37,145,32,07,68,183,39,01,36,139,29,1*76
$GBGSV,4,4,13,60,30,229,23,1*49
$GBGSV,3,1,10,10,74,224,31,35,77,048,36,44,42,307,26,13,45,228,30,8*79
$GBGSV,3,2,10,19,59,088,37,20,22,042,20,08,60,230,30,38,74,235,35,8*7F
$GBGSV,3,3,10,40,63,145,35,07,68,183,33,8*7A
$GBGSV,2,1,06,10,74,224,41,13,45,228,33,08,60,230,39,07,68,183,41,B*0B
$GBGSV,2,2,06,01,36,139,29,04,27,122,30,B*04
$GAGSV,2,1,07,12,24,277,29,24,22,310,14,31,42,252,36,33,67,338,35,1*77
$GAGSV,2,2,07,29,28,126,16,07,26,066,37,26,39,064,36,1*4F
$GAGSV,2,1,07,12,24,277,33,24,22,310,16,31,42,252,37,33,67,338,38,2*71
$GAGSV,2,2,07,29,28,126,19,07,26,066,40,26,39,064,39,2*4C
$GAGSV,2,1,07,12,24,277,29,24,22,310,16,31,42,252,40,33,67,338,43,7*73
$GAGSV,2,2,07,29,28,126,23,07,26,066,40,26,39,064,41,7*4F
$GNGGA,081201.00,3959.67062683,N,11629.01573830,E,4,13,1.3,35.6030,M,-8.1134,M,1.0,1828*78
$GNRMC,081201.00,D,3959.67062683,N,11629.01573830,E,14.202,89.6,090425,7.3,W,R,S*5E
$GPGSV,2,1,07,06,64,030,37,11,59,307,41,12,35,281,41,20,48,235,42,1*69
$GPGSV,2,2,07,17,26,134,25,19,53,131,39,09,34,084,18,1*5C
$GPGSV,2,1,08,06,64,030,33,11,59,307,42,12,35,281,37,20,48,235,31,4*61
$GPGSV,2,2,08,04,19,051,17,17,26,134,23,19,53,131,32,09,34,084,20,4*6E
$GPGSV,1,1,03,06,64,030,31,11,59,307,42,09,34,084,19,8*5F
$GLGSV,1,1,04,82,20,305,32,81,56,349,46,66,53,137,46,88,39,079,38,1*7B
$GLGSV,1,1,03,81,56,349,33,66,53,137,38,88,39,079,32,3*40
$GBGSV,3,1,12,10,74,224,40,35,77,048,45,44,42,307,26,13,45,228,35,1*75
$GBGSV,3,2,12,19,59,088,43,08,60,230,37,38,74,235,45,40,63,145,42,1*76
$GBGSV,3,3,12,59,37,145,31,07,68,183,39,01,36,139,27,60,30,229,26,1*74
$GBGSV,3,1,10,10,74,224,31,35,77,048,36,44,42,307,21,13,45,228,29,8*76
$GBGSV,3,2,10,19,59,088,38,20,22,042,15,08,60,230,30,38,74,235,35,8*76
$GBGSV,3,3,10,40,63,145,34,07,68,183,33,8*7B
$GBGSV,2,1,05,10,74,224,40,13,45,228,32,08,60,230,39,07,68,183,41,B*08
$GBGSV,2,2,05,01,36,139,25,B*38
$GAGSV,2,1,07,12,24,277,27,24,22,310,13,31,42,252,34,33,67,338,34,1*7D
$GAGSV,2,2,07,29,28,126,16,07,26,066,35,26,39,064,37,1*4C
$GAGSV,2,1,07,12,24,277,31,24,22,310,15,31,42,252,36,33,67,338,38,2*71
$GAGSV,2,2,07,29,28,126,19,07,26,066,39,26,39,064,40,2*4C
$GAGSV,2,1,07,12,24,277,29,24,22,310,18,31,42,252,40,33,67,338,44,7*7A
$GAGSV,2,2,07,29,28,126,24,07,26,066,38,26,39,064,41,7*47
$GNGGA,081202.00,3959.67057202,N,11629.02065999,E,4,13,1.3,35.6818,M,-8.1132,M,1.0,1828*77
$GNRMC,081202.00,D,3959.67057202,N,11629.02065999,E,13.182,90.3,090425,7.3,W,R,S*54
$GPGSV,2,1,06,11,59,307,41,12,35,281,42,20,48,235,41,17,26,134,31,1*6D
$GPGSV,2,2,06,19,53,131,40,09,34,084,21,1*6A
$GPGSV,2,1,08,06,64,030,37,11,59,307,42,12,35,281,37,20,48,235,31,4*65
$GPGSV,2,2,08,04,19,051,18,17,26,134,23,19,53,131,32,09,34,084,19,4*6B
$GPGSV,1,1,03,06,64,030,36,11,59,307,42,09,34,084,18,8*59
$GLGSV,1,1,04,82,20,305,33,81,56,349,36,66,53,137,47,88,39,079,35,1*71
$GLGSV,1,1,03,81,56,349,29,66,53,137,39,88,39,079,28,3*41
$GBGSV,3,1,12,10,74,224,40,35,77,049,45,13,45,228,35,19,59,088,44,1*76
$GBGSV,3,2,12,08,60,230,38,38,74,235,45,40,63,145,42,59,37,145,31,1*70
$GBGSV,3,3,12,07,68,183,38,01,36,139,25,60,30,229,24,04,27,122,30,1*7C
$GBGSV,3,1,09,10,74,224,31,35,77,049,36,13,45,228,28,19,59,088,38,8*70
$GBGSV,3,2,09,20,22,042,15,08,60,230,30,38,74,235,35,40,63,145,35,8*76
$GBGSV,3,3,09,07,68,183,33,8*45
$GBGSV,2,1,05,10,74,224,40,13,45,228,33,08,60,230,39,07,68,183,41,B*09
$GBGSV,2,2,05,01,36,139,30,B*3C
$GAGSV,2,1,07,12,24,277,27,24,22,310,12,31,42,252,34,33,67,338,34,1*7C
$GAGSV,2,2,07,29,28,126,18,07,26,066,35,26,39,064,38,1*4D
$GAGSV,2,1,07,12,24,277,31,24,22,310,16,31,42,252,36,33,67,338,39,2*73
$GAGSV,2,2,07,29,28,126,19,07,26,066,39,26,39,064,40,2*4C
$GAGSV,2,1,07,12,24,277,30,24,22,310,20,31,42,252,41,33,67,338,45,7*79
$GAGSV,2,2,07,29,28,126,25,07,26,066,39,26,39,064,41,7*47
$GNGGA,081203.00,3959.67042784,N,11629.02525588,E,4,13,1.3,35.6784,M,-8.1131,M,1.0,1828*7D
$GNRMC,081203.00,D,3959.67042784,N,11629.02525588,E,12.283,93.3,090425,7.3,W,R,S*57
$GPGSV,2,1,06,11,59,307,40,12,35,281,43,20,48,235,41,17,26,134,31,1*6D
$GPGSV,2,2,06,19,53,131,40,09,34,084,20,1*6B
$GPGSV,2,1,08,06,64,030,39,11,59,307,42,12,35,281,37,20,48,235,31,4*6B
$GPGSV,2,2,08,04,19,051,18,17,26,134,25,19,53,131,33,09,34,084,19,4*6C
$GPGSV,1,1,03,06,64,030,39,11,59,307,43,09,34,084,17,8*58
$GLGSV,1,1,04,82,20,305,35,81,56,349,30,66,53,137,48,88,39,079,32,1*79
$GLGSV,1,1,03,81,56,349,20,66,53,137,39,88,39,079,23,3*43
$GBGSV,3,1,12,10,74,224,40,35,77,049,45,13,45,229,36,19,59,088,44,1*74
$GBGSV,3,2,12,08,60,230,38,38,74,235,45,40,63,145,43,59,37,145,27,1*76
$GBGSV,3,3,12,07,68,183,38,01,36,139,30,60,30,229,24,04,27,122,24,1*7D
$GBGSV,3,1,09,10,74,224,32,35,77,049,36,13,45,229,29,19,59,088,38,8*73
$GBGSV,3,2,09,20,22,042,18,08,60,230,30,38,74,235,35,40,63,145,36,8*78
$GBGSV,3,3,09,07,68,183,34,8*42
$GBGSV,2,1,06,10,74,224,41,13,45,229,34,08,60,230,39,07,68,183,41,B*0D
$GBGSV,2,2,06,01,36,139,28,04,27,122,23,B*07
$GAGSV,2,1,07,12,24,277,28,24,22,310,11,31,42,252,34,33,67,338,30,1*74
$GAGSV,2,2,07,29,28,126,21,07,26,066,35,26,39,064,39,1*46
$GAGSV,2,1,07,12,24,277,32,24,22,310,15,31,42,252,36,33,67,338,31,2*7B
$GAGSV,2,2,07,29,28,126,21,07,26,066,38,26,39,064,41,2*47
$GAGSV,2,1,07,12,24,277,30,24,22,310,19,31,42,252,41,33,67,338,37,7*76
$GAGSV,2,2,07,29,28,126,26,07,26,066,40,26,39,064,42,7*49
$GNGGA,081204.00,3959.67010557,N,11629.02960674,E,4,15,1.3,35.6982,M,-8.1129,M,1.0,1828*7B
$GNRMC,081204.00,D,3959.67010557,N,11629.02960674,E,11.967,97.4,090425,7.3,W,R,S*57
$GPGSV,2,1,06,11,59,307,40,12,35,281,42,20,48,235,41,17,26,134,34,1*69
$GPGSV,2,2,06,19,53,131,41,09,34,084,21,1*6B
$GPGSV,2,1,08,06,64,030,40,11,59,307,42,12,35,281,36,20,48,235,32,4*67
$GPGSV,2,2,08,04,19,051,25,17,26,134,27,19,53,131,34,09,34,084,18,4*66
$GPGSV,1,1,03,06,64,030,40,11,59,307,43,09,34,084,16,8*57
$GLGSV,1,1,04,82,20,305,33,81,56,349,27,66,53,137,48,88,39,079,31,1*7A
$GLGSV,1,1,03,81,56,349,18,66,53,137,39,88,39,079,23,3*48
$GBGSV,3,1,12,10,74,224,40,35,77,049,45,13,45,229,37,19,59,088,43,1*72
$GBGSV,3,2,12,08,60,230,39,38,74,235,45,40,63,145,43,59,37,145,30,1*71
$GBGSV,3,3,12,07,68,183,38,01,36,139,30,60,30,229,23,04,27,122,29,1*77
$GBGSV,3,1,11,10,74,224,32,35,77,049,36,44,42,307,31,13,45,229,29,8*75
$GBGSV,3,2,11,19,59,088,38,20,22,042,22,22,40,179,21,08,60,230,31,8*70
$GBGSV,3,3,11,38,74,235,35,40,63,145,36,07,68,183,35,8*44
$GBGSV,2,1,05,10,74,224,41,13,45,229,34,08,60,230,39,07,68,183,41,B*0E
$GBGSV,2,2,05,01,36,139,27,B*3A
$GAGSV,2,1,07,12,24,277,28,24,22,310,11,31,42,252,35,33,67,338,29,1*7D
$GAGSV,2,2,07,29,28,126,21,07,26,066,36,26,39,064,40,1*4B
$GAGSV,2,1,07,12,24,277,33,24,22,310,14,31,42,252,37,33,67,338,32,2*79
$GAGSV,2,2,07,29,28,126,20,07,26,066,38,26,39,064,42,2*45
$GAGSV,2,1,07,12,24,277,29,24,22,310,20,31,42,252,41,33,67,338,38,7*7B
$GAGSV,2,2,07,29,28,126,29,07,26,066,41,26,39,064,42,7*47
$GNGGA,081205.00,3959.66962526,N,11629.03383234,E,4,17,1.1,35.7272,M,-8.1128,M,1.0,1828*73
$GNRMC,081205.00,D,3959.66962526,N,11629.03383234,E,11.979,100.2,090425,7.3,W,R,S*6D
$GPGSV,2,1,07,06,64,030,37,11,59,307,40,12,35,281,41,20,48,235,43,1*69
$GPGSV,2,2,07,17,26,134,32,19,53,131,40,09,34,084,21,1*5E
$GPGSV,2,1,08,06,64,030,40,11,59,307,42,12,35,281,36,20,48,235,32,4*67
$GPGSV,2,2,08,04,19,051,25,17,26,134,26,19,53,131,33,09,34,084,18,4*60
$GPGSV,1,1,03,06,64,030,40,11,59,307,44,09,34,084,16,8*50
$GLGSV,2,1,05,82,20,305,30,81,56,349,28,66,53,137,47,65,44,050,42,1*7D
$GLGSV,2,2,05,88,39,079,27,1*4C
$GLGSV,1,1,03,81,56,349,18,66,53,137,39,88,39,079,20,3*4B
$GBGSV,3,1,12,10,74,224,40,35,77,049,44,44,42,307,42,13,45,229,39,1*7A
$GBGSV,3,2,12,19,59,088,43,08,60,230,40,38,74,235,45,40,63,145,43,1*77
$GBGSV,3,3,12,59,37,145,34,07,68,183,38,01,36,139,30,60,30,229,25,1*75
$GBGSV,3,1,11,10,74,224,32,35,77,049,36,44,42,307,33,13,45,229,29,8*77
$GBGSV,3,2,11,19,59,088,37,20,22,042,25,22,40,179,29,08,60,230,32,8*73
$GBGSV,3,3,11,38,74,235,35,40,63,145,37,07,68,183,35,8*45
$GBGSV,2,1,05,10,74,224,40,13,45,229,36,08,60,230,39,07,68,183,41,B*0D
$GBGSV,2,2,05,01,36,139,29,B*34
$GAGSV,2,1,06,12,24,277,29,31,42,252,36,33,67,338,34,29,28,126,21,1*71
$GAGSV,2,2,06,07,26,066,37,26,39,064,39,1*72
$GAGSV,2,1,06,12,24,277,32,31,42,252,38,33,67,338,37,29,28,126,19,2*7E
$GAGSV,2,2,06,07,26,066,39,26,39,064,43,2*72
$GAGSV,2,1,07,12,24,277,30,24,22,310,19,31,42,252,40,33,67,338,43,7*74
$GAGSV,2,2,07,29,28,126,27,07,26,066,41,26,39,064,41,7*4A
$GNGGA,081206.00,3959.66895683,N,11629.03824327,E,4,19,0.9,35.7860,M,-8.1127,M,1.0,1828*71
$GNRMC,081206.00,D,3959.66895683,N,11629.03824327,E,12.841,102.0,090425,7.3,W,R,S*67
$GPGSV,2,1,07,06,64,030,36,11,59,307,39,12,35,281,40,20,48,235,43,1*67
$GPGSV,2,2,07,17,26,134,31,19,53,131,40,09,34,084,21,1*5D
$GPGSV,2,1,08,06,64,030,40,11,59,307,41,12,35,281,36,20,48,235,33,4*65
$GPGSV,2,2,08,04,19,051,22,17,26,134,25,19,53,131,33,09,34,084,19,4*65
$GPGSV,1,1,03,06,64,030,41,11,59,307,42,09,34,084,16,8*57
$GLGSV,2,1,05,82,20,305,30,81,56,349,29,66,53,137,45,65,44,050,40,1*7C
$GLGSV,2,2,05,88,39,079,26,1*4D
$GLGSV,1,1,03,81,56,349,20,66,53,137,37,88,39,079,19,3*44
$GBGSV,4,1,13,10,74,224,39,35,77,049,44,44,42,307,37,13,45,229,40,1*7E
$GBGSV,4,2,13,19,59,088,42,20,22,042,38,08,60,230,41,38,74,235,44,1*79
$GBGSV,4,3,13,40,63,145,43,59,37,145,32,07,68,183,39,01,36,139,25,1*7D
$GBGSV,4,4,13,60,30,229,26,1*4C
$GBGSV,3,1,11,10,74,224,33,35,77,049,36,44,42,307,33,13,45,229,29,8*76
$GBGSV,3,2,11,19,59,088,38,20,22,042,26,22,40,179,31,08,60,230,33,8*77
$GBGSV,3,3,11,38,74,235,36,40,63,145,37,07,68,183,35,8*46
$GBGSV,2,1,05,10,74,224,41,13,45,229,36,08,60,230,38,07,68,183,41,B*0D
$GBGSV,2,2,05,01,36,139,25,B*38
$GAGSV,2,1,06,12,24,277,29,31,42,252,36,33,67,338,36,29,28,126,20,1*72
$GAGSV,2,2,06,07,26,066,36,26,39,064,39,1*73
$GAGSV,2,1,07,12,24,277,32,24,22,310,15,31,42,252,38,33,67,338,38,2*7C
$GAGSV,2,2,07,29,28,126,19,07,26,066,40,26,39,064,43,2*41
$GAGSV,2,1,07,12,24,277,31,24,22,310,20,31,42,252,39,33,67,338,44,7*76
$GAGSV,2,2,07,29,28,126,35,07,26,066,40,26,39,064,40,7*49
$GNGGA,081207.00,3959.66810025,N,11629.04291989,E,4,16,1.1,35.8103,M,-8.1126,M,1.0,1828*7E
$GNRMC,081207.00,D,3959.66810025,N,11629.04291989,E,13.483,103.9,090425,7.3,W,R,S*67
$GPGSV,2,1,07,06,64,030,38,11,59,307,40,12,35,281,40,20,48,235,43,1*67
$GPGSV,2,2,07,17,26,134,30,19,53,131,38,09,34,084,20,1*52
$GPGSV,2,1,08,06,64,030,40,11,59,307,43,12,35,281,36,20,48,235,34,4*60
$GPGSV,2,2,08,04,19,051,20,17,26,134,24,19,53,131,31,09,34,084,20,4*6E
$GPGSV,1,1,03,06,64,030,41,11,59,307,44,09,34,084,15,8*52
$GLGSV,2,1,05,82,20,305,36,81,56,349,30,66,53,137,40,65,44,050,39,1*79
$GLGSV,2,2,05,88,39,079,26,1*4D
$GLGSV,1,1,03,81,56,349,21,66,53,137,32,88,39,079,20,3*4A
$GBGSV,4,1,13,10,74,224,39,35,77,049,44,44,42,307,31,13,45,229,38,1*77
$GBGSV,4,2,13,19,59,088,42,20,22,042,31,08,60,230,41,38,74,235,44,1*70
$GBGSV,4,3,13,40,63,145,43,59,37,145,30,07,68,183,39,01,36,139,27,1*7D
$GBGSV,4,4,13,60,30,229,24,1*4E
$GBGSV,3,1,11,10,74,224,33,35,77,049,36,44,42,307,25,13,45,229,27,8*7F
$GBGSV,3,2,11,19,59,088,38,20,22,042,25,22,40,179,33,08,60,230,33,8*76
$GBGSV,3,3,11,38,74,235,36,40,63,145,38,07,68,183,35,8*49
$GBGSV,2,1,05,10,74,224,41,13,45,229,36,08,60,230,38,07,68,183,41,B*0D
$GBGSV,2,2,05,01,36,139,25,B*38
$GAGSV,2,1,06,12,24,277,28,31,42,252,35,33,67,338,37,29,28,126,20,1*71
$GAGSV,2,2,06,07,26,066,36,26,39,064,39,1*73
$GAGSV,2,1,07,12,24,277,31,24,22,310,16,31,42,252,37,33,67,338,40,2*7C
$GAGSV,2,2,07,29,28,126,23,07,26,066,40,26,39,064,43,2*48
$GAGSV,2,1,07,12,24,277,31,24,22,310,19,31,42,252,39,33,67,338,43,7*7B
$GAGSV,2,2,07,29,28,126,39,07,26,066,39,26,39,064,40,7*4B
$GNGGA,081208.00,3959.66704332,N,11629.04779396,E,4,16,1.1,35.8440,M,-8.1124,M,1.0,1828*79
$GNRMC,081208.00,D,3959.66704332,N,11629.04779396,E,14.379,107.5,090425,7.3,W,R,S*6D
$GPGSV,2,1,07,06,64,030,38,11,59,307,41,12,35,281,38,20,48,235,45,1*6F
$GPGSV,2,2,07,17,26,134,31,19,53,131,41,09,34,084,20,1*5D
$GPGSV,2,1,08,06,64,030,40,11,59,307,43,12,35,281,35,20,48,235,34,4*63
$GPGSV,2,2,08,04,19,051,17,17,26,134,23,19,53,131,35,09,34,084,20,4*69
$GPGSV,1,1,03,06,64,030,41,11,59,307,44,09,34,084,16,8*51
