$GNGGA,041616.00,3958.83878665,N,11629.00489686,E,2,12,2.4,39.7598,M,-8.1317,M,1.0,1828*7A
$GNRMC,041616.00,A,3958.83878665,N,11629.00489686,E,0.122,45.0,240425,7.2,W,D,C*69
$GPGSV,1,1,03,01,32,049,46,17,70,352,45,22,76,258,43,1*55
$GPGSV,1,1,03,01,32,049,36,17,70,352,36,22,76,258,35,4*52
$GPGSV,1,1,01,01,32,049,35,8*57
$GLGSV,1,1,02,86,51,024,46,76,49,201,41,1*7E
$GLGSV,1,1,02,86,51,024,36,76,49,201,29,3*75
$GBGSV,2,1,07,10,70,306,37,27,31,065,40,30,71,353,47,38,37,172,42,1*7B
$GBGSV,2,2,07,40,72,038,45,45,28,305,43,08,25,177,34,1*49
$GBGSV,2,1,05,10,70,306,30,30,71,353,34,38,37,172,34,40,72,038,30,8*7B
$GBGSV,2,2,05,45,28,305,35,8*41
$GBGSV,1,1,02,10,70,306,36,08,25,177,31,B*0D
$GAGSV,1,1,04,11,41,045,31,16,23,147,35,25,47,154,41,36,82,272,36,1*79
$GAGSV,1,1,04,11,41,045,34,16,23,147,36,25,47,154,43,36,82,272,37,2*7F
$GAGSV,1,1,04,11,41,045,39,16,23,147,41,25,47,154,42,36,82,272,39,7*78
$GNGGA,041617.00,3958.83866917,N,11629.00436939,E,2,12,2.4,38.9775,M,-8.1318,M,1.0,1828*70
$GNRMC,041617.00,A,3958.83866917,N,11629.00436939,E,0.086,62.0,240425,7.2,W,D,C*68
$GPGSV,1,1,03,01,32,049,46,17,70,352,45,22,76,258,43,1*55
$GPGSV,1,1,03,01,32,049,36,17,70,352,36,22,76,258,35,4*52
$GPGSV,1,1,01,01,32,049,35,8*57
$GLGSV,1,1,02,86,51,024,46,76,49,201,41,1*7E
$GLGSV,1,1,02,86,51,024,36,76,49,201,30,3*7D
$GBGSV,2,1,07,10,70,306,37,27,31,065,40,30,71,353,47,38,37,172,42,1*7B
$GBGSV,2,2,07,40,72,038,45,45,28,305,43,08,25,177,34,1*49
$GBGSV,2,1,05,10,70,306,29,30,71,353,34,38,37,172,33,40,72,038,30,8*74
$GBGSV,2,2,05,45,28,305,35,8*41
$GBGSV,1,1,02,10,70,306,36,08,25,177,31,B*0D
$GAGSV,1,1,04,11,41,045,31,16,23,147,35,25,47,154,41,36,82,272,36,1*79
$GAGSV,1,1,04,11,41,045,34,16,23,147,36,25,47,154,42,36,82,272,37,2*7E
$GAGSV,1,1,04,11,41,045,39,16,23,147,41,25,47,154,42,36,82,272,39,7*78
$GNGGA,041618.00,3958.83841295,N,11629.00381167,E,2,12,2.4,38.1041,M,-8.1318,M,1.0,1828*7B
$GNRMC,041618.00,A,3958.83841295,N,11629.00381167,E,0.069,48.7,240425,7.2,W,D,C*65
$GPGSV,1,1,03,01,32,049,46,17,70,352,45,22,76,258,43,1*55
$GPGSV,1,1,03,01,32,049,36,17,70,352,37,22,76,258,35,4*53
$GPGSV,1,1,01,01,32,049,35,8*57
$GLGSV,1,1,02,86,51,024,46,76,49,201,42,1*7D
$GLGSV,1,1,02,86,51,024,36,76,49,201,31,3*7C
$GBGSV,2,1,07,10,70,306,37,27,31,065,39,30,71,354,47,38,37,172,43,1*73
$GBGSV,2,2,07,40,72,038,46,45,28,305,43,08,25,177,33,1*4D
$GBGSV,2,1,05,10,70,306,30,30,71,354,34,38,37,172,34,40,72,038,31,8*7D
$GBGSV,2,2,05,45,28,305,34,8*40
$GBGSV,1,1,02,10,70,306,37,08,25,177,31,B*0C
$GAGSV,1,1,04,11,41,045,31,16,23,147,36,25,47,154,41,36,82,272,36,1*7A
$GAGSV,1,1,04,11,41,045,35,16,23,147,37,25,47,154,43,36,82,272,37,2*7F
$GAGSV,1,1,04,11,41,045,39,16,23,147,40,25,47,154,42,36,82,272,39,7*79
$GNGGA,041619.00,3958.83838596,N,11629.00363410,E,2,14,1.8,37.4685,M,-8.1318,M,1.0,1828*74
$GNRMC,041619.00,A,3958.83838596,N,11629.00363410,E,0.041,54.9,240425,7.2,W,D,C*6E
$GPGSV,2,1,05,01,32,049,46,03,45,078,37,14,66,186,41,17,70,352,45,1*6F
$GPGSV,2,2,05,22,76,258,43,1*58
$GPGSV,2,1,05,01,32,049,36,03,45,078,36,14,66,186,40,17,70,352,37,4*68
$GPGSV,2,2,05,22,76,258,36,4*5F
$GPGSV,1,1,03,01,32,049,34,03,45,078,40,14,66,186,41,8*52
$GLGSV,1,1,02,86,51,024,46,76,49,201,41,1*7E
$GLGSV,1,1,02,86,51,024,37,76,49,201,31,3*7D
$GBGSV,2,1,07,10,70,306,37,27,31,065,39,30,71,354,47,38,37,172,42,1*72
$GBGSV,2,2,07,40,72,038,46,45,28,305,43,08,25,177,34,1*4A
$GBGSV,2,1,05,10,70,306,30,30,71,354,35,38,37,172,35,40,72,038,32,8*7E
$GBGSV,2,2,05,45,28,305,34,8*40
$GBGSV,1,1,02,10,70,306,37,08,25,177,30,B*0D
$GAGSV,1,1,04,11,41,045,31,16,23,147,36,25,47,154,41,36,82,272,37,1*7B
$GAGSV,1,1,04,11,41,045,35,16,23,147,38,25,47,154,44,36,82,272,38,2*78
$GAGSV,1,1,04,11,41,045,40,16,23,147,40,25,47,154,42,36,82,272,39,7*77
$GNGGA,041620.00,3958.83833245,N,11629.00338106,E,2,14,1.8,36.9420,M,-8.1318,M,1.0,1828*71
$GNRMC,041620.00,A,3958.83833245,N,11629.00338106,E,0.011,86.4,240425,7.3,W,D,C*6C
$GPGSV,2,1,05,01,32,049,46,03,45,078,38,14,66,186,41,17,70,352,45,1*60
$GPGSV,2,2,05,22,76,258,43,1*58
$GPGSV,2,1,05,01,32,049,36,03,45,078,36,14,66,186,40,17,70,352,37,4*68
$GPGSV,2,2,05,22,76,258,36,4*5F
$GPGSV,1,1,03,01,32,049,34,03,45,078,40,14,66,186,41,8*52
$GLGSV,1,1,02,86,51,024,46,76,49,201,41,1*7E
$GLGSV,1,1,02,86,51,024,37,76,49,201,31,3*7D
$GBGSV,2,1,07,10,70,306,37,27,31,065,39,30,71,354,47,38,37,172,42,1*72
$GBGSV,2,2,07,40,72,038,45,45,28,305,42,08,25,177,35,1*49
$GBGSV,2,1,05,10,70,306,30,30,71,354,35,38,37,172,34,40,72,038,32,8*7F
$GBGSV,2,2,05,45,28,305,34,8*40
$GBGSV,1,1,02,10,70,306,37,08,25,177,29,B*05
$GAGSV,1,1,04,11,41,045,30,16,23,147,35,25,47,154,41,36,82,272,37,1*79
$GAGSV,1,1,04,11,41,045,36,16,23,147,38,25,47,154,44,36,82,272,38,2*7B
$GAGSV,1,1,04,11,41,045,40,16,23,147,40,25,47,154,42,36,82,272,39,7*77
$GNGGA,041621.00,3958.83828799,N,11629.00313166,E,2,14,1.8,36.4981,M,-8.1318,M,1.0,1828*7A
$GNRMC,041621.00,A,3958.83828799,N,11629.00313166,E,0.022,23.8,240425,7.3,W,D,C*6F
$GPGSV,2,1,05,01,32,049,46,03,45,078,38,14,66,186,41,17,70,352,45,1*60
$GPGSV,2,2,05,22,76,258,44,1*5F
$GPGSV,2,1,05,01,32,049,36,03,45,078,36,14,66,186,41,17,70,352,37,4*69
$GPGSV,2,2,05,22,76,258,36,4*5F
$GPGSV,1,1,03,01,32,049,34,03,45,078,40,14,66,186,41,8*52
$GLGSV,1,1,02,86,51,024,46,76,49,201,41,1*7E
$GLGSV,1,1,02,86,51,024,37,76,49,201,32,3*7E
$GBGSV,2,1,07,10,70,306,37,27,31,065,39,30,71,354,47,38,37,172,43,1*73
$GBGSV,2,2,07,40,72,038,46,45,28,305,42,08,25,177,34,1*4B
$GBGSV,2,1,05,10,70,306,30,30,71,354,35,38,37,172,35,40,72,038,32,8*7E
$GBGSV,2,2,05,45,28,305,34,8*40
$GBGSV,1,1,02,10,70,306,38,08,25,177,31,B*03
$GAGSV,1,1,04,11,41,045,30,16,23,147,35,25,47,154,41,36,82,272,37,1*79
$GAGSV,1,1,04,11,41,045,35,16,23,147,37,25,47,154,43,36,82,272,38,2*70
$GAGSV,1,1,04,11,41,045,40,16,23,147,39,25,47,154,42,36,82,272,39,7*79
$GNGGA,041622.00,3958.83826254,N,11629.00283028,E,2,14,1.8,36.0358,M,-8.1318,M,1.0,1828*7A
$GNRMC,041622.00,A,3958.83826254,N,11629.00283028,E,0.076,57.2,240425,7.3,W,D,C*6D
$GPGSV,2,1,05,01,32,049,46,03,45,078,38,14,66,186,40,17,70,352,45,1*61
$GPGSV,2,2,05,22,76,258,43,1*58
$GPGSV,2,1,05,01,32,049,37,03,45,078,35,14,66,186,40,17,70,352,37,4*6A
$GPGSV,2,2,05,22,76,258,36,4*5F
$GPGSV,1,1,03,01,32,049,34,03,45,078,40,14,66,186,41,8*52
$GLGSV,1,1,02,86,51,024,46,76,49,201,41,1*7E
$GLGSV,1,1,02,86,51,024,38,76,49,201,32,3*71
$GBGSV,2,1,07,10,70,306,37,27,31,065,39,30,71,354,47,38,37,172,42,1*72
$GBGSV,2,2,07,40,72,038,46,45,28,305,42,08,25,177,34,1*4B
$GBGSV,2,1,06,10,70,306,29,27,31,065,26,30,71,354,34,38,37,172,35,8*7F
$GBGSV,2,2,06,40,72,038,32,45,28,305,34,8*78
$GBGSV,1,1,02,10,70,306,37,08,25,177,30,B*0D
$GAGSV,1,1,04,11,41,045,30,16,23,147,35,25,47,154,41,36,82,272,37,1*79
$GAGSV,1,1,04,11,41,045,35,16,23,147,36,25,47,154,43,36,82,272,38,2*71
$GAGSV,1,1,04,11,41,045,40,16,23,147,39,25,47,154,42,36,82,272,40,7*77
$GNGGA,041623.00,3958.83824353,N,11629.00254457,E,2,14,1.8,35.6162,M,-8.1318,M,1.0,1828*77
$GNRMC,041623.00,A,3958.83824353,N,11629.00254457,E,0.085,73.1,240425,7.3,W,D,C*67
$GPGSV,2,1,05,01,32,049,46,03,45,078,39,14,66,186,40,17,70,352,45,1*60
$GPGSV,2,2,05,22,76,258,43,1*58
$GPGSV,2,1,05,01,32,049,36,03,45,078,35,14,66,186,41,17,70,352,37,4*6A
$GPGSV,2,2,05,22,76,258,36,4*5F
$GPGSV,1,1,03,01,32,049,34,03,45,078,40,14,66,186,41,8*52
$GLGSV,1,1,02,86,51,024,46,76,49,201,41,1*7E
$GLGSV,1,1,02,86,51,024,38,76,49,201,32,3*71
$GBGSV,2,1,07,10,70,306,37,27,31,065,39,30,71,354,47,38,37,172,43,1*73
$GBGSV,2,2,07,40,72,038,46,45,28,305,42,08,25,177,33,1*4C
$GBGSV,2,1,06,10,70,306,29,27,31,065,26,30,71,354,35,38,37,172,34,8*7F
$GBGSV,2,2,06,40,72,038,32,45,28,305,34,8*78
$GBGSV,1,1,02,10,70,306,37,08,25,177,30,B*0D
$GAGSV,1,1,04,11,41,045,30,16,23,147,35,25,47,154,41,36,82,272,37,1*79
$GAGSV,1,1,04,11,41,045,35,16,23,147,36,25,47,154,43,36,82,272,38,2*71
$GAGSV,1,1,04,11,41,045,40,16,23,147,39,25,47,154,42,36,82,272,39,7*79
$GNGGA,041624.00,3958.83822176,N,11629.00224466,E,2,17,1.5,35.1763,M,-8.1318,M,1.0,1828*78
$GNRMC,041624.00,A,3958.83822176,N,11629.00224466,E,0.052,261.9,240425,7.3,W,D,C*55
$GPGSV,2,1,05,01,32,049,46,03,45,078,39,14,66,186,40,17,70,352,45,1*60
$GPGSV,2,2,05,22,76,258,43,1*58
$GPGSV,2,1,05,01,32,049,36,03,45,078,35,14,66,186,40,17,70,352,37,4*6B
$GPGSV,2,2,05,22,76,258,35,4*5C
$GPGSV,1,1,03,01,32,049,34,03,45,078,40,14,66,186,41,8*52
$GLGSV,1,1,02,86,51,024,45,76,49,201,41,1*7D
$GLGSV,1,1,02,86,51,024,38,76,49,201,32,3*71
$GBGSV,3,1,10,03,42,189,42,10,70,306,37,27,31,065,39,30,71,354,47,1*7B
$GBGSV,3,2,10,38,37,172,43,40,72,038,46,45,28,305,42,59,35,146,40,1*74
$GBGSV,3,3,10,01,35,140,41,08,25,177,33,1*7E
$GBGSV,2,1,08,03,42,189,31,10,70,306,29,27,31,065,26,30,71,354,35,8*7A
$GBGSV,2,2,08,38,37,172,35,40,72,038,32,45,28,305,33,59,35,146,30,8*76
$GBGSV,1,1,04,03,42,189,38,10,70,306,37,01,35,140,37,08,25,177,30,B*03
$GAGSV,1,1,04,11,41,045,31,16,23,147,36,25,47,154,41,36,82,272,37,1*7B
$GAGSV,1,1,04,11,41,045,36,16,23,147,37,25,47,154,43,36,82,272,38,2*73
$GAGSV,1,1,04,11,41,045,40,16,23,147,39,25,47,154,42,36,82,272,39,7*79
$GNGGA,041625.00,3958.83818030,N,11629.00204601,E,2,17,1.5,34.7719,M,-8.1318,M,2.0,1828*7B
$GNRMC,041625.00,A,3958.83818030,N,11629.00204601,E,0.032,238.7,240425,7.3,W,D,C*5B
$GPGSV,2,1,05,01,32,049,46,03,45,078,39,14,66,186,40,17,70,352,46,1*63
$GPGSV,2,2,05,22,76,258,43,1*58
$GPGSV,2,1,05,01,32,049,36,03,45,078,35,14,66,186,40,17,70,352,37,4*6B
$GPGSV,2,2,05,22,76,258,36,4*5F
$GPGSV,1,1,03,01,32,049,34,03,45,078,40,14,66,186,41,8*52
$GLGSV,1,1,02,86,51,024,46,76,49,201,41,1*7E
$GLGSV,1,1,02,86,51,024,38,76,49,201,33,3*70
$GBGSV,3,1,10,03,42,189,42,10,70,306,37,27,31,065,39,30,71,354,47,1*7B
$GBGSV,3,2,10,38,37,172,42,40,72,038,46,45,28,305,41,59,35,146,40,1*76
$GBGSV,3,3,10,01,35,140,41,08,25,177,32,1*7F
$GBGSV,2,1,08,03,42,189,30,10,70,306,29,27,31,065,27,30,71,354,34,8*7B
$GBGSV,2,2,08,38,37,172,35,40,72,038,32,45,28,305,33,59,35,146,30,8*76
$GBGSV,1,1,04,03,42,189,38,10,70,306,37,01,35,140,38,08,25,177,31,B*0D
$GAGSV,1,1,04,11,41,045,30,16,23,147,36,25,47,154,41,36,82,272,37,1*7A
$GAGSV,1,1,04,11,41,045,36,16,23,147,37,25,47,154,43,36,82,272,38,2*73
$GAGSV,1,1,04,11,41,045,40,16,23,147,39,25,47,154,42,36,82,272,39,7*79
$GNGGA,041626.00,3958.83821215,N,11629.00189587,E,2,17,1.5,34.5104,M,-8.1318,M,1.0,1828*77
$GNRMC,041626.00,A,3958.83821215,N,11629.00189587,E,0.041,152.8,240425,7.3,W,D,C*58
$GPGSV,2,1,05,01,32,049,47,03,45,078,39,14,66,186,39,17,70,352,45,1*6F
$GPGSV,2,2,05,22,76,258,43,1*58
$GPGSV,2,1,05,01,32,049,37,03,45,078,34,14,66,186,40,17,70,352,36,4*6A
$GPGSV,2,2,05,22,76,258,35,4*5C
$GPGSV,1,1,03,01,32,049,34,03,45,078,39,14,66,186,42,8*5F
$GLGSV,1,1,02,86,51,024,45,76,49,201,40,1*7C
$GLGSV,1,1,02,86,51,024,38,76,49,201,32,3*71
$GBGSV,3,1,10,03,42,189,42,10,70,306,37,27,31,065,39,30,71,354,47,1*7B
$GBGSV,3,2,10,38,37,172,42,40,72,038,46,45,28,305,41,59,35,146,40,1*76
$GBGSV,3,3,10,01,35,140,41,08,25,177,33,1*7E
$GBGSV,2,1,08,03,42,189,31,10,70,306,29,27,31,065,26,30,71,354,34,8*7B
$GBGSV,2,2,08,38,37,172,34,40,72,038,31,45,28,305,34,59,35,146,30,8*73
$GBGSV,1,1,04,03,42,189,38,10,70,306,37,01,35,140,38,08,25,177,31,B*0D
$GAGSV,1,1,04,11,41,045,30,16,23,147,35,25,47,154,41,36,82,272,36,1*78
$GAGSV,1,1,04,11,41,045,35,16,23,147,37,25,47,154,43,36,82,272,37,2*7F
$GAGSV,1,1,04,11,41,045,40,16,23,147,39,25,47,154,41,36,82,272,39,7*7A
$GNGGA,041627.00,3958.83816458,N,11629.00171045,E,2,17,1.5,34.1332,M,-8.1319,M,1.0,1828*73
$GNRMC,041627.00,A,3958.83816458,N,11629.00171045,E,0.043,41.2,240425,7.3,W,D,C*65
$GPGSV,2,1,05,01,32,049,46,03,45,078,40,14,66,186,40,17,70,352,45,1*6E
$GPGSV,2,2,05,22,76,258,43,1*58
$GPGSV,2,1,05,01,32,049,37,03,45,078,35,14,66,186,40,17,70,352,36,4*6B
$GPGSV,2,2,05,22,76,258,35,4*5C
$GPGSV,1,1,03,01,32,049,34,03,45,078,39,14,66,186,41,8*5C
$GLGSV,1,1,02,86,51,024,45,76,49,201,40,1*7C
$GLGSV,1,1,02,86,51,024,38,76,49,201,32,3*71
$GBGSV,3,1,10,03,42,189,42,10,70,306,37,27,31,065,39,30,71,354,47,1*7B
$GBGSV,3,2,10,38,37,172,41,40,72,038,45,45,28,305,41,59,35,146,39,1*78
$GBGSV,3,3,10,01,35,140,41,08,25,177,33,1*7E
$GBGSV,2,1,08,03,42,189,31,10,70,306,29,27,31,065,26,30,71,354,34,8*7B
$GBGSV,2,2,08,38,37,172,34,40,72,038,31,45,28,305,34,59,35,146,30,8*73
$GBGSV,1,1,04,03,42,189,38,10,70,306,37,01,35,140,37,08,25,177,29,B*0B
$GAGSV,1,1,04,11,41,045,30,16,23,147,35,25,47,154,41,36,82,273,37,1*78
$GAGSV,1,1,04,11,41,045,35,16,23,147,37,25,47,154,43,36,82,273,37,2*7E
$GAGSV,1,1,04,11,41,045,40,16,23,147,39,25,47,154,41,36,82,273,40,7*75
$GNGGA,041628.00,3958.83814334,N,11629.00156096,E,2,17,1.5,33.7503,M,-8.1319,M,1.0,1828*7D
$GNRMC,041628.00,A,3958.83814334,N,11629.00156096,E,0.033,78.9,240425,7.3,W,D,C*68
$GPGSV,2,1,05,01,32,049,47,03,45,078,38,14,66,186,40,17,70,352,45,1*60
$GPGSV,2,2,05,22,76,258,43,1*58
$GPGSV,2,1,05,01,32,049,36,03,45,078,35,14,66,186,40,17,70,352,36,4*6A
$GPGSV,2,2,05,22,76,258,35,4*5C
$GPGSV,1,1,03,01,32,049,34,03,45,078,39,14,66,186,41,8*5C
$GLGSV,1,1,02,86,51,024,46,76,49,201,40,1*7F
$GLGSV,1,1,02,86,51,024,38,76,49,201,31,3*72
$GBGSV,3,1,10,03,42,189,42,10,70,306,37,27,31,065,40,30,71,354,47,1*75
$GBGSV,3,2,10,38,37,172,41,40,72,038,46,45,28,305,41,59,35,146,40,1*75
$GBGSV,3,3,10,01,35,140,41,08,25,177,34,1*79
$GBGSV,2,1,08,03,42,189,31,10,70,306,30,27,31,065,25,30,71,354,34,8*70
$GBGSV,2,2,08,38,37,172,35,40,72,038,32,45,28,305,34,59,35,146,30,8*71
$GBGSV,1,1,04,03,42,189,38,10,70,306,37,01,35,140,37,08,25,177,28,B*0A
$GAGSV,1,1,04,11,41,045,30,16,23,147,36,25,47,154,41,36,82,273,37,1*7B
$GAGSV,1,1,04,11,41,045,35,16,23,147,37,25,47,154,43,36,82,273,37,2*7E
$GAGSV,1,1,04,11,41,045,40,16,23,147,39,25,47,154,41,36,82,273,40,7*75
$GNGGA,041629.00,3958.83813745,N,11629.00143467,E,2,17,1.5,33.4239,M,-8.1319,M,1.0,1828*7A
$GNRMC,041629.00,A,3958.83813745,N,11629.00143467,E,0.007,133.9,240425,7.3,W,D,C*5B
$GPGSV,2,1,05,01,32,049,47,03,45,078,38,14,66,186,40,17,70,353,45,1*61
$GPGSV,2,2,05,22,76,257,43,1*57
$GPGSV,2,1,05,01,32,049,36,03,45,078,35,14,66,186,40,17,70,353,36,4*6B
$GPGSV,2,2,05,22,76,257,35,4*53
$GPGSV,1,1,03,01,32,049,33,03,45,078,39,14,66,186,41,8*5B
$GLGSV,1,1,02,86,51,024,46,76,49,201,40,1*7F
$GLGSV,1,1,02,86,51,024,38,76,49,201,31,3*72
$GBGSV,3,1,10,03,42,189,42,10,70,306,38,27,31,065,40,30,71,354,48,1*75
$GBGSV,3,2,10,38,37,172,42,40,72,038,46,45,28,305,41,59,35,146,39,1*78
$GBGSV,3,3,10,01,35,140,41,08,25,177,34,1*79
$GBGSV,2,1,08,03,42,189,31,10,70,306,29,27,31,065,26,30,71,354,35,8*7A
$GBGSV,2,2,08,38,37,172,35,40,72,038,31,45,28,305,34,59,35,146,30,8*72
$GBGSV,1,1,04,03,42,189,37,10,70,306,37,01,35,140,37,08,25,177,30,B*0C
$GAGSV,1,1,04,11,41,045,30,16,23,147,35,25,47,154,41,36,82,273,37,1*78
$GAGSV,1,1,04,11,41,045,35,16,23,147,37,25,47,154,43,36,82,273,37,2*7E
$GAGSV,1,1,04,11,41,045,40,16,23,147,39,25,47,154,41,36,82,273,40,7*75
$GNGGA,041630.00,3958.83813527,N,11629.00136024,E,2,17,1.5,33.2487,M,-8.1319,M,1.0,1828*70
$GNRMC,041630.00,A,3958.83813527,N,11629.00136024,E,0.017,137.7,240425,7.3,W,D,C*5F
$GPGSV,2,1,05,01,32,049,47,03,45,078,38,14,66,186,40,17,70,353,45,1*61
$GPGSV,2,2,05,22,76,257,43,1*57
$GPGSV,2,1,05,01,32,049,36,03,45,078,35,14,66,186,40,17,70,353,36,4*6B
$GPGSV,2,2,05,22,76,257,35,4*53
$GPGSV,1,1,03,01,32,049,34,03,45,078,39,14,66,186,41,8*5C
$GLGSV,1,1,02,86,51,024,46,76,49,201,40,1*7F
$GLGSV,1,1,02,86,51,024,38,76,49,201,31,3*72
$GBGSV,3,1,10,03,42,189,42,10,70,306,37,27,31,065,40,30,71,354,47,1*75
$GBGSV,3,2,10,38,37,172,42,40,72,038,46,45,28,305,40,59,35,146,40,1*77
$GBGSV,3,3,10,01,35,140,41,08,25,177,34,1*79
$GBGSV,2,1,08,03,42,189,31,10,70,306,29,27,31,065,26,30,71,354,34,8*7B
$GBGSV,2,2,08,38,37,172,35,40,72,038,31,45,28,305,34,59,35,146,30,8*72
$GBGSV,1,1,04,03,42,189,38,10,70,306,37,01,35,140,38,08,25,177,30,B*0C
$GAGSV,1,1,04,11,41,045,30,16,23,147,36,25,47,154,41,36,82,273,37,1*7B
$GAGSV,1,1,04,11,41,045,35,16,23,147,37,25,47,154,43,36,82,273,37,2*7E
$GAGSV,1,1,04,11,41,045,40,16,23,147,39,25,47,154,41,36,82,273,40,7*75
$GNGGA,041631.00,3958.83813236,N,11629.00129875,E,2,17,1.5,33.0853,M,-8.1319,M,2.0,1828*70
$GNRMC,041631.00,A,3958.83813236,N,11629.00129875,E,0.011,116.0,240425,7.3,W,D,C*59
$GPGSV,2,1,05,01,32,049,47,03,45,078,39,14,66,186,40,17,70,353,45,1*60
$GPGSV,2,2,05,22,76,257,43,1*57
$GPGSV,2,1,05,01,32,049,36,03,45,078,35,14,66,186,40,17,70,353,36,4*6B
$GPGSV,2,2,05,22,76,257,36,4*50
$GPGSV,1,1,03,01,32,049,33,03,45,078,39,14,66,186,41,8*5B
$GLGSV,1,1,02,86,51,024,46,76,49,201,40,1*7F
$GLGSV,1,1,02,86,51,024,38,76,49,201,31,3*72
$GBGSV,3,1,10,03,42,189,42,10,70,306,37,27,31,065,41,30,71,354,47,1*74
$GBGSV,3,2,10,38,37,172,42,40,72,038,46,45,28,305,40,59,35,146,40,1*77
$GBGSV,3,3,10,01,35,140,41,08,25,177,32,1*7F
$GBGSV,2,1,08,03,42,189,31,10,70,306,29,27,31,065,25,30,71,354,34,8*78
$GBGSV,2,2,08,38,37,172,35,40,72,038,31,45,28,305,34,59,35,146,30,8*72
$GBGSV,1,1,04,03,42,189,38,10,70,306,37,01,35,140,38,08,25,177,31,B*0D
$GAGSV,1,1,04,11,41,045,30,16,23,147,35,25,47,154,41,36,82,273,37,1*78
$GAGSV,1,1,04,11,41,045,35,16,23,147,37,25,47,154,44,36,82,273,37,2*79
$GAGSV,1,1,04,11,41,045,39,16,23,147,39,25,47,154,41,36,82,273,40,7*7B
$GNGGA,041632.00,3958.83812716,N,11629.00124552,E,2,17,1.5,32.9398,M,-8.1319,M,1.0,1828*77
$GNRMC,041632.00,A,3958.83812716,N,11629.00124552,E,0.019,94.6,240425,7.3,W,D,C*6C
$GPGSV,2,1,05,01,32,049,47,03,45,078,39,14,66,186,40,17,70,353,45,1*60
$GPGSV,2,2,05,22,76,257,43,1*57
$GPGSV,2,1,05,01,32,049,36,03,45,078,35,14,66,186,40,17,70,353,36,4*6B
$GPGSV,2,2,05,22,76,257,35,4*53
$GPGSV,1,1,03,01,32,049,34,03,45,078,39,14,66,186,41,8*5C
$GLGSV,1,1,02,86,51,024,45,76,49,201,41,1*7D
$GLGSV,1,1,02,86,51,024,38,76,49,201,32,3*71
$GBGSV,3,1,10,03,42,189,42,10,70,306,37,27,31,065,40,30,71,354,47,1*75
$GBGSV,3,2,10,38,37,172,41,40,72,038,46,45,28,305,40,59,35,146,40,1*74
$GBGSV,3,3,10,01,35,140,41,08,25,177,33,1*7E
$GBGSV,2,1,08,03,42,189,31,10,70,306,29,27,31,065,25,30,71,354,35,8*79
$GBGSV,2,2,08,38,37,172,35,40,72,038,31,45,28,305,34,59,35,146,30,8*72
$GBGSV,1,1,04,03,42,189,38,10,70,306,37,01,35,140,38,08,25,177,30,B*0C
$GAGSV,1,1,04,11,41,045,30,16,23,147,35,25,47,154,41,36,82,273,37,1*78
$GAGSV,1,1,04,11,41,045,35,16,23,147,37,25,47,154,44,36,82,273,37,2*79
$GAGSV,1,1,04,11,41,045,39,16,23,147,39,25,47,154,41,36,82,273,39,7*75
$GNGGA,041633.00,3958.83811776,N,11629.00120467,E,2,17,1.5,32.8119,M,-8.1319,M,1.0,1828*7A
$GNRMC,041633.00,A,3958.83811776,N,11629.00120467,E,0.013,108.7,240425,7.3,W,D,C*54
$GPGSV,2,1,05,01,32,049,47,03,45,078,39,14,66,186,40,17,70,353,45,1*60
$GPGSV,2,2,05,22,76,257,43,1*57
$GPGSV,2,1,05,01,32,049,37,03,45,078,35,14,66,186,40,17,70,353,36,4*6A
$GPGSV,2,2,05,22,76,257,36,4*50
$GPGSV,1,1,03,01,32,049,34,03,45,078,39,14,66,186,41,8*5C
$GLGSV,1,1,02,86,51,024,45,76,49,201,41,1*7D
$GLGSV,1,1,02,86,51,024,38,76,49,201,31,3*72
$GBGSV,3,1,10,03,42,189,42,10,70,306,37,27,31,065,41,30,71,354,47,1*74
$GBGSV,3,2,10,38,37,172,41,40,72,038,46,45,28,305,40,59,35,146,40,1*74
$GBGSV,3,3,10,01,35,140,41,08,25,177,34,1*79
$GBGSV,2,1,08,03,42,189,31,10,70,306,29,27,31,065,26,30,71,354,34,8*7B
$GBGSV,2,2,08,38,37,172,35,40,72,038,31,45,28,305,34,59,35,146,30,8*72
$GBGSV,1,1,04,03,42,189,38,10,70,306,37,01,35,140,38,08,25,177,30,B*0C
$GAGSV,1,1,04,11,41,045,30,16,23,147,35,25,47,154,41,36,82,273,37,1*78
$GAGSV,1,1,04,11,41,045,36,16,23,147,38,25,47,154,44,36,82,273,37,2*75
$GAGSV,1,1,04,11,41,045,39,16,23,147,39,25,47,154,41,36,82,273,39,7*75
$GNGGA,041634.00,3958.83811021,N,11629.00116467,E,2,17,1.5,32.6931,M,-8.1319,M,1.0,1828*71
$GNRMC,041634.00,A,3958.83811021,N,11629.00116467,E,0.009,79.2,240425,7.3,W,D,C*6A
$GPGSV,2,1,05,01,32,049,47,03,45,078,39,14,66,186,40,17,70,353,45,1*60
$GPGSV,2,2,05,22,76,257,43,1*57
$GPGSV,2,1,05,01,32,049,37,03,45,078,35,14,66,186,40,17,70,353,36,4*6A
$GPGSV,2,2,05,22,76,257,35,4*53
$GPGSV,1,1,03,01,32,049,34,03,45,078,39,14,66,186,42,8*5F
$GLGSV,1,1,02,86,51,024,44,76,49,201,41,1*7C
$GLGSV,1,1,02,86,51,024,38,76,49,201,31,3*72
$GBGSV,3,1,10,03,42,189,42,10,70,306,37,27,31,065,41,30,71,354,47,1*74
$GBGSV,3,2,10,38,37,172,41,40,72,038,46,45,28,305,40,59,35,146,40,1*74
$GBGSV,3,3,10,01,35,140,41,08,25,177,34,1*79
$GBGSV,2,1,08,03,42,189,31,10,70,306,29,27,31,065,26,30,71,354,34,8*7B
$GBGSV,2,2,08,38,37,172,35,40,72,038,31,45,28,305,34,59,35,146,30,8*72
$GBGSV,1,1,04,03,42,189,38,10,70,306,37,01,35,140,38,08,25,177,31,B*0D
$GAGSV,1,1,04,11,41,045,30,16,23,147,36,25,47,154,41,36,82,273,36,1*7A
$GAGSV,1,1,04,11,41,045,36,16,23,147,37,25,47,154,44,36,82,273,37,2*7A
$GAGSV,1,1,04,11,41,045,39,16,23,147,39,25,47,154,41,36,82,273,39,7*75
$GNGGA,041635.00,3958.83810227,N,11629.00113224,E,2,17,1.5,32.5884,M,-8.1319,M,1.0,1828*7D
$GNRMC,041635.00,A,3958.83810227,N,11629.00113224,E,0.012,118.8,240425,7.3,W,D,C*5C
$GPGSV,2,1,05,01,32,049,47,03,45,078,39,14,66,186,39,17,70,353,45,1*6E
$GPGSV,2,2,05,22,76,257,43,1*57
$GPGSV,2,1,05,01,32,049,37,03,45,078,35,14,66,186,40,17,70,353,36,4*6A
$GPGSV,2,2,05,22,76,257,35,4*53
$GPGSV,1,1,03,01,32,049,34,03,45,078,39,14,66,186,41,8*5C
$GLGSV,1,1,02,86,51,024,44,76,49,201,40,1*7D
$GLGSV,1,1,02,86,51,024,38,76,49,201,30,3*73
$GBGSV,3,1,10,03,42,189,42,10,70,306,37,27,31,065,41,30,71,354,47,1*74
$GBGSV,3,2,10,38,37,172,41,40,72,038,46,45,28,305,40,59,35,146,40,1*74
$GBGSV,3,3,10,01,35,140,41,08,25,177,34,1*79
$GBGSV,2,1,08,03,42,189,31,10,70,306,29,27,31,065,25,30,71,354,34,8*78
$GBGSV,2,2,08,38,37,172,35,40,72,038,31,45,28,305,34,59,35,146,30,8*72
$GBGSV,1,1,04,03,42,189,38,10,70,306,37,01,35,140,38,08,25,177,31,B*0D
$GAGSV,1,1,04,11,41,045,30,16,23,147,35,25,47,154,41,36,82,273,36,1*79
$GAGSV,1,1,04,11,41,045,36,16,23,147,37,25,47,154,44,36,82,273,37,2*7A
$GAGSV,1,1,04,11,41,045,39,16,23,147,39,25,47,154,40,36,82,273,39,7*74
$GNGGA,041636.00,3958.83809443,N,11629.00110231,E,2,17,1.5,32.4911,M,-8.1319,M,1.0,1828*79
$GNRMC,041636.00,A,3958.83809443,N,11629.00110231,E,0.009,153.5,240425,7.3,W,D,C*5C
$GPGSV,2,1,05,01,32,049,47,03,45,078,39,14,66,186,39,17,70,353,45,1*6E
$GPGSV,2,2,05,22,76,257,43,1*57
$GPGSV,2,1,05,01,32,049,37,03,45,078,35,14,66,186,40,17,70,353,36,4*6A
$GPGSV,2,2,05,22,76,257,35,4*53
$GPGSV,1,1,03,01,32,049,34,03,45,078,39,14,66,186,41,8*5C
$GLGSV,1,1,02,86,51,024,45,76,49,201,40,1*7C
$GLGSV,1,1,02,86,51,024,38,76,49,201,30,3*73
$GBGSV,3,1,10,03,42,189,42,10,70,306,37,27,31,065,41,30,71,354,47,1*74
$GBGSV,3,2,10,38,37,172,42,40,72,038,46,45,28,305,40,59,35,146,40,1*77
$GBGSV,3,3,10,01,35,140,41,08,25,177,34,1*79
$GBGSV,2,1,08,03,42,189,31,10,70,306,29,27,31,065,25,30,71,354,34,8*78
$GBGSV,2,2,08,38,37,172,35,40,72,038,31,45,28,305,34,59,35,146,30,8*72
$GBGSV,1,1,04,03,42,189,38,10,70,306,37,01,35,140,38,08,25,177,31,B*0D
$GAGSV,1,1,04,11,41,045,30,16,23,147,35,25,47,154,41,36,82,273,36,1*79
$GAGSV,1,1,04,11,41,045,36,16,23,147,37,25,47,154,44,36,82,273,37,2*7A
$GAGSV,1,1,04,11,41,045,39,16,23,147,40,25,47,154,40,36,82,273,40,7*74
$GNGGA,041637.00,3958.83808653,N,11629.00107477,E,2,17,1.5,32.4014,M,-8.1319,M,1.0,1828*74
$GNRMC,041637.00,A,3958.83808653,N,11629.00107477,E,0.008,131.7,240425,7.3,W,D,C*5A
$GPGSV,2,1,05,01,32,049,47,03,45,078,39,14,66,186,39,17,70,353,45,1*6E
$GPGSV,2,2,05,22,76,257,44,1*50
$GPGSV,2,1,05,01,32,049,36,03,45,078,35,14,66,186,39,17,70,353,36,4*65
$GPGSV,2,2,05,22,76,257,35,4*53
$GPGSV,1,1,03,01,32,049,33,03,45,078,38,14,66,186,41,8*5A
$GLGSV,1,1,02,86,51,024,45,76,49,201,39,1*72
$GLGSV,1,1,02,86,51,024,38,76,49,201,31,3*72
$GBGSV,3,1,10,03,42,189,42,10,70,306,38,27,31,065,41,30,71,354,47,1*7B
$GBGSV,3,2,10,38,37,172,42,40,72,038,46,45,28,305,41,59,35,146,39,1*78
$GBGSV,3,3,10,01,35,140,41,08,25,177,33,1*7E
$GBGSV,2,1,08,03,42,189,31,10,70,306,30,27,31,065,25,30,71,354,34,8*70
$GBGSV,2,2,08,38,37,172,34,40,72,038,31,45,28,305,34,59,35,146,31,8*72
$GBGSV,1,1,04,03,42,189,38,10,70,306,37,01,35,140,38,08,25,177,30,B*0C
$GAGSV,1,1,04,11,41,045,30,16,23,147,36,25,47,154,41,36,82,273,36,1*7A
$GAGSV,1,1,04,11,41,045,36,16,23,147,37,25,47,154,44,36,82,273,37,2*7A
$GAGSV,1,1,04,11,41,045,40,16,23,147,40,25,47,154,40,36,82,273,40,7*7A
$GNGGA,041638.00,3958.83807805,N,11629.00105575,E,2,17,1.5,32.3293,M,-8.1319,M,1.0,1828*72
$GNRMC,041638.00,A,3958.83807805,N,11629.00105575,E,0.010,116.8,240425,7.3,W,D,C*55
$GPGSV,2,1,05,01,32,049,47,03,45,078,38,14,66,186,39,17,70,353,45,1*6F
$GPGSV,2,2,05,22,76,257,43,1*57
$GPGSV,2,1,05,01,32,049,37,03,45,078,35,14,66,186,40,17,70,353,36,4*6A
$GPGSV,2,2,05,22,76,257,35,4*53
$GPGSV,1,1,03,01,32,049,33,03,45,078,38,14,66,186,41,8*5A
$GLGSV,1,1,02,86,51,024,45,76,49,201,39,1*72
$GLGSV,1,1,02,86,51,024,38,76,49,201,32,3*71
$GBGSV,3,1,10,03,42,189,42,10,70,306,37,27,31,065,41,30,71,354,47,1*74
$GBGSV,3,2,10,38,37,172,42,40,72,038,46,45,28,305,42,59,35,146,39,1*7B
$GBGSV,3,3,10,01,35,140,41,08,25,177,33,1*7E
$GBGSV,2,1,08,03,42,189,31,10,70,306,29,27,31,065,24,30,71,354,35,8*78
$GBGSV,2,2,08,38,37,172,34,40,72,038,31,45,28,305,34,59,35,146,31,8*72
$GBGSV,1,1,04,03,42,189,38,10,70,306,37,01,35,140,38,08,25,177,30,B*0C
$GAGSV,1,1,04,11,41,045,30,16,23,147,36,25,47,154,41,36,82,273,36,1*7A
$GAGSV,1,1,04,11,41,045,36,16,23,147,37,25,47,154,44,36,82,273,37,2*7A
$GAGSV,1,1,04,11,41,045,39,16,23,147,40,25,47,154,40,36,82,273,40,7*74
$GNGGA,041639.00,3958.83807049,N,11629.00103984,E,2,17,1.5,32.2629,M,-8.1319,M,1.0,1828*73
$GNRMC,041639.00,A,3958.83807049,N,11629.00103984,E,0.003,64.8,240425,7.3,W,D,C*66
$GPGSV,2,1,05,01,32,049,47,03,45,078,38,14,66,186,39,17,70,353,45,1*6F
$GPGSV,2,2,05,22,76,257,44,1*50
$GPGSV,2,1,05,01,32,049,36,03,45,078,35,14,66,186,39,17,70,353,36,4*65
$GPGSV,2,2,05,22,76,257,36,4*50
$GPGSV,1,1,03,01,32,049,33,03,45,078,39,14,66,186,41,8*5B
$GLGSV,1,1,02,86,51,024,45,76,49,201,40,1*7C
$GLGSV,1,1,02,86,51,024,38,76,49,201,31,3*72
$GBGSV,3,1,10,03,42,189,42,10,70,306,38,27,31,065,41,30,71,354,47,1*7B
$GBGSV,3,2,10,38,37,172,42,40,72,038,46,45,28,305,42,59,35,146,39,1*7B
$GBGSV,3,3,10,01,35,140,41,08,25,177,33,1*7E
$GBGSV,2,1,08,03,42,189,31,10,70,306,29,27,31,065,24,30,71,354,34,8*79
$GBGSV,2,2,08,38,37,172,34,40,72,038,31,45,28,305,33,59,35,146,31,8*75
$GBGSV,1,1,04,03,42,189,38,10,70,306,37,01,35,140,38,08,25,177,30,B*0C
$GAGSV,1,1,04,11,41,045,30,16,23,147,36,25,47,154,41,36,82,273,36,1*7A
$GAGSV,1,1,04,11,41,045,36,16,23,147,37,25,47,154,43,36,82,273,37,2*7D
$GAGSV,1,1,04,11,41,045,39,16,23,147,40,25,47,154,40,36,82,273,40,7*74
$GNGGA,041640.00,3958.83806213,N,11629.00103298,E,2,18,1.4,32.2083,M,-8.1319,M,1.0,1828*7F
$GNRMC,041640.00,A,3958.83806213,N,11629.00103298,E,0.004,98.9,240425,7.3,W,D,C*67
$GPGSV,2,1,05,01,32,049,47,03,45,078,38,14,66,186,39,17,70,353,45,1*6F
$GPGSV,2,2,05,22,76,257,43,1*57
$GPGSV,2,1,05,01,32,049,36,03,45,078,35,14,66,186,39,17,70,353,36,4*65
$GPGSV,2,2,05,22,76,257,35,4*53
$GPGSV,1,1,03,01,32,049,34,03,45,078,38,14,66,186,41,8*5D
$GLGSV,1,1,02,86,51,024,45,76,49,201,40,1*7C
$GLGSV,1,1,02,86,51,024,38,76,49,201,31,3*72
$GBGSV,3,1,10,03,42,189,42,10,70,306,37,27,31,065,41,30,71,354,47,1*74
$GBGSV,3,2,10,38,37,172,42,40,72,038,46,45,28,305,42,59,35,146,39,1*7B
$GBGSV,3,3,10,01,35,140,41,08,25,177,33,1*7E
$GBGSV,2,1,08,03,42,189,31,10,70,306,29,27,31,065,24,30,71,354,35,8*78
$GBGSV,2,2,08,38,37,172,34,40,72,038,31,45,28,305,33,59,35,146,30,8*74
$GBGSV,1,1,04,03,42,189,38,10,70,306,37,01,35,140,38,08,25,177,31,B*0D
$GAGSV,2,1,05,11,41,045,29,16,23,147,35,25,47,154,40,36,82,273,36,1*72
$GAGSV,2,2,05,02,71,286,30,1*4B
$GAGSV,2,1,05,11,41,045,36,16,23,147,37,25,47,154,43,36,82,273,37,2*7F
$GAGSV,2,2,05,02,71,286,35,2*4D
$GAGSV,2,1,05,11,41,045,40,16,23,147,39,25,47,154,40,36,82,273,40,7*76
$GAGSV,2,2,05,02,71,286,36,7*4B
$GNGGA,041641.00,3958.83804746,N,11629.00105635,E,2,20,1.4,32.1948,M,-8.1319,M,1.0,1828*7A
$GNRMC,041641.00,A,3958.83804746,N,11629.00105635,E,0.003,218.3,240425,7.3,W,D,C*53
$GPGSV,2,1,05,01,32,049,47,03,45,078,36,14,66,186,39,17,70,353,45,1*61
$GPGSV,2,2,05,22,76,257,43,1*57
$GPGSV,2,1,05,01,32,049,36,03,45,078,35,14,66,186,39,17,70,353,37,4*64
$GPGSV,2,2,05,22,76,257,35,4*53
$GPGSV,1,1,03,01,32,049,33,03,45,078,39,14,66,186,41,8*5B
$GLGSV,1,1,02,86,51,024,45,76,49,201,40,1*7C
$GLGSV,1,1,02,86,51,024,38,76,49,201,31,3*72
$GBGSV,3,1,10,03,42,189,42,10,70,306,38,27,31,065,41,30,71,354,47,1*7B
$GBGSV,3,2,10,38,37,172,42,40,72,038,46,45,28,305,43,59,35,146,39,1*7A
$GBGSV,3,3,10,01,35,140,41,08,25,177,33,1*7E
$GBGSV,2,1,08,03,42,189,31,10,70,306,29,27,31,065,25,30,71,354,35,8*79
$GBGSV,2,2,08,38,37,172,34,40,72,038,31,45,28,305,34,59,35,146,31,8*72
$GBGSV,1,1,04,03,42,189,38,10,70,306,37,01,35,140,38,08,25,177,31,B*0D
$GAGSV,2,1,05,11,41,045,29,16,23,147,35,25,47,154,41,36,82,273,36,1*73
$GAGSV,2,2,05,02,71,286,30,1*4B
$GAGSV,2,1,05,11,41,045,36,16,23,147,36,25,47,154,43,36,82,273,37,2*7E
$GAGSV,2,2,05,02,71,286,35,2*4D
$GAGSV,2,1,05,11,41,045,40,16,23,147,39,25,47,154,40,36,82,273,40,7*76
$GAGSV,2,2,05,02,71,286,37,7*4A
$GNGGA,041642.00,3958.83802903,N,11629.00110226,E,2,20,1.4,32.2152,M,-8.1319,M,1.0,1828*72
$GNRMC,041642.00,A,3958.83802903,N,11629.00110226,E,0.004,284.6,240425,7.3,W,D,C*5C
$GPGSV,2,1,05,01,32,049,47,03,45,078,36,14,66,186,39,17,70,353,45,1*61
$GPGSV,2,2,05,22,76,257,43,1*57
$GPGSV,2,1,05,01,32,049,36,03,45,078,36,14,66,186,40,17,70,353,37,4*69
$GPGSV,2,2,05,22,76,257,35,4*53
$GPGSV,1,1,03,01,32,049,33,03,45,078,39,14,66,186,41,8*5B
$GLGSV,1,1,02,86,51,024,44,76,49,201,40,1*7D
$GLGSV,1,1,02,86,51,024,39,76,49,201,30,3*72
$GBGSV,3,1,10,03,42,189,42,10,70,306,38,27,31,065,41,30,71,354,47,1*7B
$GBGSV,3,2,10,38,37,172,42,40,72,038,46,45,28,305,43,59,35,146,40,1*74
$GBGSV,3,3,10,01,35,140,41,08,25,177,33,1*7E
$GBGSV,2,1,08,03,42,189,31,10,70,306,30,27,31,065,24,30,71,354,35,8*70
$GBGSV,2,2,08,38,37,172,34,40,72,038,31,45,28,305,34,59,35,146,31,8*72
$GBGSV,1,1,04,03,42,189,38,10,70,306,37,01,35,140,37,08,25,177,31,B*02
$GAGSV,2,1,05,11,41,045,30,16,23,147,35,25,47,154,40,36,82,273,36,1*7A
$GAGSV,2,2,05,02,71,286,30,1*4B
$GAGSV,2,1,05,11,41,045,35,16,23,147,37,25,47,154,43,36,82,273,36,2*7D
$GAGSV,2,2,05,02,71,286,35,2*4D
$GAGSV,2,1,05,11,41,045,39,16,23,147,39,25,47,154,40,36,82,273,40,7*78
$GAGSV,2,2,05,02,71,286,36,7*4B
$GNGGA,041643.00,3958.83171140,N,11629.01875121,E,5,22,0.8,65.8386,M,-8.1315,M,1.0,1828*79
$GNRMC,041643.00,A,3958.83171140,N,11629.01875121,E,0.005,292.4,240425,7.2,W,F,C*57
$GPGSV,2,1,05,01,32,049,47,03,45,078,36,14,66,186,39,17,70,353,45,1*61
$GPGSV,2,2,05,22,76,257,43,1*57
$GPGSV,2,1,05,01,32,049,36,03,45,078,36,14,66,186,40,17,70,353,36,4*68
$GPGSV,2,2,05,22,76,257,35,4*53
$GPGSV,1,1,03,01,32,049,32,03,45,078,39,14,66,186,41,8*5A
$GLGSV,1,1,02,86,51,024,44,76,49,201,38,1*72
$GLGSV,1,1,02,86,51,024,39,76,49,201,30,3*72
$GBGSV,3,1,10,03,42,189,42,10,70,306,38,27,31,065,41,30,71,354,47,1*7B
$GBGSV,3,2,10,38,37,172,42,40,72,038,46,45,28,305,43,59,35,146,40,1*74
$GBGSV,3,3,10,01,35,140,41,08,25,177,34,1*79
$GBGSV,2,1,08,03,42,189,31,10,70,306,30,27,31,065,23,30,71,354,35,8*77
$GBGSV,2,2,08,38,37,172,34,40,72,038,31,45,28,305,34,59,35,146,31,8*72
$GBGSV,1,1,04,03,42,189,38,10,70,306,37,01,35,140,37,08,25,177,30,B*03
$GAGSV,2,1,05,11,41,045,30,16,23,147,35,25,47,154,41,36,82,273,36,1*7B
$GAGSV,2,2,05,02,71,286,30,1*4B
$GAGSV,2,1,05,11,41,045,35,16,23,147,37,25,47,154,43,36,82,273,37,2*7C
$GAGSV,2,2,05,02,71,286,35,2*4D
$GAGSV,2,1,05,11,41,045,40,16,23,147,39,25,47,154,40,36,82,273,41,7*77
$GAGSV,2,2,05,02,71,286,36,7*4B
$GNGGA,041644.00,3958.83192490,N,11629.01835171,E,5,22,0.8,64.4734,M,-8.1315,M,1.0,1828*7A
$GNRMC,041644.00,A,3958.83192490,N,11629.01835171,E,0.007,283.5,240425,7.2,W,F,C*57
$GPGSV,2,1,05,01,32,049,47,03,45,078,36,14,66,186,39,17,70,353,45,1*61
$GPGSV,2,2,05,22,76,257,43,1*57
$GPGSV,2,1,05,01,32,049,36,03,45,078,35,14,66,186,39,17,70,353,36,4*65
$GPGSV,2,2,05,22,76,257,35,4*53
$GPGSV,1,1,03,01,32,049,33,03,45,078,39,14,66,186,41,8*5B
$GLGSV,1,1,02,86,51,024,44,76,49,201,38,1*72
$GLGSV,1,1,02,86,51,024,39,76,49,201,30,3*72
$GBGSV,3,1,10,03,42,189,42,10,70,306,38,27,31,065,41,30,71,354,47,1*7B
$GBGSV,3,2,10,38,37,172,42,40,72,038,46,45,28,305,43,59,35,146,40,1*74
$GBGSV,3,3,10,01,35,140,41,08,25,177,34,1*79
$GBGSV,2,1,08,03,42,189,31,10,70,306,30,27,31,065,23,30,71,354,35,8*77
$GBGSV,2,2,08,38,37,172,34,40,72,038,31,45,28,305,34,59,35,146,31,8*72
$GBGSV,1,1,04,03,42,189,37,10,70,306,36,01,35,140,37,08,25,177,30,B*0D
$GAGSV,2,1,05,11,41,045,30,16,23,147,35,25,47,154,41,36,82,273,36,1*7B
$GAGSV,2,2,05,02,71,286,30,1*4B
$GAGSV,2,1,05,11,41,045,36,16,23,147,37,25,47,154,43,36,82,273,37,2*7F
$GAGSV,2,2,05,02,71,286,35,2*4D
$GAGSV,2,1,05,11,41,045,40,16,23,147,40,25,47,154,40,36,82,273,41,7*79
$GAGSV,2,2,05,02,71,286,36,7*4B
$GNGGA,041645.00,3958.83214677,N,11629.01791406,E,5,22,0.8,62.8475,M,-8.1315,M,1.0,1828*75
$GNRMC,041645.00,A,3958.83214677,N,11629.01791406,E,0.008,257.2,240425,7.2,W,F,C*55
$GPGSV,2,1,05,01,32,049,47,03,45,078,36,14,66,186,40,17,70,353,45,1*6F
$GPGSV,2,2,05,22,76,257,43,1*57
$GPGSV,2,1,05,01,32,049,36,03,45,078,36,14,66,186,39,17,70,353,36,4*66
$GPGSV,2,2,05,22,76,257,35,4*53
$GPGSV,1,1,03,01,32,049,33,03,45,078,39,14,66,186,41,8*5B
$GLGSV,1,1,02,86,51,024,44,76,49,201,37,1*7D
$GLGSV,1,1,02,86,51,024,39,76,49,201,31,3*73
$GBGSV,3,1,11,03,42,189,42,10,70,306,38,27,31,065,40,30,71,354,48,1*74
$GBGSV,3,2,11,38,37,172,42,40,72,038,46,45,28,305,43,59,35,146,40,1*75
$GBGSV,3,3,11,01,35,140,41,08,25,177,33,07,81,335,42,1*42
$GBGSV,3,1,09,03,42,189,31,10,70,306,30,27,31,065,23,30,71,354,35,8*77
$GBGSV,3,2,09,38,37,172,34,40,72,038,31,45,28,305,34,59,35,146,31,8*72
$GBGSV,3,3,09,07,81,335,32,8*4C
$GBGSV,2,1,05,03,42,189,37,10,70,306,36,01,35,140,37,08,25,177,30,B*0F
$GBGSV,2,2,05,07,81,335,38,B*30
$GAGSV,2,1,05,11,41,045,30,16,23,147,35,25,47,154,41,36,82,273,36,1*7B
$GAGSV,2,2,05,02,71,286,30,1*4B
$GAGSV,2,1,05,11,41,045,36,16,23,147,37,25,47,154,44,36,82,273,37,2*78
$GAGSV,2,2,05,02,71,286,35,2*4D
$GAGSV,2,1,05,11,41,045,40,16,23,147,39,25,47,154,40,36,82,273,41,7*77
$GAGSV,2,2,05,02,71,286,36,7*4B
$GNGGA,041646.00,3958.83236530,N,11629.01750749,E,5,23,0.8,61.4553,M,-8.1315,M,1.0,1828*78
$GNRMC,041646.00,A,3958.83236530,N,11629.01750749,E,0.007,270.7,240425,7.2,W,F,C*5C
$GPGSV,2,1,05,01,32,049,47,03,45,078,36,14,66,186,40,17,70,353,45,1*6F
$GPGSV,2,2,05,22,76,257,43,1*57
$GPGSV,2,1,05,01,32,049,36,03,45,078,36,14,66,186,39,17,70,353,36,4*66
$GPGSV,2,2,05,22,76,257,35,4*53
$GPGSV,1,1,03,01,32,049,33,03,45,078,39,14,66,186,41,8*5B
$GLGSV,1,1,02,86,51,024,44,76,49,201,37,1*7D
$GLGSV,1,1,02,86,51,024,39,76,49,201,31,3*73
$GBGSV,3,1,11,03,42,189,42,10,70,306,38,27,31,065,40,30,71,354,47,1*7B
$GBGSV,3,2,11,38,37,172,42,40,72,038,46,45,28,305,43,59,35,146,40,1*75
$GBGSV,3,3,11,01,35,140,41,08,25,177,33,07,81,335,42,1*42
$GBGSV,3,1,09,03,42,189,31,10,70,306,30,27,31,065,22,30,71,354,35,8*76
$GBGSV,3,2,09,38,37,172,34,40,72,038,31,45,28,305,34,59,35,146,31,8*72
$GBGSV,3,3,09,07,81,335,32,8*4C
$GBGSV,2,1,05,03,42,189,37,10,70,306,36,01,35,140,37,08,25,177,30,B*0F
$GBGSV,2,2,05,07,81,335,38,B*30
$GAGSV,2,1,05,11,41,045,30,16,23,147,36,25,47,154,41,36,82,273,36,1*78
$GAGSV,2,2,05,02,71,286,30,1*4B
$GAGSV,2,1,05,11,41,045,35,16,23,147,37,25,47,154,43,36,82,273,37,2*7C
$GAGSV,2,2,05,02,71,286,35,2*4D
$GAGSV,2,1,05,11,41,045,39,16,23,147,40,25,47,154,40,36,82,273,40,7*76
$GAGSV,2,2,05,02,71,286,37,7*4A
$GNGGA,041647.00,3958.83257474,N,11629.01714024,E,5,23,0.8,60.0217,M,-8.1315,M,1.0,1828*71
$GNRMC,041647.00,A,3958.83257474,N,11629.01714024,E,0.006,260.6,240425,7.2,W,F,C*56
$GPGSV,2,1,05,01,32,049,47,03,45,078,38,14,66,186,40,17,70,353,46,1*62
$GPGSV,2,2,05,22,76,257,43,1*57
$GPGSV,2,1,05,01,32,049,37,03,45,078,36,14,66,186,39,17,70,353,37,4*66
$GPGSV,2,2,05,22,76,257,35,4*53
$GPGSV,1,1,03,01,32,049,32,03,45,078,39,14,66,186,41,8*5A
$GLGSV,1,1,02,86,51,024,44,76,49,201,39,1*73
$GLGSV,1,1,02,86,51,024,39,76,49,201,30,3*72
$GBGSV,3,1,11,03,42,189,42,10,70,306,38,27,31,065,40,30,71,354,47,1*7B
$GBGSV,3,2,11,38,37,172,41,40,72,038,46,45,28,305,42,59,35,146,40,1*77
$GBGSV,3,3,11,01,35,140,41,08,25,177,34,07,81,335,42,1*45
$GBGSV,3,1,09,03,42,189,31,10,70,306,30,27,31,065,22,30,71,354,35,8*76
$GBGSV,3,2,09,38,37,172,34,40,72,038,31,45,28,305,34,59,35,146,31,8*72
$GBGSV,3,3,09,07,81,335,32,8*4C
$GBGSV,2,1,05,03,42,189,37,10,70,306,36,01,35,140,37,08,25,177,29,B*07
$GBGSV,2,2,05,07,81,335,38,B*30
$GAGSV,2,1,05,11,41,045,30,16,23,147,35,25,47,154,41,36,82,274,36,1*7C
$GAGSV,2,2,05,02,71,286,30,1*4B
$GAGSV,2,1,05,11,41,045,36,16,23,147,37,25,47,154,43,36,82,274,37,2*78
$GAGSV,2,2,05,02,71,286,35,2*4D
$GAGSV,2,1,05,11,41,045,40,16,23,147,40,25,47,154,41,36,82,274,40,7*7E
$GAGSV,2,2,05,02,71,286,36,7*4B
$GNGGA,041648.00,3958.83275935,N,11629.01679178,E,5,23,0.8,58.6437,M,-8.1315,M,1.0,1828*7D
$GNRMC,041648.00,A,3958.83275935,N,11629.01679178,E,0.006,280.3,240425,7.2,W,F,C*58
$GPGSV,2,1,05,01,32,049,47,03,45,078,38,14,66,186,40,17,70,353,45,1*61
$GPGSV,2,2,05,22,76,257,43,1*57
$GPGSV,2,1,05,01,32,049,36,03,45,078,36,14,66,186,39,17,70,353,36,4*66
$GPGSV,2,2,05,22,76,257,35,4*53
$GPGSV,1,1,03,01,32,049,33,03,45,078,39,14,66,186,41,8*5B
$GLGSV,1,1,02,86,51,024,44,76,49,201,39,1*73
$GLGSV,1,1,02,86,51,024,39,76,49,201,30,3*72
$GBGSV,3,1,11,03,42,189,42,10,70,306,38,27,31,065,40,30,71,354,48,1*74
$GBGSV,3,2,11,38,37,172,42,40,72,038,46,45,28,305,42,59,35,146,40,1*74
$GBGSV,3,3,11,01,35,140,41,08,25,177,34,07,81,335,42,1*45
$GBGSV,3,1,09,03,42,189,31,10,70,306,30,27,31,065,22,30,71,354,35,8*76
$GBGSV,3,2,09,38,37,172,34,40,72,038,31,45,28,305,34,59,35,146,32,8*71
$GBGSV,3,3,09,07,81,335,32,8*4C
$GBGSV,2,1,05,03,42,189,37,10,70,306,36,01,35,140,37,08,25,177,28,B*06
$GBGSV,2,2,05,07,81,335,38,B*30
$GAGSV,2,1,05,11,41,045,30,16,23,147,35,25,47,154,41,36,82,274,36,1*7C
$GAGSV,2,2,05,02,71,286,30,1*4B
$GAGSV,2,1,05,11,41,045,35,16,23,147,37,25,47,154,43,36,82,274,36,2*7A
$GAGSV,2,2,05,02,71,286,35,2*4D
$GAGSV,2,1,05,11,41,045,40,16,23,147,39,25,47,154,41,36,82,274,40,7*70
$GAGSV,2,2,05,02,71,286,37,7*4A
$GNGGA,041649.00,3958.83295479,N,11629.01645455,E,5,23,0.8,57.3647,M,-8.1315,M,1.0,1828*7D
$GNRMC,041649.00,A,3958.83295479,N,11629.01645455,E,0.007,289.3,240425,7.2,W,F,C*5F
$GPGSV,2,1,05,01,32,049,47,03,45,078,38,14,66,186,40,17,70,353,45,1*61
$GPGSV,2,2,05,22,76,257,43,1*57
$GPGSV,2,1,05,01,32,049,37,03,45,078,36,14,66,186,39,17,70,353,37,4*66
$GPGSV,2,2,05,22,76,257,36,4*50
$GPGSV,1,1,03,01,32,049,33,03,45,078,39,14,66,186,41,8*5B
$GLGSV,1,1,02,86,51,024,43,76,49,201,40,1*7A
$GLGSV,1,1,02,86,51,024,39,76,49,201,31,3*73
$GBGSV,3,1,11,03,42,189,42,10,70,306,38,27,31,065,40,30,71,354,48,1*74
$GBGSV,3,2,11,38,37,172,42,40,72,038,46,45,28,305,42,59,35,146,40,1*74
$GBGSV,3,3,11,01,35,140,41,08,25,177,34,07,81,335,42,1*45
$GBGSV,3,1,09,03,42,189,31,10,70,306,30,27,31,065,23,30,71,354,35,8*77
$GBGSV,3,2,09,38,37,172,34,40,72,038,31,45,28,305,34,59,35,146,31,8*72
$GBGSV,3,3,09,07,81,335,32,8*4C
$GBGSV,2,1,05,03,42,189,37,10,70,306,37,01,35,140,37,08,25,177,29,B*06
$GBGSV,2,2,05,07,81,335,38,B*30
$GAGSV,2,1,05,11,41,045,30,16,23,147,35,25,47,154,41,36,82,274,36,1*7C
$GAGSV,2,2,05,02,71,286,30,1*4B
$GAGSV,2,1,05,11,41,045,35,16,23,147,37,25,47,154,43,36,82,274,36,2*7A
$GAGSV,2,2,05,02,71,286,35,2*4D
$GAGSV,2,1,05,11,41,045,40,16,23,147,39,25,47,154,41,36,82,274,40,7*70
$GAGSV,2,2,05,02,71,286,36,7*4B
$GNGGA,041650.00,3958.83314398,N,11629.01607595,E,5,23,0.8,56.0575,M,-8.1315,M,1.0,1828*7E
$GNRMC,041650.00,A,3958.83314398,N,11629.01607595,E,0.009,283.5,240425,7.2,W,F,C*5E
$GPGSV,2,1,05,01,32,049,47,03,45,078,39,14,66,186,40,17,70,353,45,1*60
$GPGSV,2,2,05,22,76,257,43,1*57
$GPGSV,2,1,05,01,32,049,37,03,45,078,36,14,66,186,39,17,70,353,37,4*66
$GPGSV,2,2,05,22,76,257,36,4*50
$GPGSV,1,1,03,01,32,049,33,03,45,078,39,14,66,186,41,8*5B
$GLGSV,1,1,02,86,51,024,43,76,49,201,41,1*7B
$GLGSV,1,1,02,86,51,024,39,76,49,201,31,3*73
$GBGSV,3,1,11,03,42,189,42,10,70,306,38,27,31,065,40,30,71,354,48,1*74
$GBGSV,3,2,11,38,37,172,42,40,72,038,46,45,28,305,42,59,35,146,40,1*74
$GBGSV,3,3,11,01,35,140,41,08,25,177,35,07,81,335,43,1*45
$GBGSV,3,1,09,03,42,189,31,10,70,306,30,27,31,065,22,30,71,354,35,8*76
$GBGSV,3,2,09,38,37,172,34,40,72,038,31,45,28,305,34,59,35,146,31,8*72
$GBGSV,3,3,09,07,81,335,32,8*4C
$GBGSV,2,1,05,03,42,189,37,10,70,306,36,01,35,140,37,08,25,177,28,B*06
$GBGSV,2,2,05,07,81,335,38,B*30
$GAGSV,2,1,05,11,41,045,31,16,23,147,36,25,47,154,41,36,82,274,36,1*7E
$GAGSV,2,2,05,02,71,286,31,1*4A
$GAGSV,2,1,05,11,41,045,35,16,23,147,37,25,47,154,43,36,82,274,36,2*7A
$GAGSV,2,2,05,02,71,286,35,2*4D
$GAGSV,2,1,05,11,41,045,40,16,23,147,39,25,47,154,41,36,82,274,40,7*70
$GAGSV,2,2,05,02,71,286,36,7*4B
$GNGGA,041651.00,3958.83333135,N,11629.01578511,E,5,23,0.8,54.9434,M,-8.1315,M,1.0,1828*77
$GNRMC,041651.00,A,3958.83333135,N,11629.01578511,E,0.011,273.9,240425,7.2,W,F,C*52
$GPGSV,2,1,05,01,32,049,47,03,45,078,38,14,66,186,40,17,70,353,45,1*61
$GPGSV,2,2,05,22,76,257,43,1*57
$GPGSV,2,1,05,01,32,049,36,03,45,078,36,14,66,186,39,17,70,353,37,4*67
$GPGSV,2,2,05,22,76,257,36,4*50
$GPGSV,1,1,03,01,32,049,32,03,45,078,39,14,66,186,41,8*5A
$GLGSV,1,1,02,86,51,024,44,76,49,201,40,1*7D
$GLGSV,1,1,02,86,51,024,39,76,49,201,30,3*72
$GBGSV,3,1,11,03,42,189,43,10,70,306,38,27,31,065,40,30,71,354,48,1*75
$GBGSV,3,2,11,38,37,172,42,40,72,038,46,45,28,305,41,59,35,146,40,1*77
$GBGSV,3,3,11,01,35,140,41,08,25,177,34,07,81,335,42,1*45
$GBGSV,3,1,09,03,42,189,31,10,70,306,29,27,31,065,22,30,71,354,35,8*7E
$GBGSV,3,2,09,38,37,172,34,40,72,038,31,45,28,305,34,59,35,146,32,8*71
$GBGSV,3,3,09,07,81,335,32,8*4C
$GBGSV,2,1,05,03,42,189,37,10,70,306,36,01,35,140,37,08,25,177,29,B*07
$GBGSV,2,2,05,07,81,335,38,B*30
$GAGSV,2,1,05,11,41,045,30,16,23,147,36,25,47,154,41,36,82,274,36,1*7F
$GAGSV,2,2,05,02,71,286,30,1*4B
$GAGSV,2,1,05,11,41,045,35,16,23,147,36,25,47,154,43,36,82,274,36,2*7B
$GAGSV,2,2,05,02,71,286,35,2*4D
$GAGSV,2,1,05,11,41,045,40,16,23,147,40,25,47,154,40,36,82,274,41,7*7E
$GAGSV,2,2,05,02,71,286,36,7*4B
$GNGGA,041652.00,3958.83351975,N,11629.01548505,E,5,23,0.8,53.7347,M,-8.1315,M,2.0,1828*73
$GNRMC,041652.00,A,3958.83351975,N,11629.01548505,E,0.006,310.7,240425,7.2,W,F,C*53
$GPGSV,2,1,05,01,32,049,47,03,45,078,38,14,66,186,39,17,70,353,45,1*6F
$GPGSV,2,2,05,22,76,257,43,1*57
$GPGSV,2,1,05,01,32,049,36,03,45,078,35,14,66,186,39,17,70,353,36,4*65
$GPGSV,2,2,05,22,76,257,35,4*53
$GPGSV,1,1,03,01,32,049,32,03,45,078,39,14,66,186,41,8*5A
$GLGSV,1,1,02,86,51,024,43,76,48,201,39,1*75
$GLGSV,1,1,02,86,51,024,39,76,48,201,30,3*73
$GBGSV,3,1,11,03,42,189,43,10,70,306,38,27,31,065,39,30,71,354,48,1*7B
$GBGSV,3,2,11,38,37,172,43,40,72,038,46,45,28,305,41,59,35,146,40,1*76
$GBGSV,3,3,11,01,35,140,41,08,25,177,34,07,81,335,42,1*45
$GBGSV,3,1,09,03,42,189,31,10,70,306,29,27,31,065,23,30,71,354,35,8*7F
$GBGSV,3,2,09,38,37,172,34,40,72,038,31,45,28,305,34,59,35,146,32,8*71
$GBGSV,3,3,09,07,81,335,32,8*4C
$GBGSV,2,1,05,03,42,189,37,10,70,306,36,01,35,140,37,08,25,177,29,B*07
$GBGSV,2,2,05,07,81,335,38,B*30
$GAGSV,2,1,05,11,41,045,30,16,23,147,36,25,47,154,41,36,82,274,36,1*7F
$GAGSV,2,2,05,02,71,286,31,1*4A
$GAGSV,2,1,05,11,41,045,35,16,23,147,37,25,47,154,43,36,82,274,36,2*7A
$GAGSV,2,2,05,02,71,286,35,2*4D
$GAGSV,2,1,05,11,41,045,40,16,23,147,39,25,47,154,40,36,82,274,41,7*70
$GAGSV,2,2,05,02,71,286,36,7*4B
$GNGGA,041653.00,3958.83369068,N,11629.01521833,E,5,23,0.8,52.5270,M,-8.1315,M,3.0,1828*7C
$GNRMC,041653.00,A,3958.83369068,N,11629.01521833,E,0.006,315.2,240425,7.2,W,F,C*5B
$GPGSV,2,1,05,01,32,049,47,03,45,078,39,14,66,186,39,17,70,353,45,1*6E
$GPGSV,2,2,05,22,76,257,43,1*57
$GPGSV,2,1,05,01,32,049,36,03,45,078,35,14,66,186,39,17,70,353,36,4*65
$GPGSV,2,2,05,22,76,257,36,4*50
$GPGSV,1,1,03,01,32,049,32,03,45,078,39,14,66,186,41,8*5A
$GLGSV,1,1,02,86,51,024,43,76,48,201,40,1*7B
$GLGSV,1,1,02,86,51,024,39,76,48,201,30,3*73
$GBGSV,3,1,11,03,42,189,43,10,70,306,38,27,31,065,39,30,71,354,48,1*7B
$GBGSV,3,2,11,38,37,172,42,40,72,038,46,45,28,305,41,59,35,146,40,1*77
$GBGSV,3,3,11,01,35,140,41,08,25,177,33,07,81,335,42,1*42
$GBGSV,3,1,09,03,42,189,31,10,70,306,30,27,31,065,24,30,71,354,35,8*70
$GBGSV,3,2,09,38,37,172,34,40,72,038,30,45,28,305,34,59,35,146,31,8*73
$GBGSV,3,3,09,07,81,335,32,8*4C
$GBGSV,2,1,05,03,42,189,37,10,70,306,36,01,35,140,37,08,25,177,30,B*0F
$GBGSV,2,2,05,07,81,335,38,B*30
$GAGSV,2,1,05,11,41,045,30,16,23,147,36,25,47,154,41,36,82,274,36,1*7F
$GAGSV,2,2,05,02,71,286,30,1*4B
$GAGSV,2,1,05,11,41,045,36,16,23,147,37,25,47,154,43,36,82,274,36,2*79
$GAGSV,2,2,05,02,71,286,35,2*4D
$GAGSV,2,1,05,11,41,045,40,16,23,147,39,25,47,154,40,36,82,274,40,7*71
$GAGSV,2,2,05,02,71,286,37,7*4A
$GNGGA,041654.00,3958.83384678,N,11629.01500943,E,5,23,0.8,51.5042,M,-8.1315,M,3.0,1828*7A
$GNRMC,041654.00,A,3958.83384678,N,11629.01500943,E,0.005,297.8,240425,7.2,W,F,C*5F
$GPGSV,2,1,05,01,32,049,47,03,45,078,39,14,66,186,39,17,70,353,45,1*6E
$GPGSV,2,2,05,22,76,257,43,1*57
$GPGSV,2,1,05,01,32,049,36,03,45,078,36,14,66,186,39,17,70,353,37,4*67
$GPGSV,2,2,05,22,76,257,35,4*53
$GPGSV,1,1,03,01,32,049,32,03,45,078,39,14,66,186,41,8*5A
$GLGSV,1,1,02,86,51,024,42,76,48,201,40,1*7A
$GLGSV,1,1,02,86,51,024,40,76,48,201,31,3*7C
$GBGSV,3,1,11,03,42,189,43,10,70,306,38,27,31,065,39,30,71,354,48,1*7B
$GBGSV,3,2,11,38,37,172,42,40,72,038,47,45,28,305,41,59,35,146,40,1*76
$GBGSV,3,3,11,01,35,140,42,08,25,177,34,07,81,335,42,1*46
$GBGSV,3,1,09,03,42,189,31,10,70,306,29,27,31,065,24,30,71,354,35,8*78
$GBGSV,3,2,09,38,37,172,34,40,72,038,30,45,28,305,33,59,35,146,31,8*74
$GBGSV,3,3,09,07,81,335,32,8*4C
$GBGSV,2,1,05,03,42,189,37,10,70,306,36,01,35,140,37,08,25,177,31,B*0E
$GBGSV,2,2,05,07,81,335,38,B*30
$GAGSV,2,1,05,11,41,045,30,16,23,147,36,25,47,154,41,36,82,274,36,1*7F
$GAGSV,2,2,05,02,71,286,30,1*4B
$GAGSV,2,1,05,11,41,045,36,16,23,147,37,25,47,154,43,36,82,274,36,2*79
$GAGSV,2,2,05,02,71,286,35,2*4D
$GAGSV,2,1,05,11,41,045,40,16,23,147,39,25,47,154,40,36,82,274,40,7*71
$GAGSV,2,2,05,02,71,286,36,7*4B
$GNGGA,041655.00,3958.83398025,N,11629.01479586,E,5,23,0.8,50.6952,M,-8.1315,M,4.0,1828*7F
$GNRMC,041655.00,A,3958.83398025,N,11629.01479586,E,0.009,282.9,240425,7.2,W,F,C*5E
$GPGSV,2,1,05,01,32,049,47,03,45,078,39,14,66,186,39,17,70,353,45,1*6E
$GPGSV,2,2,05,22,76,257,42,1*56
$GPGSV,2,1,05,01,32,049,36,03,45,078,35,14,66,186,39,17,70,353,36,4*65
$GPGSV,2,2,05,22,76,257,35,4*53
$GPGSV,1,1,03,01,32,049,33,03,45,078,39,14,66,186,41,8*5B
$GLGSV,1,1,02,86,51,024,42,76,48,201,41,1*7B
$GLGSV,1,1,02,86,51,024,39,76,48,201,30,3*73
$GBGSV,3,1,11,03,42,189,43,10,70,306,38,27,31,065,38,30,71,354,48,1*7A
$GBGSV,3,2,11,38,37,172,42,40,72,038,46,45,28,305,41,59,35,146,41,1*76
$GBGSV,3,3,11,01,35,140,41,08,25,177,34,07,81,335,42,1*45
$GBGSV,3,1,09,03,42,189,31,10,70,306,29,27,31,065,24,30,71,354,35,8*78
$GBGSV,3,2,09,38,37,172,34,40,72,038,30,45,28,305,32,59,35,146,31,8*75
$GBGSV,3,3,09,07,81,335,32,8*4C
$GBGSV,2,1,05,03,42,189,37,10,70,306,36,01,35,140,37,08,25,177,31,B*0E
$GBGSV,2,2,05,07,81,335,38,B*30
$GAGSV,2,1,05,11,41,045,30,16,23,147,36,25,47,154,41,36,82,274,36,1*7F
$GAGSV,2,2,05,02,71,286,31,1*4A
$GAGSV,2,1,05,11,41,045,36,16,23,147,37,25,47,154,43,36,82,274,36,2*79
$GAGSV,2,2,05,02,71,286,35,2*4D
$GAGSV,2,1,05,11,41,045,40,16,23,147,40,25,47,154,40,36,82,274,40,7*7F
$GAGSV,2,2,05,02,71,286,36,7*4B
$GNGGA,041656.00,3958.83409581,N,11629.01458686,E,5,23,0.8,49.9243,M,-8.1315,M,1.0,1828*71
$GNRMC,041656.00,A,3958.83409581,N,11629.01458686,E,0.013,270.6,240425,7.2,W,F,C*50
$GPGSV,2,1,05,01,32,049,47,03,45,078,39,14,66,186,39,17,70,353,45,1*6E
$GPGSV,2,2,05,22,76,257,42,1*56
$GPGSV,2,1,05,01,32,049,36,03,45,078,35,14,66,186,39,17,70,353,36,4*65
$GPGSV,2,2,05,22,76,257,35,4*53
$GPGSV,1,1,03,01,32,049,33,03,45,078,38,14,66,186,40,8*5B
$GLGSV,1,1,02,86,51,024,41,76,48,201,41,1*78
$GLGSV,1,1,02,86,51,024,40,76,48,201,29,3*75
$GBGSV,3,1,11,03,42,189,44,10,70,306,38,27,31,065,38,30,71,354,47,1*72
$GBGSV,3,2,11,38,37,172,43,40,72,038,46,45,28,305,42,59,35,146,42,1*77
$GBGSV,3,3,11,01,35,140,41,08,25,177,33,07,81,335,42,1*42
$GBGSV,3,1,09,03,42,189,31,10,70,306,29,27,31,065,25,30,71,354,34,8*78
$GBGSV,3,2,09,38,37,172,34,40,72,038,30,45,28,305,33,59,35,146,31,8*74
$GBGSV,3,3,09,07,81,335,32,8*4C
$GBGSV,2,1,05,03,42,189,37,10,70,306,36,01,35,140,38,08,25,177,31,B*01
$GBGSV,2,2,05,07,81,335,38,B*30
$GAGSV,2,1,05,11,41,045,31,16,23,147,36,25,47,154,41,36,82,274,36,1*7E
$GAGSV,2,2,05,02,71,286,30,1*4B
$GAGSV,2,1,05,11,41,045,36,16,23,147,37,25,47,154,43,36,82,274,36,2*79
$GAGSV,2,2,05,02,71,286,35,2*4D
$GAGSV,2,1,05,11,41,045,40,16,23,147,40,25,47,154,41,36,82,274,40,7*7E
$GAGSV,2,2,05,02,71,286,37,7*4A
$GNGGA,041657.00,3958.83423939,N,11629.01440099,E,5,23,0.8,49.1181,M,-8.1315,M,1.0,1828*73
$GNRMC,041657.00,A,3958.83423939,N,11629.01440099,E,0.010,288.5,240425,7.2,W,F,C*50
$GPGSV,2,1,05,01,32,049,47,03,45,078,39,14,66,186,39,17,70,353,45,1*6E
$GPGSV,2,2,05,22,76,257,42,1*56
$GPGSV,2,1,05,01,32,049,36,03,45,078,35,14,66,186,39,17,70,353,36,4*65
$GPGSV,2,2,05,22,76,257,34,4*52
$GPGSV,1,1,03,01,32,049,33,03,45,078,38,14,66,186,40,8*5B
$GLGSV,1,1,02,86,50,024,41,76,48,201,41,1*79
$GLGSV,1,1,02,86,50,024,39,76,48,201,29,3*7A
$GBGSV,3,1,11,03,42,189,43,10,70,306,38,27,31,065,38,30,71,354,48,1*7A
$GBGSV,3,2,11,38,37,172,43,40,72,038,46,45,28,305,41,59,35,146,41,1*77
$GBGSV,3,3,11,01,35,140,41,08,25,177,33,07,81,335,41,1*41
$GBGSV,2,1,08,03,42,189,31,10,70,306,29,27,31,065,27,30,71,354,34,8*7A
$GBGSV,2,2,08,38,37,172,35,40,72,038,29,59,35,146,31,07,81,335,32,8*7A
$GBGSV,2,1,05,03,42,189,37,10,70,306,36,01,35,140,38,08,25,177,30,B*00
$GBGSV,2,2,05,07,81,335,38,B*30
$GAGSV,2,1,05,11,41,045,31,16,23,147,36,25,47,154,41,36,82,274,36,1*7E
$GAGSV,2,2,05,02,71,286,31,1*4A
$GAGSV,2,1,05,11,41,045,36,16,23,147,37,25,47,154,43,36,82,274,36,2*79
$GAGSV,2,2,05,02,71,286,35,2*4D
$GAGSV,2,1,05,11,41,045,40,16,23,147,40,25,47,154,40,36,82,274,40,7*7F
$GAGSV,2,2,05,02,71,286,37,7*4A
$GNGGA,041658.00,3958.83437285,N,11629.01422064,E,5,23,0.8,48.3851,M,-8.1315,M,1.0,1828*74
$GNRMC,041658.00,A,3958.83437285,N,11629.01422064,E,0.007,280.9,240425,7.2,W,F,C*52
$GPGSV,2,1,05,01,32,049,47,03,45,078,39,14,66,186,39,17,70,353,45,1*6E
$GPGSV,2,2,05,22,76,256,41,1*54
$GPGSV,2,1,05,01,32,049,36,03,45,078,35,14,66,186,39,17,70,353,36,4*65
$GPGSV,2,2,05,22,76,256,34,4*53
$GPGSV,1,1,03,01,32,049,33,03,45,078,38,14,66,186,41,8*5A
$GLGSV,1,1,02,86,50,024,42,76,48,201,41,1*7A
$GLGSV,1,1,02,86,50,024,39,76,48,201,28,3*7B
$GBGSV,3,1,11,03,42,189,43,10,70,306,38,27,31,065,38,30,71,354,47,1*75
$GBGSV,3,2,11,38,37,172,43,40,72,039,46,45,28,305,41,59,35,146,41,1*76
$GBGSV,3,3,11,01,35,140,41,08,25,177,33,07,81,335,41,1*41
$GBGSV,2,1,08,03,42,189,31,10,70,306,29,27,31,065,26,30,71,354,34,8*7B
$GBGSV,2,2,08,38,37,172,35,40,72,039,29,59,35,146,31,07,81,335,32,8*7B
$GBGSV,2,1,05,03,42,189,37,10,70,306,36,01,35,140,38,08,25,177,30,B*00
$GBGSV,2,2,05,07,81,335,38,B*30
$GAGSV,2,1,05,11,41,045,31,16,23,147,36,25,47,154,41,36,82,274,36,1*7E
$GAGSV,2,2,05,02,71,286,31,1*4A
$GAGSV,2,1,05,11,41,045,36,16,23,147,37,25,47,154,43,36,82,274,36,2*79
$GAGSV,2,2,05,02,71,286,35,2*4D
$GAGSV,2,1,05,11,41,045,39,16,23,147,39,25,47,154,40,36,82,274,39,7*71
$GAGSV,2,2,05,02,71,286,37,7*4A
$GNGGA,041659.00,3958.83445001,N,11629.01393529,E,5,23,0.8,47.7006,M,-8.1315,M,1.0,1828*7E
$GNRMC,041659.00,A,3958.83445001,N,11629.01393529,E,0.006,304.8,240425,7.2,W,F,C*54
$GPGSV,2,1,05,01,32,049,46,03,45,078,38,14,66,186,39,17,70,353,45,1*6E
$GPGSV,2,2,05,22,76,256,41,1*54
$GPGSV,2,1,05,01,32,049,36,03,45,078,35,14,66,186,40,17,70,353,36,4*6B
$GPGSV,2,2,05,22,76,256,34,4*53
$GPGSV,1,1,03,01,32,049,33,03,45,078,38,14,66,186,40,8*5B
$GLGSV,1,1,02,86,50,024,42,76,48,201,41,1*7A
$GLGSV,1,1,02,86,50,024,39,76,48,201,28,3*7B
$GBGSV,3,1,11,03,42,189,43,10,70,306,38,27,31,065,37,30,71,354,47,1*7A
$GBGSV,3,2,11,38,37,172,43,40,72,039,46,45,28,305,42,59,35,146,41,1*75
$GBGSV,3,3,11,01,35,140,41,08,25,177,32,07,81,335,41,1*40
$GBGSV,2,1,08,03,42,189,31,10,70,306,30,27,31,065,26,30,71,354,34,8*73
$GBGSV,2,2,08,38,37,172,35,40,72,039,29,59,35,146,31,07,81,335,32,8*7B
$GBGSV,2,1,05,03,42,189,37,10,70,306,36,01,35,140,38,08,25,177,30,B*00
$GBGSV,2,2,05,07,81,335,38,B*30
$GAGSV,2,1,05,11,41,045,31,16,23,147,36,25,47,154,41,36,82,274,36,1*7E
$GAGSV,2,2,05,02,71,286,30,1*4B
$GAGSV,2,1,05,11,41,045,36,16,23,147,37,25,47,154,43,36,82,274,36,2*79
$GAGSV,2,2,05,02,71,286,34,2*4C
$GAGSV,2,1,05,11,41,045,39,16,23,147,39,25,47,154,40,36,82,274,39,7*71
$GAGSV,2,2,05,02,71,286,37,7*4A
$GNGGA,041700.00,3958.83454407,N,11629.01369568,E,5,23,0.8,47.1646,M,-8.1316,M,1.0,1828*76
$GNRMC,041700.00,A,3958.83454407,N,11629.01369568,E,0.004,289.4,240425,7.2,W,F,C*51
$GPGSV,2,1,05,01,32,049,47,03,45,078,38,14,66,186,39,17,70,353,45,1*6F
$GPGSV,2,2,05,22,76,256,41,1*54
$GPGSV,2,1,05,01,32,049,36,03,45,078,35,14,66,186,40,17,70,353,36,4*6B
$GPGSV,2,2,05,22,76,256,35,4*52
$GPGSV,1,1,03,01,32,049,33,03,45,078,38,14,66,186,40,8*5B
$GLGSV,1,1,02,86,50,024,41,76,48,201,41,1*79
$GLGSV,1,1,02,86,50,024,40,76,48,201,29,3*74
$GBGSV,3,1,11,03,42,189,43,10,70,306,38,27,31,065,37,30,71,354,47,1*7A
$GBGSV,3,2,11,38,37,172,43,40,72,039,46,45,28,305,43,59,35,146,41,1*74
$GBGSV,3,3,11,01,35,140,40,08,25,177,32,07,81,335,41,1*41
$GBGSV,2,1,08,03,42,189,30,10,70,306,29,27,31,065,26,30,71,354,34,8*7A
$GBGSV,2,2,08,38,37,172,34,40,72,039,30,59,35,146,30,07,81,335,32,8*73
$GBGSV,2,1,05,03,42,189,37,10,70,306,36,01,35,140,38,08,25,177,30,B*00
$GBGSV,2,2,05,07,81,335,38,B*30
$GAGSV,2,1,05,11,41,045,31,16,23,147,36,25,47,154,41,36,82,274,35,1*7D
$GAGSV,2,2,05,02,71,286,31,1*4A
$GAGSV,2,1,05,11,41,045,36,16,23,147,37,25,47,154,43,36,82,274,36,2*79
$GAGSV,2,2,05,02,71,286,34,2*4C
$GAGSV,2,1,05,11,41,045,40,16,23,147,39,25,47,154,40,36,82,274,39,7*7F
$GAGSV,2,2,05,02,71,286,37,7*4A
$GNGGA,041701.00,3958.83461375,N,11629.01350098,E,5,23,0.8,46.7953,M,-8.1316,M,1.0,1828*7F
$GNRMC,041701.00,A,3958.83461375,N,11629.01350098,E,0.006,261.3,240425,7.2,W,F,C*57
$GPGSV,2,1,05,01,32,049,47,03,45,078,38,14,66,186,39,17,70,353,45,1*6F
$GPGSV,2,2,05,22,76,256,41,1*54
$GPGSV,2,1,05,01,32,049,36,03,45,078,35,14,66,186,40,17,70,353,36,4*6B
$GPGSV,2,2,05,22,76,256,34,4*53
$GPGSV,1,1,03,01,32,049,33,03,45,078,38,14,66,186,40,8*5B
$GLGSV,1,1,02,86,50,024,41,76,48,201,40,1*78
$GLGSV,1,1,02,86,50,024,40,76,48,201,29,3*74
$GBGSV,3,1,11,03,42,189,43,10,70,306,38,27,31,065,37,30,71,354,47,1*7A
$GBGSV,3,2,11,38,37,172,43,40,72,039,46,45,28,305,43,59,35,146,41,1*74
$GBGSV,3,3,11,01,35,140,40,08,25,177,33,07,81,335,41,1*40
$GBGSV,2,1,08,03,42,189,30,10,70,306,29,27,31,065,26,30,71,354,34,8*7A
$GBGSV,2,2,08,38,37,172,34,40,72,039,30,59,35,146,30,07,81,335,32,8*73
$GBGSV,2,1,05,03,42,189,37,10,70,306,36,01,35,140,38,08,25,177,29,B*08
$GBGSV,2,2,05,07,81,335,38,B*30
$GAGSV,2,1,05,11,41,045,30,16,23,147,36,25,47,154,41,36,82,274,36,1*7F
$GAGSV,2,2,05,02,71,286,30,1*4B
$GAGSV,2,1,05,11,41,045,36,16,23,147,37,25,47,154,43,36,82,274,37,2*78
$GAGSV,2,2,05,02,71,286,35,2*4D
$GAGSV,2,1,05,11,41,045,39,16,23,147,39,25,47,154,40,36,82,274,39,7*71
$GAGSV,2,2,05,02,71,286,36,7*4B
$GNGGA,041702.00,3958.83468886,N,11629.01329923,E,5,23,0.8,46.2985,M,-8.1316,M,1.0,1828*7B
$GNRMC,041702.00,A,3958.83468886,N,11629.01329923,E,0.003,252.4,240425,7.2,W,F,C*5F
$GPGSV,2,1,05,01,32,049,47,03,45,078,37,14,66,186,39,17,70,353,45,1*60
$GPGSV,2,2,05,22,76,256,42,1*57
$GPGSV,2,1,05,01,32,049,36,03,45,078,35,14,66,186,39,17,70,353,36,4*65
$GPGSV,2,2,05,22,76,256,34,4*53
$GPGSV,1,1,03,01,32,049,33,03,45,078,38,14,66,186,40,8*5B
$GLGSV,1,1,02,86,50,024,41,76,48,201,40,1*78
$GLGSV,1,1,02,86,50,024,40,76,48,201,29,3*74
$GBGSV,3,1,11,03,42,189,43,10,70,306,38,27,31,065,37,30,71,354,47,1*7A
$GBGSV,3,2,11,38,37,172,43,40,72,039,46,45,28,305,43,59,35,146,42,1*77
$GBGSV,3,3,11,01,35,140,41,08,25,177,33,07,81,335,41,1*41
$GBGSV,2,1,08,03,42,189,30,10,70,306,29,27,31,065,26,30,71,354,34,8*7A
$GBGSV,2,2,08,38,37,172,34,40,72,039,30,59,35,146,30,07,81,335,32,8*73
$GBGSV,2,1,05,03,42,189,37,10,70,306,36,01,35,140,38,08,25,177,29,B*08
$GBGSV,2,2,05,07,81,335,38,B*30
$GAGSV,2,1,05,11,41,045,30,16,23,147,36,25,47,154,41,36,82,274,35,1*7C
$GAGSV,2,2,05,02,71,286,31,1*4A
$GAGSV,2,1,05,11,41,045,36,16,23,147,37,25,47,154,43,36,82,274,37,2*78
$GAGSV,2,2,05,02,71,286,35,2*4D
$GAGSV,2,1,05,11,41,045,39,16,23,147,39,25,47,154,40,36,82,274,39,7*71
$GAGSV,2,2,05,02,71,286,36,7*4B
$GNGGA,041703.00,3958.83475938,N,11629.01309171,E,5,23,0.8,45.8708,M,-8.1316,M,1.0,1828*7D
$GNRMC,041703.00,A,3958.83475938,N,11629.01309171,E,0.004,226.0,240425,7.2,W,F,C*5B
$GPGSV,2,1,05,01,32,049,47,03,45,078,37,14,66,186,39,17,70,353,45,1*60
$GPGSV,2,2,05,22,76,256,42,1*57
$GPGSV,2,1,05,01,32,049,36,03,45,078,35,14,66,186,39,17,70,353,36,4*65
$GPGSV,2,2,05,22,76,256,34,4*53
$GPGSV,1,1,03,01,32,049,33,03,45,078,38,14,66,186,40,8*5B
$GLGSV,1,1,02,86,50,024,41,76,48,201,41,1*79
$GLGSV,1,1,02,86,50,024,40,76,48,201,30,3*7C
$GBGSV,3,1,11,03,42,189,43,10,70,306,38,27,31,065,37,30,71,354,47,1*7A
$GBGSV,3,2,11,38,37,172,43,40,72,039,46,45,28,305,43,59,35,146,42,1*77
$GBGSV,3,3,11,01,35,140,40,08,25,177,32,07,81,335,41,1*41
$GBGSV,2,1,08,03,42,189,30,10,70,306,29,27,31,065,26,30,71,354,34,8*7A
$GBGSV,2,2,08,38,37,172,34,40,72,039,30,59,35,146,31,07,81,335,32,8*72
$GBGSV,2,1,05,03,42,189,37,10,70,306,36,01,35,140,38,08,25,177,31,B*01
$GBGSV,2,2,05,07,81,335,39,B*31
$GAGSV,2,1,05,11,41,045,31,16,23,147,36,25,47,154,41,36,82,274,36,1*7E
$GAGSV,2,2,05,02,71,286,31,1*4A
$GAGSV,2,1,05,11,41,045,36,16,23,147,37,25,47,154,43,36,82,274,37,2*78
$GAGSV,2,2,05,02,71,286,35,2*4D
$GAGSV,2,1,05,11,41,045,39,16,23,147,39,25,47,154,41,36,82,274,39,7*70
$GAGSV,2,2,05,02,71,286,37,7*4A
$GNGGA,041704.00,3958.83482394,N,11629.01286180,E,5,23,0.8,45.5562,M,-8.1316,M,1.0,1828*75
$GNRMC,041704.00,A,3958.83482394,N,11629.01286180,E,0.004,242.6,240425,7.2,W,F,C*54
$GPGSV,2,1,05,01,32,049,47,03,45,078,37,14,66,186,40,17,70,353,46,1*6D
$GPGSV,2,2,05,22,76,256,42,1*57
$GPGSV,2,1,05,01,32,049,36,03,45,078,35,14,66,186,39,17,70,353,36,4*65
$GPGSV,2,2,05,22,76,256,34,4*53
$GPGSV,1,1,03,01,32,049,33,03,45,078,38,14,66,186,40,8*5B
$GLGSV,1,1,02,86,50,025,41,76,48,201,42,1*7B
$GLGSV,1,1,02,86,50,025,40,76,48,201,31,3*7C
$GBGSV,3,1,11,03,42,189,43,10,70,306,38,27,31,065,37,30,71,355,47,1*7B
$GBGSV,3,2,11,38,37,172,43,40,72,039,46,45,28,305,43,59,35,146,41,1*74
$GBGSV,3,3,11,01,35,140,41,08,25,177,32,07,81,335,41,1*40
$GBGSV,2,1,08,03,42,189,30,10,70,306,29,27,31,065,26,30,71,355,34,8*7B
$GBGSV,2,2,08,38,37,172,33,40,72,039,30,59,35,146,30,07,81,335,32,8*74
$GBGSV,2,1,05,03,42,189,38,10,70,306,36,01,35,140,38,08,25,177,32,B*0D
$GBGSV,2,2,05,07,81,335,39,B*31
$GAGSV,2,1,05,11,41,045,31,16,23,147,36,25,47,154,40,36,82,274,36,1*7F
$GAGSV,2,2,05,02,71,286,31,1*4A
$GAGSV,2,1,05,11,41,045,36,16,23,147,37,25,47,154,43,36,82,274,37,2*78
$GAGSV,2,2,05,02,71,286,35,2*4D
$GAGSV,2,1,05,11,41,045,39,16,23,147,39,25,47,154,41,36,82,274,39,7*70
$GAGSV,2,2,05,02,71,286,37,7*4A
$GNGGA,041705.00,3958.83490004,N,11629.01261618,E,5,23,0.8,45.0767,M,-8.1316,M,2.0,1828*73
$GNRMC,041705.00,A,3958.83490004,N,11629.01261618,E,0.005,259.8,240425,7.2,W,F,C*56
$GPGSV,2,1,05,01,32,049,47,03,45,078,36,14,66,186,40,17,70,353,46,1*6C
$GPGSV,2,2,05,22,76,256,42,1*57
$GPGSV,2,1,05,01,32,049,37,03,45,078,35,14,66,186,39,17,70,353,36,4*64
$GPGSV,2,2,05,22,76,256,34,4*53
$GPGSV,1,1,03,01,32,049,33,03,45,078,38,14,66,186,40,8*5B
$GLGSV,1,1,02,86,50,025,41,76,48,201,41,1*78
$GLGSV,1,1,02,86,50,025,40,76,48,201,31,3*7C
$GBGSV,3,1,11,03,42,189,43,10,70,306,38,27,31,065,36,30,71,355,47,1*7A
$GBGSV,3,2,11,38,37,172,43,40,72,039,46,45,28,305,43,59,35,146,41,1*74
$GBGSV,3,3,11,01,35,140,41,08,25,177,32,07,81,335,41,1*40
$GBGSV,2,1,08,03,42,189,30,10,70,306,29,27,31,065,26,30,71,355,34,8*7B
$GBGSV,2,2,08,38,37,172,33,40,72,039,30,59,35,146,30,07,81,335,32,8*74
$GBGSV,2,1,05,03,42,189,38,10,70,306,36,01,35,140,38,08,25,177,31,B*0E
$GBGSV,2,2,05,07,81,335,38,B*30
$GAGSV,2,1,05,11,41,045,31,16,23,147,35,25,47,154,41,36,82,274,36,1*7D
$GAGSV,2,2,05,02,71,286,31,1*4A
$GAGSV,2,1,05,11,41,045,36,16,23,147,37,25,47,154,43,36,82,274,37,2*78
$GAGSV,2,2,05,02,71,286,35,2*4D
$GAGSV,2,1,05,11,41,045,40,16,23,147,39,25,47,154,41,36,82,274,39,7*7E
$GAGSV,2,2,05,02,71,286,36,7*4B
$GNGGA,041706.00,3958.83495759,N,11629.01243331,E,5,23,0.8,44.7293,M,-8.1316,M,1.0,1828*7F
$GNRMC,041706.00,A,3958.83495759,N,11629.01243331,E,0.002,283.7,240425,7.2,W,F,C*5E
$GPGSV,2,1,05,01,32,049,47,03,45,078,36,14,66,186,40,17,70,353,46,1*6C
$GPGSV,2,2,05,22,76,256,42,1*57
$GPGSV,2,1,05,01,32,049,37,03,45,078,35,14,66,186,39,17,70,353,36,4*64
$GPGSV,2,2,05,22,76,256,34,4*53
