NMEA,GNSS_20B_W24.42.1_Q FL_22B_W24.01.5,0
NMEA,$RD_RSSI, 708, 808, 0, 0,0
NMEA,$GPGGA,041552.675,3958.826639,N,11628.638432,E,0,00,127.000,34.608,M,0,M,,*4E,1745468152675
NMEA,$GPRMC,041552.675,V,3958.826639,N,11628.638432,E,0.000,0.000,240425,,E,N*36,1745468152675
NMEA,$GPGLL,3958.826639,N,11628.638432,E,041552.675,V,N*41,1745468152675
NMEA,$GPGSA,A,1,,,,,,,,,,,,,127.000,127.000,127.000*34,1745468152675
NMEA,$BDGSA,A,1,,,,,,,,,,,,,127.000,127.000,127.000*25,1745468152675
NMEA,$GAGSA,A,1,,,,,,,,,,,,,127.000,127.000,127.000*25,1745468152675
NMEA,$GPGSV,1,1,2,17,70,352,40.7,3,45,79,42.0*47,1745468152675
NMEA,$GPVTG,0.000,T,,M,0.000,N,0.000,K,N*02,1745468152675
NMEA,$RD_RSSI, 711, 814, 0, 0,1745468152675
NMEA,$GPGGA,041553.675,3958.826639,N,11628.638432,E,0,00,127.000,34.608,M,0,M,,*4F,1745468153675
NMEA,$GPRMC,041553.675,V,3958.826639,N,11628.638432,E,0.000,0.000,240425,,E,N*37,1745468153675
NMEA,$GPGLL,3958.826639,N,11628.638432,E,041553.675,V,N*40,1745468153675
NMEA,$GPGSA,A,1,,,,,,,,,,,,,127.000,127.000,127.000*34,1745468153675
NMEA,$BDGSA,A,1,,,,,,,,,,,,,127.000,127.000,127.000*25,1745468153675
NMEA,$GAGSA,A,1,,,,,,,,,,,,,127.000,127.000,127.000*25,1745468153675
NMEA,$GPGSV,1,1,3,17,70,352,41.2,3,45,79,42.4,1,32,49,36.7*67,1745468153675
NMEA,$GPVTG,0.000,T,,M,0.000,N,0.000,K,N*02,1745468153675
NMEA,$RD_RSSI, 741, 799, 0, 0,1745468153675
NMEA,$GPGGA,041555.700,3958.826639,N,11628.638432,E,0,00,127.000,34.608,M,0,M,,*4A,1745468153675
NMEA,$GPRMC,041555.700,V,3958.826639,N,11628.638432,E,0.000,0.000,240425,,E,N*32,1745468155700
NMEA,$GPGLL,3958.826639,N,11628.638432,E,041555.700,V,N*45,1745468155700
NMEA,$GPGSA,A,1,,,,,,,,,,,,,127.000,127.000,127.000*34,1745468155700
NMEA,$BDGSA,A,1,,,,,,,,,,,,,127.000,127.000,127.000*25,1745468155700
NMEA,$GAGSA,A,1,,,,,,,,,,,,,127.000,127.000,127.000*25,1745468155700
NMEA,$GPGSV,1,1,3,17,70,352,41.2,3,45,79,42.0,1,32,49,35.2*65,1745468155700
NMEA,$GPVTG,0.000,T,,M,0.000,N,0.000,K,N*02,1745468155700
NMEA,$RD_RSSI, 812, 773, 0, 0,1745468155700
NMEA,$GPGGA,041556.700,3958.826639,N,11628.638432,E,0,00,127.000,34.608,M,0,M,,*49,1745468156700
NMEA,$GPRMC,041556.700,V,3958.826639,N,11628.638432,E,0.000,0.000,240425,,E,N*31,1745468156700
NMEA,$GPGLL,3958.826639,N,11628.638432,E,041556.700,V,N*46,1745468156700
NMEA,$GPGSA,A,1,,,,,,,,,,,,,127.000,127.000,127.000*34,1745468156700
NMEA,$BDGSA,A,1,,,,,,,,,,,,,127.000,127.000,127.000*25,1745468156700
NMEA,$GAGSA,A,1,,,,,,,,,,,,,127.000,127.000,127.000*25,1745468156700
NMEA,$GPGSV,1,1,3,17,70,352,41.5,3,45,79,41.9,1,32,49,35.0*6A,1745468156700
NMEA,$GPVTG,0.000,T,,M,0.000,N,0.000,K,N*02,1745468156700
NMEA,$RD_RSSI, 708, 800, 0, 0,1745468156700
NMEA,$GPGGA,041557.700,3958.826639,N,11628.638432,E,0,00,127.000,34.608,M,0,M,,*48,1745468157700
NMEA,$GPRMC,041557.700,V,3958.826639,N,11628.638432,E,0.000,0.000,240425,,E,N*30,1745468157700
NMEA,$GPGLL,3958.826639,N,11628.638432,E,041557.700,V,N*47,1745468157700
NMEA,$GPGSA,A,1,,,,,,,,,,,,,127.000,127.000,127.000*34,1745468157700
NMEA,$BDGSA,A,1,,,,,,,,,,,,,127.000,127.000,127.000*25,1745468157700
NMEA,$GAGSA,A,1,,,,,,,,,,,,,127.000,127.000,127.000*25,1745468157700
NMEA,$GPGSV,2,1,6,17,70,352,41.0,3,45,79,42.2,1,32,49,35.0,22,76,258,30.7*45,1745468157700
NMEA,$GPGSV,2,2,6,14,66,186,27.7,6,33,239,34.7*79,1745468157700
NMEA,$BDGSV,1,1,1,230,1,,43.2*42,1745468157700
NMEA,$GPVTG,0.000,T,,M,0.000,N,0.000,K,N*02,1745468157700
NMEA,$RD_RSSI, 773, 818, 0, 0,1745468157700
NMEA,$GPGGA,041558.700,3958.826639,N,11628.638432,E,0,00,127.000,34.608,M,0,M,,*47,1745468158700
NMEA,$GPRMC,041558.700,V,3958.826639,N,11628.638432,E,0.000,0.000,240425,,E,N*3F,1745468158700
NMEA,$GPGLL,3958.826639,N,11628.638432,E,041558.700,V,N*48,1745468158700
NMEA,$GPGSA,A,1,,,,,,,,,,,,,127.000,127.000,127.000*34,1745468158700
NMEA,$BDGSA,A,1,,,,,,,,,,,,,127.000,127.000,127.000*25,1745468158700
NMEA,$GAGSA,A,1,,,,,,,,,,,,,127.000,127.000,127.000*25,1745468158700
NMEA,$GPGSV,2,1,6,17,70,352,41.0,3,45,79,42.4,1,32,49,35.2,22,76,258,30.6*40,1745468158700
NMEA,$GPGSV,2,2,6,14,66,186,29.6,6,33,239,34.0*71,1745468158700
NMEA,$BDGSV,1,1,2,230,1,,43.0,207,1,,39.2*51,1745468158700
NMEA,$GAGSV,1,1,2,110,1,,33.5,105,1,,36.0*5E,1745468158700
NMEA,$GPVTG,0.000,T,,M,0.000,N,0.000,K,N*02,1745468158700
NMEA,$RD_RSSI, 819, 785, 0, 0,1745468158700
NMEA,$GPGGA,041559.700,3958.826639,N,11628.638432,E,0,00,127.000,34.608,M,0,M,,*46,1745468159700
NMEA,$GPRMC,041559.700,V,3958.826639,N,11628.638432,E,0.000,0.000,240425,,E,N*3E,1745468159700
NMEA,$GPGLL,3958.826639,N,11628.638432,E,041559.700,V,N*49,1745468159700
NMEA,$GPGSA,A,1,,,,,,,,,,,,,127.000,127.000,127.000*34,1745468159700
NMEA,$BDGSA,A,1,,,,,,,,,,,,,127.000,127.000,127.000*25,1745468159700
NMEA,$GAGSA,A,1,,,,,,,,,,,,,127.000,127.000,127.000*25,1745468159700
NMEA,$GPGSV,2,1,6,17,70,352,41.2,3,45,79,42.5,1,32,49,34.4,22,76,258,31.7*44,1745468159700
NMEA,$GPGSV,2,2,6,14,66,186,28.5,6,33,239,32.5*70,1745468159700
NMEA,$BDGSV,1,1,2,230,1,,43.0,207,1,,39.2*51,1745468159700
NMEA,$GAGSV,1,1,2,110,1,,34.5,105,1,,35.7*5D,1745468159700
NMEA,$GPVTG,0.000,T,,M,0.000,N,0.000,K,N*02,1745468159700
NMEA,$RD_RSSI, 733, 807, 0, 0,1745468159700
NMEA,$GPGGA,041600.700,3958.826639,N,11628.638432,E,0,00,127.000,34.608,M,0,M,,*49,1745468160700
NMEA,$GPRMC,041600.700,V,3958.826639,N,11628.638432,E,0.000,0.000,240425,,E,N*31,1745468160700
NMEA,$GPGLL,3958.826639,N,11628.638432,E,041600.700,V,N*46,1745468160700
NMEA,$GPGSA,A,1,,,,,,,,,,,,,127.000,127.000,127.000*34,1745468160700
NMEA,$BDGSA,A,1,,,,,,,,,,,,,127.000,127.000,127.000*25,1745468160700
NMEA,$GAGSA,A,1,,,,,,,,,,,,,127.000,127.000,127.000*25,1745468160700
NMEA,$GPGSV,2,1,6,17,70,352,41.0,3,45,79,42.5,1,32,49,33.7,22,76,258,32.4*42,1745468160700
NMEA,$GPGSV,2,2,6,14,66,186,27.7,6,33,239,30.6*7C,1745468160700
NMEA,$BDGSV,1,1,3,230,1,,42.9,203,1,,27.8,207,1,,39.2*4B,1745468160700
NMEA,$GAGSV,1,1,2,110,1,,34.0,105,1,,35.7*58,1745468160700
NMEA,$GPVTG,0.000,T,,M,0.000,N,0.000,K,N*02,1745468160700
NMEA,$RD_RSSI, 721, 800, 0, 0,1745468160700
NMEA,$GPGGA,041601.700,3958.826639,N,11628.638432,E,0,00,127.000,34.608,M,0,M,,*48,1745468161700
NMEA,$GPRMC,041601.700,V,3958.826639,N,11628.638432,E,0.000,0.000,240425,,E,N*30,1745468161700
NMEA,$GPGLL,3958.826639,N,11628.638432,E,041601.700,V,N*47,1745468161700
NMEA,$GPGSA,A,1,,,,,,,,,,,,,127.000,127.000,127.000*34,1745468161700
NMEA,$BDGSA,A,1,,,,,,,,,,,,,127.000,127.000,127.000*25,1745468161700
NMEA,$GAGSA,A,1,,,,,,,,,,,,,127.000,127.000,127.000*25,1745468161700
NMEA,$GPGSV,2,1,6,17,70,352,40.9,3,45,78,42.2,1,32,49,33.7,22,76,258,33.0*49,1745468161700
NMEA,$GPGSV,2,2,6,14,66,186,27.2,6,33,239,30.1*7E,1745468161700
NMEA,$BDGSV,1,1,3,230,1,,42.7,203,1,,37.4,207,1,,39.0*4A,1745468161700
NMEA,$GAGSV,1,1,2,110,1,,34.0,105,1,,35.5*5A,1745468161700
NMEA,$GPVTG,0.000,T,,M,0.000,N,0.000,K,N*02,1745468161700
NMEA,$RD_RSSI, 752, 782, 0, 0,1745468161700
NMEA,$GPGGA,041602.700,3958.826639,N,11628.638432,E,0,00,127.000,34.608,M,0,M,,*4B,1745468162700
NMEA,$GPRMC,041602.700,V,3958.826639,N,11628.638432,E,0.000,0.000,240425,,E,N*33,1745468162700
NMEA,$GPGLL,3958.826639,N,11628.638432,E,041602.700,V,N*44,1745468162700
NMEA,$GPGSA,A,1,,,,,,,,,,,,,127.000,127.000,127.000*34,1745468162700
NMEA,$BDGSA,A,1,,,,,,,,,,,,,127.000,127.000,127.000*25,1745468162700
NMEA,$GAGSA,A,1,,,,,,,,,,,,,127.000,127.000,127.000*25,1745468162700
NMEA,$GPGSV,2,1,6,17,70,352,40.5,3,45,78,42.2,1,32,49,34.0,22,76,258,32.2*46,1745468162700
NMEA,$GPGSV,2,2,6,14,66,186,28.5,6,33,239,29.1*7E,1745468162700
NMEA,$BDGSV,1,1,3,230,1,,42.7,203,1,,33.5,207,1,,39.0*4F,1745468162700
NMEA,$GAGSV,1,1,2,110,1,,33.7,105,1,,35.7*58,1745468162700
NMEA,$GPVTG,0.000,T,,M,0.000,N,0.000,K,N*02,1745468162700
NMEA,$RD_RSSI, 744, 770, 0, 0,1745468162700
NMEA,$GPGGA,041603.700,3958.826639,N,11628.638432,E,0,00,127.000,34.608,M,0,M,,*4A,1745468163700
NMEA,$GPRMC,041603.700,V,3958.826639,N,11628.638432,E,0.000,0.000,240425,,E,N*32,1745468163700
NMEA,$GPGLL,3958.826639,N,11628.638432,E,041603.700,V,N*45,1745468163700
NMEA,$GPGSA,A,1,,,,,,,,,,,,,127.000,127.000,127.000*34,1745468163700
NMEA,$BDGSA,A,1,,,,,,,,,,,,,127.000,127.000,127.000*25,1745468163700
NMEA,$GAGSA,A,1,,,,,,,,,,,,,127.000,127.000,127.000*25,1745468163700
NMEA,$GPGSV,2,1,6,17,70,352,40.5,3,45,78,42.5,1,32,49,33.7,22,76,258,32.5*46,1745468163700
NMEA,$GPGSV,2,2,6,14,66,186,29.3,6,33,239,27.7*71,1745468163700
NMEA,$BDGSV,1,1,3,230,1,,42.5,203,1,,32.9,207,1,,39.2*42,1745468163700
NMEA,$GAGSV,1,1,2,110,1,,34.0,105,1,,35.7*58,1745468163700
NMEA,$GPVTG,0.000,T,,M,0.000,N,0.000,K,N*02,1745468163700
NMEA,$RD_RSSI, 711, 782, 0, 0,1745468163700
NMEA,$GPGGA,041604.700,3958.826639,N,11628.638432,E,0,00,127.000,34.608,M,0,M,,*4D,1745468164700
NMEA,$GPRMC,041604.700,V,3958.826639,N,11628.638432,E,0.000,0.000,240425,,E,N*35,1745468164700
NMEA,$GPGLL,3958.826639,N,11628.638432,E,041604.700,V,N*42,1745468164700
NMEA,$GPGSA,A,1,,,,,,,,,,,,,127.000,127.000,127.000*34,1745468164700
NMEA,$BDGSA,A,1,,,,,,,,,,,,,127.000,127.000,127.000*25,1745468164700
NMEA,$GAGSA,A,1,,,,,,,,,,,,,127.000,127.000,127.000*25,1745468164700
NMEA,$GPGSV,2,1,6,17,70,352,41.2,3,45,78,42.0,1,32,49,34.5,22,76,258,30.8*4F,1745468164700
NMEA,$GPGSV,2,2,6,14,66,186,30.1,6,33,239,26.8*75,1745468164700
NMEA,$BDGSV,1,1,3,230,1,,42.7,203,1,,32.7,207,1,,39.0*4C,1745468164700
NMEA,$GAGSV,1,1,2,110,1,,34.0,105,1,,35.7*58,1745468164700
NMEA,$GPVTG,0.000,T,,M,0.000,N,0.000,K,N*02,1745468164700
NMEA,$RD_RSSI, 818, 790, 0, 0,1745468164700
NMEA,$GPGGA,041605.700,3958.826639,N,11628.638432,E,0,00,127.000,34.608,M,0,M,,*4C,1745468165700
NMEA,$GPRMC,041605.700,V,3958.826639,N,11628.638432,E,0.000,0.000,240425,,E,N*34,1745468165700
NMEA,$GPGLL,3958.826639,N,11628.638432,E,041605.700,V,N*43,1745468165700
NMEA,$GPGSA,A,1,,,,,,,,,,,,,127.000,127.000,127.000*34,1745468165700
NMEA,$BDGSA,A,1,,,,,,,,,,,,,127.000,127.000,127.000*25,1745468165700
NMEA,$GAGSA,A,1,,,,,,,,,,,,,127.000,127.000,127.000*25,1745468165700
NMEA,$GPGSV,2,1,6,17,70,352,41.0,3,45,78,42.4,1,32,49,35.0,22,76,258,31.2*46,1745468165700
NMEA,$GPGSV,2,2,6,14,66,186,30.8,6,33,239,26.2*76,1745468165700
NMEA,$BDGSV,1,1,3,230,1,,42.5,203,1,,32.2,207,1,,39.0*4B,1745468165700
NMEA,$GAGSV,1,1,2,110,1,,34.2,105,1,,36.0*5E,1745468165700
NMEA,$GPVTG,0.000,T,,M,0.000,N,0.000,K,N*02,1745468165700
NMEA,$RD_RSSI, 756, 797, 0, 0,1745468165700
NMEA,$GPGGA,041606.700,3958.826639,N,11628.638432,E,0,00,127.000,34.608,M,0,M,,*4F,1745468166700
NMEA,$GPRMC,041606.700,V,3958.826639,N,11628.638432,E,0.000,0.000,240425,,E,N*37,1745468166700
NMEA,$GPGLL,3958.826639,N,11628.638432,E,041606.700,V,N*40,1745468166700
NMEA,$GPGSA,A,1,,,,,,,,,,,,,127.000,127.000,127.000*34,1745468166700
NMEA,$BDGSA,A,1,,,,,,,,,,,,,127.000,127.000,127.000*25,1745468166700
NMEA,$GAGSA,A,1,,,,,,,,,,,,,127.000,127.000,127.000*25,1745468166700
NMEA,$GPGSV,2,1,6,17,70,352,41.4,3,45,78,42.7,1,32,49,35.0,22,76,258,31.7*44,1745468166700
NMEA,$GPGSV,2,2,6,14,66,186,29.3,6,33,239,29.3*7B,1745468166700
NMEA,$BDGSV,1,1,3,230,1,,42.9,203,1,,34.0,207,1,,38.7*45,1745468166700
NMEA,$GAGSV,1,1,2,110,1,,34.0,105,1,,36.5*59,1745468166700
NMEA,$GPVTG,0.000,T,,M,0.000,N,0.000,K,N*02,1745468166700
NMEA,$RD_RSSI, 716, 824, 0, 0,1745468166700
NMEA,$GPGGA,041607.700,3958.826639,N,11628.638432,E,0,00,127.000,34.608,M,0,M,,*4E,1745468167700
NMEA,$GPRMC,041607.700,V,3958.826639,N,11628.638432,E,0.000,0.000,240425,,E,N*36,1745468167700
NMEA,$GPGLL,3958.826639,N,11628.638432,E,041607.700,V,N*41,1745468167700
NMEA,$GPGSA,A,1,,,,,,,,,,,,,127.000,127.000,127.000*34,1745468167700
NMEA,$BDGSA,A,1,,,,,,,,,,,,,127.000,127.000,127.000*25,1745468167700
NMEA,$GAGSA,A,1,,,,,,,,,,,,,127.000,127.000,127.000*25,1745468167700
NMEA,$GPGSV,2,1,6,17,70,352,41.9,3,45,78,42.7,1,32,49,34.7,22,76,258,32.4*4F,1745468167700
NMEA,$GPGSV,2,2,6,14,66,186,29.7,6,33,239,30.6*72,1745468167700
NMEA,$BDGSV,1,1,3,230,1,,42.9,203,1,,34.0,207,1,,38.5*47,1745468167700
NMEA,$GAGSV,1,1,2,110,1,,33.7,105,1,,36.5*59,1745468167700
NMEA,$GPVTG,0.000,T,,M,0.000,N,0.000,K,N*02,1745468167700
NMEA,$RD_RSSI, 728, 783, 0, 0,1745468167700
NMEA,$GPGGA,041608.700,3958.826639,N,11628.638432,E,0,00,127.000,34.608,M,0,M,,*41,1745468168700
NMEA,$GPRMC,041608.700,V,3958.826639,N,11628.638432,E,0.000,0.000,240425,,E,N*39,1745468168700
NMEA,$GPGLL,3958.826639,N,11628.638432,E,041608.700,V,N*4E,1745468168700
NMEA,$GPGSA,A,1,,,,,,,,,,,,,127.000,127.000,127.000*34,1745468168700
NMEA,$BDGSA,A,1,,,,,,,,,,,,,127.000,127.000,127.000*25,1745468168700
NMEA,$GAGSA,A,1,,,,,,,,,,,,,127.000,127.000,127.000*25,1745468168700
NMEA,$GPGSV,2,1,6,17,70,352,42.0,3,45,78,43.2,1,32,49,35.5,22,76,258,32.9*4F,1745468168700
NMEA,$GPGSV,2,2,6,14,66,186,28.7,6,33,239,31.0*74,1745468168700
NMEA,$BDGSV,1,1,3,230,1,,43.2,203,1,,45.2,207,1,,39.0*4D,1745468168700
NMEA,$GAGSV,1,1,2,110,1,,35.0,105,1,,36.9*54,1745468168700
NMEA,$GPVTG,0.000,T,,M,0.000,N,0.000,K,N*02,1745468168700
NMEA,$RD_RSSI, 730, 811, 0, 0,1745468168700
NMEA,$GPGGA,041609.700,3958.826639,N,11628.638432,E,0,00,127.000,34.608,M,0,M,,*40,1745468169700
NMEA,$GPRMC,041609.700,V,3958.826639,N,11628.638432,E,0.000,0.000,240425,,E,N*38,1745468169700
NMEA,$GPGLL,3958.826639,N,11628.638432,E,041609.700,V,N*4F,1745468169700
NMEA,$GPGSA,A,1,,,,,,,,,,,,,127.000,127.000,127.000*34,1745468169700
NMEA,$BDGSA,A,1,,,,,,,,,,,,,127.000,127.000,127.000*25,1745468169700
NMEA,$GAGSA,A,1,,,,,,,,,,,,,127.000,127.000,127.000*25,1745468169700
NMEA,$GPGSV,2,1,6,17,70,352,41.7,3,45,78,42.9,1,32,49,35.7,22,76,258,32.0*4A,1745468169700
NMEA,$GPGSV,2,2,6,14,66,186,30.3,6,33,239,30.3*7B,1745468169700
NMEA,$BDGSV,1,1,3,230,1,,43.0,203,1,,38.9,207,1,,38.7*48,1745468169700
NMEA,$GAGSV,1,1,2,110,1,,34.0,105,1,,36.5*59,1745468169700
NMEA,$GPVTG,0.000,T,,M,0.000,N,0.000,K,N*02,1745468169700
NMEA,$RD_RSSI, 725, 786, 0, 0,1745468169700
NMEA,$GPGGA,041610.700,3958.826639,N,11628.638432,E,0,00,127.000,34.608,M,0,M,,*48,1745468170700
NMEA,$GPRMC,041610.700,V,3958.826639,N,11628.638432,E,0.000,0.000,240425,,E,N*30,1745468170700
NMEA,$GPGLL,3958.826639,N,11628.638432,E,041610.700,V,N*47,1745468170700
NMEA,$GPGSA,A,1,,,,,,,,,,,,,127.000,127.000,127.000*34,1745468170700
NMEA,$BDGSA,A,1,,,,,,,,,,,,,127.000,127.000,127.000*25,1745468170700
NMEA,$GAGSA,A,1,,,,,,,,,,,,,127.000,127.000,127.000*25,1745468170700
NMEA,$GPGSV,2,1,6,17,70,352,41.7,3,45,78,42.5,1,32,49,34.5,22,76,258,31.2*44,1745468170700
NMEA,$GPGSV,2,2,6,14,66,186,31.5,6,33,239,30.3*7C,1745468170700
NMEA,$BDGSV,1,1,3,230,1,,43.0,203,1,,35.5,207,1,,38.7*49,1745468170700
NMEA,$GAGSV,1,1,2,110,1,,33.2,105,1,,35.7*5D,1745468170700
NMEA,$GPVTG,0.000,T,,M,0.000,N,0.000,K,N*02,1745468170700
NMEA,$RD_RSSI, 759, 811, 0, 0,1745468170700
NMEA,$GPGGA,041611.700,3958.826639,N,11628.638432,E,0,00,127.000,34.608,M,0,M,,*49,1745468171700
NMEA,$GPRMC,041611.700,V,3958.826639,N,11628.638432,E,0.000,0.000,240425,,E,N*31,1745468171700
NMEA,$GPGLL,3958.826639,N,11628.638432,E,041611.700,V,N*46,1745468171700
NMEA,$GPGSA,A,1,,,,,,,,,,,,,127.000,127.000,127.000*34,1745468171700
NMEA,$BDGSA,A,1,,,,,,,,,,,,,127.000,127.000,127.000*25,1745468171700
NMEA,$GAGSA,A,1,,,,,,,,,,,,,127.000,127.000,127.000*25,1745468171700
NMEA,$GPGSV,2,1,6,17,70,352,41.7,3,45,78,42.5,1,32,49,34.5,22,76,258,31.1*47,1745468171700
NMEA,$GPGSV,2,2,6,14,66,186,31.8,6,33,239,29.0*7A,1745468171700
NMEA,$BDGSV,1,1,3,230,1,,43.0,203,1,,34.0,207,1,,38.9*43,1745468171700
NMEA,$GAGSV,1,1,2,110,1,,33.2,105,1,,35.2*58,1745468171700
NMEA,$GPVTG,0.000,T,,M,0.000,N,0.000,K,N*02,1745468171700
NMEA,$RD_RSSI, 755, 818, 0, 0,1745468171700
NMEA,$GPGGA,041612.700,3958.826639,N,11628.638432,E,0,00,127.000,34.608,M,0,M,,*4A,1745468172700
NMEA,$GPRMC,041612.700,V,3958.826639,N,11628.638432,E,0.000,0.000,240425,,E,N*32,1745468172700
NMEA,$GPGLL,3958.826639,N,11628.638432,E,041612.700,V,N*45,1745468172700
NMEA,$GPGSA,A,1,,,,,,,,,,,,,127.000,127.000,127.000*34,1745468172700
NMEA,$BDGSA,A,1,,,,,,,,,,,,,127.000,127.000,127.000*25,1745468172700
NMEA,$GAGSA,A,1,,,,,,,,,,,,,127.000,127.000,127.000*25,1745468172700
NMEA,$GPGSV,2,1,6,17,70,352,41.5,3,45,78,42.4,1,32,49,34.2,22,76,258,30.7*44,1745468172700
NMEA,$GPGSV,2,2,6,14,66,186,32.2,6,33,239,26.7*7B,1745468172700
NMEA,$BDGSV,1,1,3,230,1,,42.9,203,1,,33.9,207,1,,39.0*4D,1745468172700
NMEA,$GAGSV,1,1,2,110,1,,33.4,105,1,,35.5*59,1745468172700
NMEA,$GPVTG,0.000,T,,M,0.000,N,0.000,K,N*02,1745468172700
NMEA,$RD_RSSI, 725, 796, 0, 0,1745468172700
NMEA,$GPGGA,041613.700,3958.826639,N,11628.638432,E,0,00,127.000,34.608,M,0,M,,*4B,1745468173700
NMEA,$GPRMC,041613.700,V,3958.826639,N,11628.638432,E,0.000,0.000,240425,,E,N*33,1745468173700
NMEA,$GPGLL,3958.826639,N,11628.638432,E,041613.700,V,N*44,1745468173700
NMEA,$GPGSA,A,1,,,,,,,,,,,,,127.000,127.000,127.000*34,1745468173700
NMEA,$BDGSA,A,1,,,,,,,,,,,,,127.000,127.000,127.000*25,1745468173700
NMEA,$GAGSA,A,1,,,,,,,,,,,,,127.000,127.000,127.000*25,1745468173700
NMEA,$GPGSV,2,1,7,17,70,352,41.5,3,45,78,42.4,1,32,49,34.5,22,76,258,30.6*43,1745468173700
NMEA,$GPGSV,2,2,7,14,66,186,32.2,6,33,239,24.1,19,47,302,21.5*5C,1745468173700
NMEA,$BDGSV,1,1,3,230,1,,43.0,203,1,,34.5,207,1,,38.7*48,1745468173700
NMEA,$GAGSV,1,1,2,110,1,,34.2,105,1,,35.9*54,1745468173700
NMEA,$GPVTG,0.000,T,,M,0.000,N,0.000,K,N*02,1745468173700
NMEA,$RD_RSSI, 740, 859, 0, 0,1745468173700
NMEA,$GPGGA,041614.700,3958.826639,N,11628.638432,E,0,00,127.000,34.608,M,0,M,,*4C,1745468174700
NMEA,$GPRMC,041614.700,V,3958.826639,N,11628.638432,E,0.000,0.000,240425,,E,N*34,1745468174700
NMEA,$GPGLL,3958.826639,N,11628.638432,E,041614.700,V,N*43,1745468174700
NMEA,$GPGSA,A,1,,,,,,,,,,,,,127.000,127.000,127.000*34,1745468174700
NMEA,$BDGSA,A,1,,,,,,,,,,,,,127.000,127.000,127.000*25,1745468174700
NMEA,$GAGSA,A,1,,,,,,,,,,,,,127.000,127.000,127.000*25,1745468174700
NMEA,$GPGSV,2,1,7,17,70,352,41.5,3,45,78,42.7,1,32,49,34.7,22,76,258,30.1*45,1745468174700
NMEA,$GPGSV,2,2,7,14,66,186,32.0,6,33,239,24.5,19,47,302,21.1*5E,1745468174700
NMEA,$BDGSV,1,1,3,230,1,,43.2,203,1,,34.9,207,1,,38.9*48,1745468174700
NMEA,$GAGSV,1,1,2,110,1,,34.7,105,1,,35.9*51,1745468174700
NMEA,$GPVTG,0.000,T,,M,0.000,N,0.000,K,N*02,1745468174700
NMEA,$RD_RSSI, 751, 806, 0, 0,1745468174700
NMEA,$GPGGA,041615.700,3958.826639,N,11628.638432,E,0,00,127.000,34.608,M,0,M,,*4D,1745468175700
NMEA,$GPRMC,041615.700,V,3958.826639,N,11628.638432,E,0.000,0.000,240425,,E,N*35,1745468175700
NMEA,$GPGLL,3958.826639,N,11628.638432,E,041615.700,V,N*42,1745468175700
NMEA,$GPGSA,A,1,,,,,,,,,,,,,127.000,127.000,127.000*34,1745468175700
NMEA,$BDGSA,A,1,,,,,,,,,,,,,127.000,127.000,127.000*25,1745468175700
NMEA,$GAGSA,A,1,,,,,,,,,,,,,127.000,127.000,127.000*25,1745468175700
NMEA,$GPGSV,2,1,8,17,70,352,41.2,3,45,78,42.5,1,32,49,34.5,22,76,258,30.7*4B,1745468175700
NMEA,$GPGSV,2,2,8,14,66,186,32.2,6,33,239,23.3,19,47,302,20.2,11,3,234,16.2*4D,1745468175700
NMEA,$BDGSV,1,1,3,230,1,,43.2,203,1,,34.7,207,1,,38.9*46,1745468175700
NMEA,$GAGSV,1,1,2,110,1,,34.5,105,1,,35.7*5D,1745468175700
NMEA,$GPVTG,0.000,T,,M,0.000,N,0.000,K,N*02,1745468175700
NMEA,$RD_RSSI, 802, 794, 0, 0,1745468175700
NMEA,$GPGGA,041616.700,3958.826639,N,11628.638432,E,0,00,127.000,34.608,M,0,M,,*4E,1745468176700
NMEA,$GPRMC,041616.700,V,3958.826639,N,11628.638432,E,0.000,0.000,240425,,E,N*36,1745468176700
NMEA,$GPGLL,3958.826639,N,11628.638432,E,041616.700,V,N*41,1745468176700
NMEA,$GPGSA,A,1,,,,,,,,,,,,,127.000,127.000,127.000*34,1745468176700
NMEA,$BDGSA,A,1,,,,,,,,,,,,,127.000,127.000,127.000*25,1745468176700
NMEA,$GAGSA,A,1,,,,,,,,,,,,,127.000,127.000,127.000*25,1745468176700
NMEA,$GPGSV,2,1,8,17,70,352,41.2,3,45,78,42.7,1,32,49,35.0,22,76,258,31.2*49,1745468176700
NMEA,$GPGSV,2,2,8,14,66,186,32.5,6,33,239,22.3,19,47,302,22.6,11,3,234,16.1*4E,1745468176700
NMEA,$BDGSV,1,1,3,230,1,,43.4,203,1,,34.7,207,1,,38.9*40,1745468176700
NMEA,$GAGSV,1,1,2,110,1,,34.9,105,1,,36.0*55,1745468176700
NMEA,$GPVTG,0.000,T,,M,0.000,N,0.000,K,N*02,1745468176700
NMEA,$RD_RSSI, 739, 818, 0, 0,1745468176700
NMEA,$GPGGA,041617.700,3958.826639,N,11628.638432,E,0,00,127.000,34.608,M,0,M,,*4F,1745468177700
NMEA,$GPRMC,041617.700,V,3958.826639,N,11628.638432,E,0.000,0.000,240425,,E,N*37,1745468177700
NMEA,$GPGLL,3958.826639,N,11628.638432,E,041617.700,V,N*40,1745468177700
NMEA,$GPGSA,A,1,,,,,,,,,,,,,179.605,127.000,127.000*3C,1745468177700
NMEA,$BDGSA,A,1,,,,,,,,,,,,,179.605,127.000,127.000*2D,1745468177700
NMEA,$GAGSA,A,1,,,,,,,,,,,,,179.605,127.000,127.000*2D,1745468177700
NMEA,$GPGSV,2,1,7,17,70,352,40.5,3,45,78,42.7,1,32,49,37.5,22,76,258,30.2*46,1745468177700
NMEA,$GPGSV,2,2,7,14,66,186,31.2,6,33,239,20.2,19,47,302,24.0*58,1745468177700
NMEA,$BDGSV,1,1,3,230,1,,43.0,203,1,,34.5,207,1,,38.7*48,1745468177700
NMEA,$GAGSV,1,1,2,110,23,147,34.7,105,41,45,36.7*6B,1745468177700
NMEA,$GPVTG,0.000,T,,M,0.000,N,0.000,K,N*02,1745468177700
NMEA,$RD_RSSI, 730, 843, 0, 0,1745468177700
NMEA,$GPGGA,041618.700,3958.826639,N,11628.638432,E,0,00,127.000,34.608,M,0,M,,*40,1745468178700
NMEA,$GPRMC,041618.700,V,3958.826639,N,11628.638432,E,0.000,0.000,240425,,E,N*38,1745468178700
NMEA,$GPGLL,3958.826639,N,11628.638432,E,041618.700,V,N*4F,1745468178700
NMEA,$GPGSA,A,1,,,,,,,,,,,,,179.605,127.000,127.000*3C,1745468178700
NMEA,$BDGSA,A,1,,,,,,,,,,,,,179.605,127.000,127.000*2D,1745468178700
NMEA,$GAGSA,A,1,,,,,,,,,,,,,179.605,127.000,127.000*2D,1745468178700
NMEA,$GPGSV,2,1,7,17,70,352,40.5,3,45,78,43.4,1,32,49,39.2,22,76,258,30.7*48,1745468178700
NMEA,$GPGSV,2,2,7,14,66,186,30.8,6,33,239,20.2,19,47,302,22.0*55,1745468178700
NMEA,$BDGSV,1,1,3,230,1,,43.0,203,1,,34.5,207,1,,39.0*4E,1745468178700
NMEA,$GAGSV,1,1,2,110,23,147,34.5,105,41,45,37.2*6D,1745468178700
NMEA,$GPVTG,0.000,T,,M,0.000,N,0.000,K,N*02,1745468178700
NMEA,$RD_RSSI, 826, 759, 0, 0,1745468178700
NMEA,$GPGGA,041619.700,3958.826639,N,11628.638432,E,0,00,127.000,34.608,M,0,M,,*41,1745468179700
NMEA,$GPRMC,041619.700,V,3958.826639,N,11628.638432,E,0.000,0.000,240425,,E,N*39,1745468179700
NMEA,$GPGLL,3958.826639,N,11628.638432,E,041619.700,V,N*4E,1745468179700
NMEA,$GPGSA,A,1,,,,,,,,,,,,,179.605,127.000,127.000*3C,1745468179700
NMEA,$BDGSA,A,1,,,,,,,,,,,,,179.605,127.000,127.000*2D,1745468179700
NMEA,$GAGSA,A,1,,,,,,,,,,,,,179.605,127.000,127.000*2D,1745468179700
NMEA,$GPGSV,2,1,7,17,70,352,40.7,3,45,78,43.4,1,32,49,39.5,22,76,258,31.6*4D,1745468179700
NMEA,$GPGSV,2,2,7,14,66,186,31.2,6,33,239,20.5,19,47,302,22.0*59,1745468179700
NMEA,$BDGSV,1,1,3,230,1,,43.0,203,1,,34.4,207,1,,38.7*49,1745468179700
NMEA,$GAGSV,1,1,2,110,23,147,34.5,105,41,45,37.2*6D,1745468179700
NMEA,$GPVTG,0.000,T,,M,0.000,N,0.000,K,N*02,1745468179700
NMEA,$RD_RSSI, 735, 824, 0, 0,1745468179700
NMEA,$GPGGA,041620.700,3958.826639,N,11628.638432,E,0,00,127.000,34.608,M,0,M,,*4B,1745468180700
NMEA,$GPRMC,041620.700,V,3958.826639,N,11628.638432,E,0.000,0.000,240425,,E,N*33,1745468180700
NMEA,$GPGLL,3958.826639,N,11628.638432,E,041620.700,V,N*44,1745468180700
NMEA,$GPGSA,A,1,,,,,,,,,,,,,179.605,127.000,127.000*3C,1745468180700
NMEA,$BDGSA,A,1,,,,,,,,,,,,,179.605,127.000,127.000*2D,1745468180700
NMEA,$GAGSA,A,1,,,,,,,,,,,,,179.605,127.000,127.000*2D,1745468180700
NMEA,$GPGSV,2,1,7,17,70,352,40.4,3,45,78,42.7,1,32,49,38.7,22,76,258,30.0*48,1745468180700
NMEA,$GPGSV,2,2,7,14,66,186,32.2,6,33,239,20.8,19,47,302,23.0*56,1745468180700
NMEA,$BDGSV,1,1,3,230,1,,42.7,203,1,,33.7,207,1,,38.0*4C,1745468180700
NMEA,$GAGSV,1,1,2,110,23,147,34.2,105,41,45,36.4*6D,1745468180700
NMEA,$GPVTG,0.000,T,,M,0.000,N,0.000,K,N*02,1745468180700
NMEA,$RD_RSSI, 748, 848, 0, 0,1745468180700
NMEA,$GPGGA,041621.700,3958.826639,N,11628.638432,E,0,00,127.000,34.608,M,0,M,,*4A,1745468181700
NMEA,$GPRMC,041621.700,V,3958.826639,N,11628.638432,E,0.000,0.000,240425,,E,N*32,1745468181700
NMEA,$GPGLL,3958.826639,N,11628.638432,E,041621.700,V,N*45,1745468181700
NMEA,$GPGSA,A,1,,,,,,,,,,,,,179.605,127.000,127.000*3C,1745468181700
NMEA,$BDGSA,A,1,,,,,,,,,,,,,179.605,127.000,127.000*2D,1745468181700
NMEA,$GAGSA,A,1,,,,,,,,,,,,,179.605,127.000,127.000*2D,1745468181700
NMEA,$GPGSV,2,1,7,17,70,352,40.5,3,45,78,42.2,1,32,49,38.9,22,76,258,28.8*43,1745468181700
NMEA,$GPGSV,2,2,7,14,66,186,32.5,6,33,239,22.2,19,47,302,22.1*59,1745468181700
NMEA,$BDGSV,1,1,4,230,1,,42.7,203,1,,33.0,207,1,,37.9,210,1,,29.5*58,1745468181700
NMEA,$GAGSV,1,1,2,110,23,147,33.7,105,41,45,36.2*69,1745468181700
NMEA,$GPVTG,0.000,T,,M,0.000,N,0.000,K,N*02,1745468181700
NMEA,$RD_RSSI, 838, 793, 0, 0,1745468181700
NMEA,$GPGGA,041622.700,3958.826639,N,11628.638432,E,0,00,127.000,34.608,M,0,M,,*49,1745468182700
NMEA,$GPRMC,041622.700,V,3958.826639,N,11628.638432,E,0.000,0.000,240425,,E,N*31,1745468182700
NMEA,$GPGLL,3958.826639,N,11628.638432,E,041622.700,V,N*46,1745468182700
NMEA,$GPGSA,A,1,,,,,,,,,,,,,179.605,127.000,127.000*3C,1745468182700
NMEA,$BDGSA,A,1,,,,,,,,,,,,,179.605,127.000,127.000*2D,1745468182700
NMEA,$GAGSA,A,1,,,,,,,,,,,,,179.605,127.000,127.000*2D,1745468182700
NMEA,$GPGSV,2,1,7,17,70,352,40.7,3,45,78,42.2,1,32,49,38.5,22,76,258,28.8*4D,1745468182700
NMEA,$GPGSV,2,2,7,14,66,186,32.2,6,33,239,21.6,19,47,302,24.7*59,1745468182700
NMEA,$BDGSV,1,1,4,230,1,,42.5,203,1,,33.7,207,1,,38.0,210,1,,29.7*59,1745468182700
NMEA,$GAGSV,1,1,2,110,23,147,33.7,105,41,45,36.2*69,1745468182700
NMEA,$GPVTG,0.000,T,,M,0.000,N,0.000,K,N*02,1745468182700
NMEA,$RD_RSSI, 755, 816, 0, 0,1745468182700
NMEA,$GPGGA,041623.700,3958.826639,N,11628.638432,E,0,00,127.000,34.608,M,0,M,,*48,1745468183700
NMEA,$GPRMC,041623.700,V,3958.826639,N,11628.638432,E,0.000,0.000,240425,,E,N*30,1745468183700
NMEA,$GPGLL,3958.826639,N,11628.638432,E,041623.700,V,N*47,1745468183700
NMEA,$GPGSA,A,1,,,,,,,,,,,,,179.605,127.000,127.000*3C,1745468183700
NMEA,$BDGSA,A,1,,,,,,,,,,,,,179.605,127.000,127.000*2D,1745468183700
NMEA,$GAGSA,A,1,,,,,,,,,,,,,179.605,127.000,127.000*2D,1745468183700
NMEA,$GPGSV,2,1,7,17,70,352,40.5,3,45,78,42.2,1,32,49,38.9,22,76,258,28.7*4C,1745468183700
NMEA,$GPGSV,2,2,7,14,66,186,32.5,6,33,239,22.1,19,47,302,22.2*59,1745468183700
NMEA,$BDGSV,1,1,4,230,1,,42.7,203,1,,33.2,207,1,,37.7,210,1,,29.8*59,1745468183700
NMEA,$GAGSV,1,1,2,110,23,147,34.2,105,41,45,36.4*6D,1745468183700
NMEA,$GPVTG,0.000,T,,M,0.000,N,0.000,K,N*02,1745468183700
NMEA,$RD_RSSI, 723, 824, 0, 0,1745468183700
NMEA,$GPGGA,041624.685,3958.840133,N,11629.005406,E,1,05,3.085,16.595,M,0,M,,*49,1745468184685
NMEA,$GPRMC,041624.685,A,3958.840133,N,11629.005406,E,0.886,117.047,240425,,E,A*22,1745468184685
NMEA,$GPGLL,3958.840133,N,11629.005406,E,041624.685,A,A*57,1745468184685
NMEA,$GPGSA,A,3,17,3,1,,,,,,,,,,5.986,3.085,5.130*3D,1745468184685
NMEA,$BDGSA,A,3,,,,,,,,,,,,,5.986,3.085,5.130*28,1745468184685
NMEA,$GAGSA,A,3,110,105,,,,,,,,,,,5.986,3.085,5.130*2C,1745468184685
NMEA,$GPGSV,4,1,15,17,70,352,40.5,3,45,78,42.2,1,32,49,39.2,22,76,258,29.7*72,1745468184685
NMEA,$GPGSV,4,2,15,14,66,186,31.7,6,33,239,22.3,19,47,302,22.2,2,6,55,0.0*45,1745468184685
NMEA,$GPGSV,4,3,15,11,3,234,0.0,24,7,310,0.0,30,5,202,0.0,193,1,,0.0*73,1745468184685
NMEA,$GPGSV,4,4,15,194,1,,0.0,195,1,,0.0,196,1,,0.0*5D,1745468184685
NMEA,$BDGSV,2,1,5,230,1,,43.0,203,1,,32.9,207,1,,38.0,240,1,,42.9*56,1745468184685
NMEA,$BDGSV,2,2,5,210,1,,30.2*40,1745468184685
NMEA,$GAGSV,1,1,4,110,23,147,34.2,130,1,,34.5,105,41,45,36.5,107,8,289,0.0*66,1745468184685
NMEA,$GPVTG,117.047,T,,M,0.886,N,1.642,K,A*0E,1745468184685
NMEA,$RD_RSSI, 732, 792, 0, 0,1745468184685
NMEA,$GPGGA,041625.585,3958.839576,N,11629.006429,E,1,05,3.086,17.013,M,0,M,,*47,1745468185585
NMEA,$GPRMC,041625.585,A,3958.839576,N,11629.006429,E,0.788,257.197,240425,,E,A*2F,1745468185585
NMEA,$GPGLL,3958.839576,N,11629.006429,E,041625.585,A,A*50,1745468185585
NMEA,$GPGSA,A,3,17,3,1,,,,,,,,,,5.986,3.086,5.129*36,1745468185585
NMEA,$BDGSA,A,3,,,,,,,,,,,,,5.986,3.086,5.129*23,1745468185585
NMEA,$GAGSA,A,3,110,105,,,,,,,,,,,5.986,3.086,5.129*27,1745468185585
NMEA,$GPGSV,4,1,15,17,70,352,40.5,3,45,78,42.2,1,32,49,39.0,22,76,258,29.3*74,1745468185585
NMEA,$GPGSV,4,2,15,14,66,186,31.8,6,33,239,21.5,19,47,302,22.2,2,6,55,0.0*4F,1745468185585
NMEA,$GPGSV,4,3,15,11,3,234,0.0,24,7,310,0.0,30,5,202,0.0,193,1,,0.0*73,1745468185585
NMEA,$GPGSV,4,4,15,194,1,,0.0,195,1,,0.0,196,1,,0.0*5D,1745468185585
NMEA,$BDGSV,2,1,5,230,1,,42.7,203,1,,32.7,207,1,,37.7,240,1,,42.7*58,1745468185585
NMEA,$BDGSV,2,2,5,210,1,,30.3*41,1745468185585
NMEA,$GAGSV,1,1,4,110,23,147,34.0,130,1,,34.2,105,41,45,36.4,107,8,289,0.0*62,1745468185585
NMEA,$GPVTG,257.197,T,,M,0.788,N,1.460,K,A*06,1745468185585
NMEA,$RD_RSSI, 731, 813, 0, 0,1745468185585
NMEA,$GPGGA,041626.585,3958.837796,N,11629.005043,E,1,05,3.086,13.292,M,0,M,,*42,1745468186585
NMEA,$GPRMC,041626.585,A,3958.837796,N,11629.005043,E,0.747,257.197,240425,,E,A*26,1745468186585
NMEA,$GPGLL,3958.837796,N,11629.005043,E,041626.585,A,A*5A,1745468186585
NMEA,$GPGSA,A,3,17,3,1,,,,,,,,,,5.985,3.086,5.128*34,1745468186585
NMEA,$BDGSA,A,3,,,,,,,,,,,,,5.985,3.086,5.128*21,1745468186585
NMEA,$GAGSA,A,3,110,105,,,,,,,,,,,5.985,3.086,5.128*25,1745468186585
NMEA,$GPGSV,4,1,15,17,70,352,40.7,3,45,78,42.4,1,32,49,39.0,22,76,258,28.1*73,1745468186585
NMEA,$GPGSV,4,2,15,14,66,186,32.5,6,33,239,25.7,19,47,302,19.1,2,6,55,0.0*4C,1745468186585
NMEA,$GPGSV,4,3,15,11,3,234,0.0,24,7,310,0.0,30,5,202,0.0,193,1,,0.0*73,1745468186585
NMEA,$GPGSV,4,4,15,194,1,,0.0,195,1,,0.0,196,1,,0.0*5D,1745468186585
NMEA,$BDGSV,2,1,6,230,1,,42.7,203,1,,33.2,207,1,,37.4,240,1,,42.5*5E,1745468186585
NMEA,$BDGSV,2,2,6,210,1,,30.3,245,1,,36.7*5C,1745468186585
NMEA,$GAGSV,1,1,4,110,23,147,33.9,130,1,,34.2,105,41,45,36.7,107,8,289,0.0*6F,1745468186585
NMEA,$GPVTG,257.197,T,,M,0.747,N,1.383,K,A*0F,1745468186585
NMEA,$RD_RSSI, 686, 786, 0, 0,1745468186585
NMEA,$GPGGA,041627.585,3958.837037,N,11629.004086,E,1,05,3.087,12.323,M,0,M,,*4C,1745468187585
NMEA,$GPRMC,041627.585,A,3958.837037,N,11629.004086,E,0.375,257.197,240425,,E,A*26,1745468187585
NMEA,$GPGLL,3958.837037,N,11629.004086,E,041627.585,A,A*5F,1745468187585
NMEA,$GPGSA,A,3,17,3,1,,,,,,,,,,5.985,3.087,5.127*3A,1745468187585
NMEA,$BDGSA,A,3,,,,,,,,,,,,,5.985,3.087,5.127*2F,1745468187585
NMEA,$GAGSA,A,3,110,105,,,,,,,,,,,5.985,3.087,5.127*2B,1745468187585
NMEA,$GPGSV,4,1,15,17,70,353,40.7,3,45,78,42.4,1,32,49,38.9,22,76,257,28.6*72,1745468187585
NMEA,$GPGSV,4,2,15,14,66,186,32.2,6,33,239,28.1,19,47,302,17.7,2,6,55,0.0*48,1745468187585
NMEA,$GPGSV,4,3,15,11,3,234,0.0,24,7,310,0.0,30,5,202,0.0,193,1,,0.0*73,1745468187585
NMEA,$GPGSV,4,4,15,194,1,,0.0,195,1,,0.0,196,1,,0.0*5D,1745468187585
NMEA,$BDGSV,2,1,7,230,1,,42.7,203,1,,33.7,207,1,,37.4,240,1,,42.5*5A,1745468187585
NMEA,$BDGSV,2,2,7,210,1,,30.7,245,1,,36.5,238,1,,35.4*4F,1745468187585
NMEA,$GAGSV,1,1,4,110,23,147,34.2,130,1,,34.2,105,41,45,36.9,107,8,289,0.0*6D,1745468187585
NMEA,$GPVTG,257.197,T,,M,0.375,N,0.695,K,A*09,1745468187585
NMEA,$RD_RSSI, 731, 834, 0, 0,1745468187585
NMEA,$GPGGA,041628.585,3958.839681,N,11629.009461,E,1,08,2.842,25.838,M,0,M,,*4E,1745468188585
NMEA,$GPRMC,041628.585,A,3958.839681,N,11629.009461,E,0.780,212.043,240425,,E,A*2B,1745468188585
NMEA,$GPGLL,3958.839681,N,11629.009461,E,041628.585,A,A*55,1745468188585
NMEA,$GPGSA,A,3,17,3,1,22,,,,,,,,,5.778,2.842,5.030*31,1745468188585
NMEA,$BDGSA,A,3,230,207,,,,,,,,,,,5.778,2.842,5.030*20,1745468188585
NMEA,$GAGSA,A,3,110,105,,,,,,,,,,,5.778,2.842,5.030*20,1745468188585
NMEA,$GPGSV,4,1,16,17,70,353,40.7,3,45,78,42.5,1,32,49,39.0,22,76,257,28.7*79,1745468188585
NMEA,$GPGSV,4,2,16,14,66,186,32.2,6,33,239,28.7,19,47,302,16.7,2,6,55,0.0*4C,1745468188585
NMEA,$GPGSV,4,3,16,11,3,234,0.0,24,7,310,0.0,30,4,202,0.0,193,1,,0.0*71,1745468188585
NMEA,$GPGSV,4,4,16,194,1,,0.0,195,1,,0.0,196,1,,0.0,47,1,,0.0*42,1745468188585
NMEA,$BDGSV,2,1,7,230,71,354,42.7,203,1,,34.0,207,81,335,37.7,240,1,,42.5*51,1745468188585
NMEA,$BDGSV,2,2,7,210,1,,30.7,245,1,,36.9,238,1,,35.5*42,1745468188585
NMEA,$GAGSV,1,1,4,110,23,147,34.4,130,1,,34.4,105,41,45,37.4,107,8,289,0.0*61,1745468188585
NMEA,$GPVTG,212.043,T,,M,0.780,N,1.445,K,A*00,1745468188585
NMEA,$RD_RSSI, 677, 794, 0, 0,1745468188585
NMEA,$GPGGA,041629.585,3958.839868,N,11629.009925,E,1,08,2.843,27.090,M,0,M,,*42,1745468189585
NMEA,$GPRMC,041629.585,A,3958.839868,N,11629.009925,E,0.541,212.043,240425,,E,A*21,1745468189585
NMEA,$GPGLL,3958.839868,N,11629.009925,E,041629.585,A,A*50,1745468189585
NMEA,$GPGSA,A,3,17,3,1,22,,,,,,,,,5.777,2.843,5.029*37,1745468189585
NMEA,$BDGSA,A,3,230,207,,,,,,,,,,,5.777,2.843,5.029*26,1745468189585
NMEA,$GAGSA,A,3,110,105,,,,,,,,,,,5.777,2.843,5.029*26,1745468189585
NMEA,$GPGSV,4,1,16,17,70,353,40.5,3,45,78,43.0,1,32,49,39.5,22,76,257,29.1*7D,1745468189585
NMEA,$GPGSV,4,2,16,14,66,186,32.0,6,33,239,28.7,19,47,302,16.7,2,6,55,0.0*4E,1745468189585
NMEA,$GPGSV,4,3,16,11,3,234,0.0,24,7,310,0.0,30,4,202,0.0,193,1,,0.0*71,1745468189585
NMEA,$GPGSV,4,4,16,194,1,,0.0,195,1,,0.0,196,1,,0.0,47,1,,0.0*42,1745468189585
NMEA,$BDGSV,2,1,7,230,71,354,42.5,203,1,,34.0,207,81,335,38.0,240,1,,42.7*59,1745468189585
NMEA,$BDGSV,2,2,7,210,1,,31.0,245,1,,37.0,238,1,,35.7*4E,1745468189585
NMEA,$GAGSV,1,1,4,110,23,147,34.5,130,1,,34.7,105,41,45,37.7,107,8,289,0.0*60,1745468189585
NMEA,$GPVTG,212.043,T,,M,0.541,N,1.003,K,A*09,1745468189585
NMEA,$RD_RSSI, 723, 790, 0, 0,1745468189585
NMEA,$GPGGA,041630.585,3958.839506,N,11629.010146,E,1,09,2.731,28.351,M,0,M,,*40,1745468190585
NMEA,$GPRMC,041630.585,A,3958.839506,N,11629.010146,E,0.000,212.043,240425,,E,A*29,1745468190585
NMEA,$GPGLL,3958.839506,N,11629.010146,E,041630.585,A,A*58,1745468190585
NMEA,$GPGSA,A,3,17,3,1,22,14,,,,,,,,5.507,2.731,4.782*3A,1745468190585
NMEA,$BDGSA,A,3,230,207,,,,,,,,,,,5.507,2.731,4.782*2E,1745468190585
NMEA,$GAGSA,A,3,110,105,,,,,,,,,,,5.507,2.731,4.782*2E,1745468190585
NMEA,$GPGSV,4,1,16,17,70,353,40.4,3,45,78,42.7,1,32,49,39.0,22,76,257,28.5*7A,1745468190585
NMEA,$GPGSV,4,2,16,14,66,186,32.2,6,33,239,27.7,195,1,,34.2,194,1,,30.6*4C,1745468190585
NMEA,$GPGSV,4,3,16,19,47,302,18.0,2,6,56,0.0,11,3,234,0.0,24,7,310,0.0*78,1745468190585
NMEA,$GPGSV,4,4,16,30,4,202,0.0,193,1,,0.0,196,1,,0.0,47,1,,0.0*4E,1745468190585
NMEA,$BDGSV,2,1,7,230,71,354,42.5,203,1,,33.7,207,81,335,37.5,240,1,,42.5*51,1745468190585
NMEA,$BDGSV,2,2,7,210,1,,30.8,245,1,,36.5,238,1,,35.5*41,1745468190585
NMEA,$GAGSV,1,1,4,110,23,147,33.9,130,1,,34.0,105,41,45,37.2,107,8,289,0.0*69,1745468190585
NMEA,$GPVTG,212.043,T,,M,0.000,N,0.000,K,A*0B,1745468190585
NMEA,$RD_RSSI, 747, 809, 0, 0,1745468190585
NMEA,$GPGGA,041631.585,3958.839571,N,11629.010395,E,1,09,2.732,29.779,M,0,M,,*41,1745468191585
NMEA,$GPRMC,041631.585,A,3958.839571,N,11629.010395,E,0.507,212.043,240425,,E,A*26,1745468191585
NMEA,$GPGLL,3958.839571,N,11629.010395,E,041631.585,A,A*55,1745468191585
NMEA,$GPGSA,A,3,17,3,1,22,14,,,,,,,,5.507,2.732,4.781*3A,1745468191585
NMEA,$BDGSA,A,3,230,207,,,,,,,,,,,5.507,2.732,4.781*2E,1745468191585
NMEA,$GAGSA,A,3,110,105,,,,,,,,,,,5.507,2.732,4.781*2E,1745468191585
NMEA,$GPGSV,4,1,16,17,70,353,40.0,3,45,78,42.5,1,32,49,38.5,22,76,257,28.1*7C,1745468191585
NMEA,$GPGSV,4,2,16,14,66,186,32.7,6,33,239,26.2,195,1,,34.0,194,1,,29.2*43,1745468191585
NMEA,$GPGSV,4,3,16,19,47,302,18.6,2,6,56,0.0,11,3,234,0.0,24,7,310,0.0*7E,1745468191585
NMEA,$GPGSV,4,4,16,30,4,202,0.0,193,1,,0.0,196,1,,0.0,47,1,,0.0*4E,1745468191585
NMEA,$BDGSV,2,1,7,230,71,354,42.5,203,1,,33.0,207,81,335,37.4,240,1,,42.2*50,1745468191585
NMEA,$BDGSV,2,2,7,210,1,,30.7,245,1,,36.2,238,1,,35.2*4E,1745468191585
NMEA,$GAGSV,1,1,4,110,23,147,33.5,130,1,,34.0,105,41,45,37.2,107,8,289,0.0*65,1745468191585
NMEA,$GPVTG,212.043,T,,M,0.507,N,0.939,K,A*0A,1745468191585
NMEA,$RD_RSSI, 740, 823, 0, 0,1745468191585
NMEA,$GPGGA,041632.585,3958.839717,N,11629.010686,E,1,09,2.732,31.085,M,0,M,,*4A,1745468192585
NMEA,$GPRMC,041632.585,A,3958.839717,N,11629.010686,E,0.437,212.043,240425,,E,A*22,1745468192585
NMEA,$GPGLL,3958.839717,N,11629.010686,E,041632.585,A,A*53,1745468192585
NMEA,$GPGSA,A,3,17,3,1,22,14,,,,,,,,5.506,2.732,4.781*3B,1745468192585
NMEA,$BDGSA,A,3,230,207,,,,,,,,,,,5.506,2.732,4.781*2F,1745468192585
NMEA,$GAGSA,A,3,110,105,,,,,,,,,,,5.506,2.732,4.781*2F,1745468192585
NMEA,$GPGSV,4,1,16,17,70,353,40.2,3,45,78,42.5,1,32,49,38.7,22,76,257,27.3*71,1745468192585
NMEA,$GPGSV,4,2,16,14,66,186,32.2,6,33,239,26.1,195,1,,33.7,194,1,,28.2*44,1745468192585
NMEA,$GPGSV,4,3,16,19,47,302,21.7,2,6,56,0.0,11,3,234,0.0,24,7,310,0.0*75,1745468192585
NMEA,$GPGSV,4,4,16,30,4,202,0.0,193,1,,0.0,196,1,,0.0,47,1,,0.0*4E,1745468192585
NMEA,$BDGSV,2,1,7,230,71,354,42.5,203,1,,33.0,207,81,335,37.2,240,1,,42.2*56,1745468192585
NMEA,$BDGSV,2,2,7,210,1,,30.7,245,1,,36.5,238,1,,34.9*43,1745468192585
NMEA,$GAGSV,1,1,4,110,23,147,33.5,130,1,,34.2,105,41,45,37.2,107,8,289,0.0*67,1745468192585
NMEA,$GPVTG,212.043,T,,M,0.437,N,0.810,K,A*02,1745468192585
NMEA,$RD_RSSI, 799, 782, 0, 0,1745468192585
NMEA,$GPGGA,041633.585,3958.839991,N,11629.010916,E,1,09,2.733,32.498,M,0,M,,*47,1745468193585
NMEA,$GPRMC,041633.585,A,3958.839991,N,11629.010916,E,0.000,212.043,240425,,E,A*25,1745468193585
NMEA,$GPGLL,3958.839991,N,11629.010916,E,041633.585,A,A*54,1745468193585
NMEA,$GPGSA,A,3,17,3,1,22,14,,,,,,,,5.506,2.733,4.780*3B,1745468193585
NMEA,$BDGSA,A,3,230,207,,,,,,,,,,,5.506,2.733,4.780*2F,1745468193585
NMEA,$GAGSA,A,3,110,105,,,,,,,,,,,5.506,2.733,4.780*2F,1745468193585
NMEA,$GPGSV,4,1,16,17,70,353,40.4,3,45,78,42.5,1,32,49,38.7,22,76,257,26.7*72,1745468193585
NMEA,$GPGSV,4,2,16,14,66,186,32.2,6,33,239,25.3,195,1,,33.4,194,1,,27.7*4C,1745468193585
NMEA,$GPGSV,4,3,16,19,47,302,22.7,2,6,56,0.0,11,3,234,0.0,24,7,310,0.0*76,1745468193585
NMEA,$GPGSV,4,4,16,30,4,202,0.0,193,1,,0.0,196,1,,0.0,47,1,,0.0*4E,1745468193585
NMEA,$BDGSV,2,1,7,230,71,354,42.4,203,1,,33.2,207,81,335,37.2,240,1,,42.2*55,1745468193585
NMEA,$BDGSV,2,2,7,210,1,,29.8,245,1,,36.2,238,1,,35.2*49,1745468193585
NMEA,$GAGSV,1,1,4,110,23,147,33.0,130,1,,34.0,105,41,45,37.0,107,8,289,0.0*62,1745468193585
NMEA,$GPVTG,212.043,T,,M,0.000,N,0.000,K,A*0B,1745468193585
NMEA,$RD_RSSI, 691, 807, 0, 0,1745468193585
NMEA,$GPGGA,041634.585,3958.840161,N,11629.011029,E,1,09,2.733,33.217,M,0,M,,*4D,1745468194585
NMEA,$GPRMC,041634.585,A,3958.840161,N,11629.011029,E,0.000,212.043,240425,,E,A*2F,1745468194585
NMEA,$GPGLL,3958.840161,N,11629.011029,E,041634.585,A,A*5E,1745468194585
NMEA,$GPGSA,A,3,17,3,1,22,14,,,,,,,,5.506,2.733,4.780*3B,1745468194585
NMEA,$BDGSA,A,3,230,207,,,,,,,,,,,5.506,2.733,4.780*2F,1745468194585
NMEA,$GAGSA,A,3,110,105,,,,,,,,,,,5.506,2.733,4.780*2F,1745468194585
NMEA,$GPGSV,4,1,16,17,70,353,40.4,3,45,78,42.5,1,32,49,38.5,22,76,257,27.5*73,1745468194585
NMEA,$GPGSV,4,2,16,14,66,186,31.7,6,33,239,24.1,195,1,,33.5,194,1,,27.8*47,1745468194585
NMEA,$GPGSV,4,3,16,19,47,302,21.7,2,6,56,0.0,11,3,234,0.0,24,7,310,0.0*75,1745468194585
NMEA,$GPGSV,4,4,16,30,4,202,0.0,193,1,,0.0,196,1,,0.0,47,1,,0.0*4E,1745468194585
NMEA,$BDGSV,2,1,7,230,71,354,42.5,203,1,,33.2,207,81,335,37.0,240,1,,42.4*50,1745468194585
NMEA,$BDGSV,2,2,7,210,1,,30.0,245,1,,36.2,238,1,,35.4*4F,1745468194585
NMEA,$GAGSV,1,1,4,110,23,147,33.0,130,1,,34.0,105,41,45,37.0,107,8,289,0.0*62,1745468194585
NMEA,$GPVTG,212.043,T,,M,0.000,N,0.000,K,A*0B,1745468194585
NMEA,$RD_RSSI, 743, 834, 0, 0,1745468194585
NMEA,$GPGGA,041635.585,3958.840409,N,11629.011433,E,1,09,2.734,34.711,M,0,M,,*4B,1745468195585
NMEA,$GPRMC,041635.585,A,3958.840409,N,11629.011433,E,0.000,212.043,240425,,E,A*2A,1745468195585
NMEA,$GPGLL,3958.840409,N,11629.011433,E,041635.585,A,A*5B,1745468195585
NMEA,$GPGSA,A,3,17,3,1,22,14,,,,,,,,5.506,2.734,4.779*3A,1745468195585
NMEA,$BDGSA,A,3,230,207,,,,,,,,,,,5.506,2.734,4.779*2E,1745468195585
NMEA,$GAGSA,A,3,110,105,,,,,,,,,,,5.506,2.734,4.779*2E,1745468195585
NMEA,$GPGSV,4,1,16,17,70,353,40.4,3,45,78,42.2,1,32,49,38.9,22,76,257,28.7*75,1745468195585
NMEA,$GPGSV,4,2,16,14,66,186,31.0,6,33,239,23.5,195,1,,33.5,194,1,,28.7*43,1745468195585
NMEA,$GPGSV,4,3,16,19,47,302,22.8,2,6,56,0.0,11,3,234,0.0,24,7,310,0.0*79,1745468195585
NMEA,$GPGSV,4,4,16,30,4,202,0.0,193,1,,0.0,196,1,,0.0,47,1,,0.0*4E,1745468195585
NMEA,$BDGSV,2,1,7,230,71,354,42.5,203,1,,33.5,207,81,335,37.0,240,1,,42.4*57,1745468195585
NMEA,$BDGSV,2,2,7,210,1,,31.1,245,1,,36.5,238,1,,35.7*4B,1745468195585
NMEA,$GAGSV,1,1,4,110,23,147,32.9,130,1,,34.2,105,41,45,37.0,107,8,289,0.0*68,1745468195585
NMEA,$GPVTG,212.043,T,,M,0.000,N,0.000,K,A*0B,1745468195585
NMEA,$RD_RSSI, 778, 765, 0, 0,1745468195585
NMEA,$GPGGA,041636.585,3958.840592,N,11629.011752,E,1,09,2.734,36.126,M,0,M,,*4F,1745468196585
NMEA,$GPRMC,041636.585,A,3958.840592,N,11629.011752,E,0.000,212.043,240425,,E,A*2E,1745468196585
NMEA,$GPGLL,3958.840592,N,11629.011752,E,041636.585,A,A*5F,1745468196585
NMEA,$GPGSA,A,3,17,3,1,22,14,,,,,,,,5.506,2.734,4.778*3B,1745468196585
NMEA,$BDGSA,A,3,230,207,,,,,,,,,,,5.506,2.734,4.778*2F,1745468196585
NMEA,$GAGSA,A,3,110,105,,,,,,,,,,,5.506,2.734,4.778*2F,1745468196585
NMEA,$GPGSV,4,1,16,17,70,353,40.2,3,45,78,42.7,1,32,49,39.7,22,76,257,28.7*79,1745468196585
NMEA,$GPGSV,4,2,16,14,66,186,30.5,6,33,239,22.3,195,1,,32.9,194,1,,31.6*44,1745468196585
NMEA,$GPGSV,4,3,16,196,1,,34.9,19,47,302,22.2,2,6,56,0.0,11,3,234,0.0*41,1745468196585
NMEA,$GPGSV,4,4,16,24,7,310,0.0,30,4,202,0.0,193,1,,0.0,47,1,,0.0*42,1745468196585
NMEA,$BDGSV,2,1,7,230,71,354,43.0,203,1,,34.0,207,81,335,38.5,240,1,,42.4*5B,1745468196585
NMEA,$BDGSV,2,2,7,210,1,,31.3,245,1,,37.5,238,1,,36.2*4E,1745468196585
NMEA,$GAGSV,1,1,4,110,23,147,33.0,130,1,,34.5,105,41,45,37.0,107,8,289,0.0*67,1745468196585
NMEA,$GPVTG,212.043,T,,M,0.000,N,0.000,K,A*0B,1745468196585
NMEA,$RD_RSSI, 717, 818, 0, 0,1745468196585
NMEA,$GPGGA,041637.584,3958.840732,N,11629.011957,E,1,09,2.735,37.237,M,0,M,,*4F,1745468197584
NMEA,$GPRMC,041637.584,A,3958.840732,N,11629.011957,E,0.348,212.043,240425,,E,A*22,1745468197584
NMEA,$GPGLL,3958.840732,N,11629.011957,E,041637.584,A,A*5C,1745468197584
NMEA,$GPGSA,A,3,17,3,1,22,14,,,,,,,,5.505,2.735,4.778*39,1745468197584
NMEA,$BDGSA,A,3,230,207,,,,,,,,,,,5.505,2.735,4.778*2D,1745468197584
NMEA,$GAGSA,A,3,110,105,,,,,,,,,,,5.505,2.735,4.778*2D,1745468197584
NMEA,$GPGSV,4,1,16,17,70,353,40.4,3,45,78,42.7,1,32,49,39.5,22,76,257,28.0*7A,1745468197584
NMEA,$GPGSV,4,2,16,14,66,186,31.7,6,33,239,22.7,195,1,,33.2,194,1,,32.7*4B,1745468197584
NMEA,$GPGSV,4,3,16,196,1,,35.2,19,47,302,21.6,2,6,56,0.0,11,3,234,0.0*4C,1745468197584
NMEA,$GPGSV,4,4,16,24,7,310,0.0,30,4,202,0.0,193,1,,0.0,47,1,,0.0*42,1745468197584
NMEA,$BDGSV,2,1,7,230,71,354,43.2,203,1,,33.2,207,81,335,38.5,240,1,,42.5*5D,1745468197584
NMEA,$BDGSV,2,2,7,210,1,,31.7,245,1,,38.0,238,1,,36.2*40,1745468197584
NMEA,$GAGSV,1,1,4,110,23,147,32.2,130,1,,34.2,105,41,45,37.2,107,8,289,0.0*61,1745468197584
NMEA,$GPVTG,212.043,T,,M,0.348,N,0.644,K,A*02,1745468197584
NMEA,$RD_RSSI, 728, 837, 0, 0,1745468197584
NMEA,$GPGGA,041638.584,3958.840757,N,11629.012208,E,1,09,2.735,38.480,M,0,M,,*44,1745468198584
NMEA,$GPRMC,041638.584,A,3958.840757,N,11629.012208,E,0.476,212.043,240425,,E,A*26,1745468198584
NMEA,$GPGLL,3958.840757,N,11629.012208,E,041638.584,A,A*52,1745468198584
NMEA,$GPGSA,A,3,17,3,1,22,14,,,,,,,,5.505,2.735,4.777*36,1745468198584
NMEA,$BDGSA,A,3,230,207,,,,,,,,,,,5.505,2.735,4.777*22,1745468198584
NMEA,$GAGSA,A,3,110,105,,,,,,,,,,,5.505,2.735,4.777*22,1745468198584
NMEA,$GPGSV,4,1,16,17,70,353,40.5,3,45,78,42.7,1,32,49,39.2,22,76,257,27.6*75,1745468198584
NMEA,$GPGSV,4,2,16,14,66,186,31.8,6,33,239,27.0,195,1,,33.5,194,1,,32.0*46,1745468198584
NMEA,$GPGSV,4,3,16,196,1,,35.4,19,47,302,22.1,2,6,56,0.0,11,3,234,0.0*4E,1745468198584
NMEA,$GPGSV,4,4,16,24,7,310,0.0,30,4,202,0.0,193,1,,0.0,47,1,,0.0*42,1745468198584
NMEA,$BDGSV,2,1,7,230,71,354,43.0,203,1,,32.2,207,81,335,38.2,240,1,,42.9*55,1745468198584
NMEA,$BDGSV,2,2,7,210,1,,32.4,245,1,,38.7,238,1,,35.2*44,1745468198584
NMEA,$GAGSV,1,1,4,110,23,147,32.2,130,1,,34.5,105,41,45,37.4,107,8,289,0.0*60,1745468198584
NMEA,$GPVTG,212.043,T,,M,0.476,N,0.883,K,A*0D,1745468198584
NMEA,$RD_RSSI, 792, 756, 0, 0,1745468198584
NMEA,$GPGGA,041639.584,3958.840648,N,11629.012241,E,1,09,2.736,39.242,M,0,M,,*4D,1745468199584
NMEA,$GPRMC,041639.584,A,3958.840648,N,11629.012241,E,0.479,212.043,240425,,E,A*2A,1745468199584
NMEA,$GPGLL,3958.840648,N,11629.012241,E,041639.584,A,A*51,1745468199584
NMEA,$GPGSA,A,3,17,3,1,22,14,,,,,,,,5.505,2.736,4.777*35,1745468199584
NMEA,$BDGSA,A,3,230,207,,,,,,,,,,,5.505,2.736,4.777*21,1745468199584
NMEA,$GAGSA,A,3,110,105,,,,,,,,,,,5.505,2.736,4.777*21,1745468199584
NMEA,$GPGSV,4,1,16,17,70,353,40.7,3,45,78,42.7,1,32,49,39.0,22,76,257,27.0*73,1745468199584
NMEA,$GPGSV,4,2,16,14,66,186,31.6,6,33,239,28.0,195,1,,34.0,194,1,,31.0*46,1745468199584
NMEA,$GPGSV,4,3,16,196,1,,34.7,19,47,302,22.3,2,6,56,0.0,11,3,234,0.0*4E,1745468199584
NMEA,$GPGSV,4,4,16,24,7,310,0.0,30,4,202,0.0,193,1,,0.0,47,1,,0.0*42,1745468199584
NMEA,$BDGSV,2,1,7,230,71,354,43.2,203,1,,33.2,207,81,335,38.5,240,1,,43.5*5C,1745468199584
NMEA,$BDGSV,2,2,7,210,1,,32.9,245,1,,38.7,238,1,,35.2*49,1745468199584
NMEA,$GAGSV,1,1,4,110,23,147,33.4,130,1,,35.0,105,41,45,37.4,107,8,289,0.0*63,1745468199584
NMEA,$GPVTG,212.043,T,,M,0.479,N,0.888,K,A*09,1745468199584
NMEA,$RD_RSSI, 731, 812, 0, 0,1745468199584
NMEA,$GPGGA,041640.584,3958.840513,N,11629.012289,E,1,09,2.736,40.238,M,0,M,,*49,1745468200584
NMEA,$GPRMC,041640.584,A,3958.840513,N,11629.012289,E,0.336,212.043,240425,,E,A*21,1745468200584
NMEA,$GPGLL,3958.840513,N,11629.012289,E,041640.584,A,A*56,1745468200584
NMEA,$GPGSA,A,3,17,3,1,22,14,,,,,,,,5.505,2.736,4.776*34,1745468200584
NMEA,$BDGSA,A,3,230,207,,,,,,,,,,,5.505,2.736,4.776*20,1745468200584
NMEA,$GAGSA,A,3,110,105,,,,,,,,,,,5.505,2.736,4.776*20,1745468200584
NMEA,$GPGSV,4,1,16,17,70,353,40.7,3,45,78,41.7,1,32,49,39.0,22,76,257,25.7*75,1745468200584
NMEA,$GPGSV,4,2,16,14,66,186,31.7,6,33,239,30.2,195,1,,33.4,194,1,,29.1*47,1745468200584
NMEA,$GPGSV,4,3,16,196,1,,35.0,19,47,302,22.8,2,6,56,0.0,11,3,234,0.0*43,1745468200584
NMEA,$GPGSV,4,4,16,24,7,310,0.0,30,4,202,0.0,193,1,,0.0,47,1,,0.0*42,1745468200584
NMEA,$BDGSV,2,1,7,230,71,354,43.0,203,1,,33.2,207,81,335,38.0,240,1,,43.2*5C,1745468200584
NMEA,$BDGSV,2,2,7,210,1,,32.7,245,1,,38.0,238,1,,35.0*42,1745468200584
NMEA,$GAGSV,1,1,4,110,23,147,34.0,130,1,,35.0,105,41,45,37.0,107,8,289,0.0*64,1745468200584
NMEA,$GPVTG,212.043,T,,M,0.336,N,0.622,K,A*0B,1745468200584
NMEA,$RD_RSSI, 686, 810, 0, 0,1745468200584
NMEA,$GPGGA,041641.584,3958.840288,N,11629.012357,E,1,09,2.737,41.034,M,0,M,,*41,1745468201584
NMEA,$GPRMC,041641.584,A,3958.840288,N,11629.012357,E,0.169,212.043,240425,,E,A*2F,1745468201584
NMEA,$GPGLL,3958.840288,N,11629.012357,E,041641.584,A,A*50,1745468201584
NMEA,$GPGSA,A,3,17,3,1,22,14,,,,,,,,5.504,2.737,4.776*34,1745468201584
NMEA,$BDGSA,A,3,230,207,,,,,,,,,,,5.504,2.737,4.776*20,1745468201584
NMEA,$GAGSA,A,3,110,105,,,,,,,,,,,5.504,2.737,4.776*20,1745468201584
NMEA,$GPGSV,4,1,16,17,70,353,40.9,3,45,78,41.0,1,32,49,38.0,22,76,257,27.3*7B,1745468201584
NMEA,$GPGSV,4,2,16,14,66,186,29.7,6,33,239,29.7,195,1,,33.0,194,1,,27.6*4E,1745468201584
NMEA,$GPGSV,4,3,16,196,1,,34.2,19,47,302,24.3,2,6,56,0.0,11,3,234,0.0*4D,1745468201584
NMEA,$GPGSV,4,4,16,24,7,310,0.0,30,4,202,0.0,193,1,,0.0,47,1,,0.0*42,1745468201584
NMEA,$BDGSV,2,1,7,230,71,354,43.0,203,1,,33.0,207,81,335,37.5,240,1,,42.9*5E,1745468201584
NMEA,$BDGSV,2,2,7,210,1,,33.2,245,1,,38.0,238,1,,34.5*42,1745468201584
NMEA,$GAGSV,1,1,4,110,23,147,33.7,130,1,,34.4,105,41,45,36.5,107,8,289,0.0*65,1745468201584
NMEA,$GPVTG,212.043,T,,M,0.169,N,0.313,K,A*04,1745468201584
NMEA,$RD_RSSI, 824, 773, 0, 0,1745468201584
NMEA,$GPGGA,041642.584,3958.840070,N,11629.012477,E,1,09,2.737,41.580,M,0,M,,*48,1745468202584
NMEA,$GPRMC,041642.584,A,3958.840070,N,11629.012477,E,0.599,212.043,240425,,E,A*27,1745468202584
NMEA,$GPGLL,3958.840070,N,11629.012477,E,041642.584,A,A*53,1745468202584
NMEA,$GPGSA,A,3,17,3,1,22,14,,,,,,,,5.504,2.737,4.775*37,1745468202584
NMEA,$BDGSA,A,3,230,207,,,,,,,,,,,5.504,2.737,4.775*23,1745468202584
NMEA,$GAGSA,A,3,110,105,,,,,,,,,,,5.504,2.737,4.775*23,1745468202584
NMEA,$GPGSV,4,1,16,17,70,353,40.5,3,45,78,41.5,1,32,49,38.0,22,76,257,28.1*7F,1745468202584
NMEA,$GPGSV,4,2,16,14,66,186,31.1,6,33,239,30.1,195,1,,33.4,194,1,,30.2*49,1745468202584
NMEA,$GPGSV,4,3,16,196,1,,34.4,19,47,302,24.2,2,6,56,0.0,11,3,234,0.0*4A,1745468202584
NMEA,$GPGSV,4,4,16,24,7,310,0.0,30,4,202,0.0,193,1,,0.0,47,1,,0.0*42,1745468202584
NMEA,$BDGSV,2,1,7,230,71,354,42.9,203,1,,32.4,207,81,335,37.7,240,1,,42.7*5F,1745468202584
NMEA,$BDGSV,2,2,7,210,1,,32.2,245,1,,38.5,238,1,,34.5*46,1745468202584
NMEA,$GAGSV,1,1,4,110,23,147,32.9,130,1,,34.7,105,41,45,37.0,107,8,289,0.0*6D,1745468202584
NMEA,$GPVTG,212.043,T,,M,0.599,N,1.109,K,A*07,1745468202584
NMEA,$RD_RSSI, 774, 799, 0, 0,1745468202584
NMEA,$GPGGA,041643.584,3958.839840,N,11629.012648,E,1,09,2.738,42.121,M,0,M,,*41,1745468203584
NMEA,$GPRMC,041643.584,A,3958.839840,N,11629.012648,E,0.000,212.043,240425,,E,A*28,1745468203584
NMEA,$GPGLL,3958.839840,N,11629.012648,E,041643.584,A,A*59,1745468203584
NMEA,$GPGSA,A,3,17,3,1,22,14,,,,,,,,5.504,2.738,4.775*38,1745468203584
NMEA,$BDGSA,A,3,230,207,,,,,,,,,,,5.504,2.738,4.775*2C,1745468203584
NMEA,$GAGSA,A,3,110,105,,,,,,,,,,,5.504,2.738,4.775*2C,1745468203584
NMEA,$GPGSV,4,1,16,17,70,353,40.7,3,45,78,41.5,1,32,49,37.7,22,76,257,30.2*7F,1745468203584
NMEA,$GPGSV,4,2,16,14,66,186,30.8,6,33,239,28.0,195,1,,32.7,194,1,,30.3*4A,1745468203584
NMEA,$GPGSV,4,3,16,196,1,,34.0,19,47,302,22.1,2,6,56,0.0,11,3,234,0.0*4B,1745468203584
NMEA,$GPGSV,4,4,16,24,7,310,0.0,30,4,202,0.0,193,1,,0.0,47,1,,0.0*42,1745468203584
NMEA,$BDGSV,2,1,7,230,71,354,42.9,203,1,,32.5,207,81,335,38.2,240,1,,42.4*57,1745468203584
NMEA,$BDGSV,2,2,7,210,1,,31.7,245,1,,38.7,238,1,,36.5*40,1745468203584
NMEA,$GAGSV,1,1,4,110,23,147,32.0,130,1,,33.9,105,41,45,37.4,107,8,289,0.0*69,1745468203584
NMEA,$GPVTG,212.043,T,,M,0.000,N,0.000,K,A*0B,1745468203584
NMEA,$RD_RSSI, 686, 786, 0, 0,1745468203584
NMEA,$GPGGA,041644.584,3958.839585,N,11629.012199,E,1,11,2.165,40.356,M,0,M,,*4E,1745468204584
NMEA,$GPRMC,041644.584,A,3958.839585,N,11629.012199,E,0.277,212.043,240425,,E,A*22,1745468204584
NMEA,$GPGLL,3958.839585,N,11629.012199,E,041644.584,A,A*51,1745468204584
NMEA,$GPGSA,A,3,17,3,1,22,14,,,,,,,,4.485,2.165,3.928*3E,1745468204584
NMEA,$BDGSA,A,3,230,207,240,210,,,,,,,,,4.485,2.165,3.928*2F,1745468204584
NMEA,$GAGSA,A,3,110,105,,,,,,,,,,,4.485,2.165,3.928*2A,1745468204584
NMEA,$GPGSV,4,1,16,17,70,353,40.9,3,45,78,41.9,1,32,49,37.9,22,76,257,30.5*74,1745468204584
NMEA,$GPGSV,4,2,16,14,66,186,31.8,6,33,239,25.7,195,1,,32.2,194,1,,31.1*47,1745468204584
NMEA,$GPGSV,4,3,16,196,1,,33.9,19,47,302,22.8,2,6,56,0.0,11,3,234,0.0*4C,1745468204584
NMEA,$GPGSV,4,4,16,24,7,310,0.0,30,4,202,0.0,193,1,,0.0,47,1,,0.0*42,1745468204584
NMEA,$BDGSV,2,1,7,230,71,354,42.5,203,1,,32.2,207,81,335,38.2,240,72,38,42.5*62,1745468204584
NMEA,$BDGSV,2,2,7,210,70,306,31.1,245,28,305,37.9,238,1,,36.4*48,1745468204584
NMEA,$GAGSV,1,1,4,110,23,147,31.3,130,1,,33.5,105,41,45,37.4,107,8,289,0.0*65,1745468204584
NMEA,$GPVTG,212.043,T,,M,0.277,N,0.514,K,A*09,1745468204584
NMEA,$RD_RSSI, 760, 758, 0, 0,1745468204584
NMEA,$GPGGA,041645.584,3958.839323,N,11629.011745,E,1,11,2.165,38.639,M,0,M,,*42,1745468205584
NMEA,$GPRMC,041645.584,A,3958.839323,N,11629.011745,E,0.378,212.043,240425,,E,A*23,1745468205584
NMEA,$GPGLL,3958.839323,N,11629.011745,E,041645.584,A,A*5E,1745468205584
NMEA,$GPGSA,A,3,17,3,1,22,14,,,,,,,,4.485,2.165,3.927*31,1745468205584
NMEA,$BDGSA,A,3,230,207,240,210,,,,,,,,,4.485,2.165,3.927*20,1745468205584
NMEA,$GAGSA,A,3,110,105,,,,,,,,,,,4.485,2.165,3.927*25,1745468205584
NMEA,$GPGSV,4,1,16,17,70,353,40.9,3,45,78,42.0,1,32,49,38.0,22,76,257,30.1*7C,1745468205584
NMEA,$GPGSV,4,2,16,14,66,186,30.8,6,33,239,23.5,195,1,,32.0,194,1,,32.2*40,1745468205584
NMEA,$GPGSV,4,3,16,196,1,,34.5,19,47,302,22.2,2,6,56,0.0,11,3,234,0.0*4D,1745468205584
NMEA,$GPGSV,4,4,16,24,7,310,0.0,30,4,202,0.0,193,1,,0.0,47,1,,0.0*42,1745468205584
NMEA,$BDGSV,2,1,7,230,71,354,42.9,203,1,,32.4,207,81,335,38.5,240,72,38,42.7*6D,1745468205584
NMEA,$BDGSV,2,2,7,210,70,306,31.1,245,28,305,37.7,238,1,,37.0*43,1745468205584
NMEA,$GAGSV,1,1,4,110,23,147,31.6,130,1,,33.5,105,41,45,37.2,107,8,289,0.0*66,1745468205584
NMEA,$GPVTG,212.043,T,,M,0.378,N,0.700,K,A*00,1745468205584
NMEA,$RD_RSSI, 676, 775, 0, 0,1745468205584
NMEA,$GPGGA,041646.484,3958.839073,N,11629.011379,E,1,11,2.165,37.336,M,0,M,,*48,1745468206484
NMEA,$GPRMC,041646.484,A,3958.839073,N,11629.011379,E,0.307,212.043,240425,,E,A*24,1745468206484
NMEA,$GPGLL,3958.839073,N,11629.011379,E,041646.484,A,A*51,1745468206484
NMEA,$GPGSA,A,3,17,3,1,22,14,,,,,,,,4.484,2.165,3.927*30,1745468206484
NMEA,$BDGSA,A,3,230,207,240,210,,,,,,,,,4.484,2.165,3.927*21,1745468206484
NMEA,$GAGSA,A,3,110,105,,,,,,,,,,,4.484,2.165,3.927*24,1745468206484
NMEA,$GPGSV,4,1,16,17,70,353,40.9,3,45,78,42.2,1,32,49,38.0,22,76,257,29.2*75,1745468206484
NMEA,$GPGSV,4,2,16,14,66,186,29.2,6,33,239,26.1,195,1,,31.5,194,1,,32.9*4E,1745468206484
NMEA,$GPGSV,4,3,16,196,1,,34.7,19,47,302,22.6,2,6,56,0.0,11,3,234,0.0*4B,1745468206484
NMEA,$GPGSV,4,4,16,24,7,310,0.0,30,4,202,0.0,193,1,,0.0,47,1,,0.0*42,1745468206484
NMEA,$BDGSV,2,1,7,230,71,354,43.2,203,1,,33.4,207,81,335,38.7,240,72,38,42.7*64,1745468206484
NMEA,$BDGSV,2,2,7,210,70,306,32.7,245,28,305,37.9,238,1,,37.4*4C,1745468206484
NMEA,$GAGSV,1,1,4,110,23,147,31.5,130,1,,34.4,105,41,45,37.0,107,8,289,0.0*61,1745468206484
NMEA,$GPVTG,212.043,T,,M,0.307,N,0.569,K,A*05,1745468206484
NMEA,$RD_RSSI, 830, 753, 0, 0,1745468206484
NMEA,$GPGGA,041647.384,3958.838818,N,11629.011275,E,1,12,2.158,37.387,M,0,M,,*40,1745468207384
NMEA,$GPRMC,041647.384,A,3958.838818,N,11629.011275,E,1.277,198.004,240425,,E,A*2E,1745468207384
NMEA,$GPGLL,3958.838818,N,11629.011275,E,041647.384,A,A*5E,1745468207384
NMEA,$GPGSA,A,3,17,3,1,22,14,,,,,,,,4.066,2.158,3.446*3C,1745468207384
NMEA,$BDGSA,A,3,230,207,240,210,,,,,,,,,4.066,2.158,3.446*2D,1745468207384
NMEA,$GAGSA,A,3,110,130,105,,,,,,,,,,4.066,2.158,3.446*1A,1745468207384
NMEA,$GPGSV,4,1,16,17,70,353,41.0,3,45,78,41.4,1,32,49,38.0,22,76,257,29.2*78,1745468207384
NMEA,$GPGSV,4,2,16,14,66,186,28.1,6,33,239,25.5,195,1,,31.8,194,1,,31.3*4F,1745468207384
NMEA,$GPGSV,4,3,16,196,1,,35.0,19,47,302,22.5,2,6,56,0.0,11,3,234,0.0*4E,1745468207384
NMEA,$GPGSV,4,4,16,24,7,310,0.0,30,4,202,0.0,193,1,,0.0,47,1,,0.0*42,1745468207384
NMEA,$BDGSV,2,1,7,230,71,354,43.2,203,1,,33.7,207,81,335,38.7,240,72,38,43.0*61,1745468207384
NMEA,$BDGSV,2,2,7,210,70,306,33.2,245,28,305,37.2,238,1,,37.2*45,1745468207384
NMEA,$GAGSV,1,1,4,110,23,147,32.0,130,82,274,35.2,105,41,45,36.7,107,8,289,0.0*6C,1745468207384
NMEA,$GPVTG,198.004,T,,M,1.277,N,2.365,K,A*08,1745468207384
NMEA,$RD_RSSI, 740, 824, 0, 0,1745468207384
NMEA,$GPGGA,041648.284,3958.838637,N,11629.011058,E,1,12,2.158,36.773,M,0,M,,*4E,1745468208284
NMEA,$GPRMC,041648.284,A,3958.838637,N,11629.011058,E,0.000,198.004,240425,,E,A*2D,1745468208284
NMEA,$GPGLL,3958.838637,N,11629.011058,E,041648.284,A,A*5E,1745468208284
NMEA,$GPGSA,A,3,17,3,1,22,14,,,,,,,,4.066,2.158,3.445*3F,1745468208284
NMEA,$BDGSA,A,3,230,207,240,210,,,,,,,,,4.066,2.158,3.445*2E,1745468208284
NMEA,$GAGSA,A,3,110,130,105,,,,,,,,,,4.066,2.158,3.445*19,1745468208284
NMEA,$GPGSV,4,1,16,17,70,353,41.7,3,45,78,41.0,1,32,49,37.7,22,76,257,31.2*7A,1745468208284
NMEA,$GPGSV,4,2,16,14,66,186,29.2,6,33,239,25.7,195,1,,33.5,194,1,,31.8*4B,1745468208284
NMEA,$GPGSV,4,3,16,196,1,,35.9,19,47,302,17.1,2,6,56,0.0,11,3,234,0.0*45,1745468208284
NMEA,$GPGSV,4,4,16,24,7,310,0.0,30,4,202,0.0,193,1,,0.0,47,1,,0.0*42,1745468208284
NMEA,$BDGSV,2,1,7,230,71,354,43.5,203,1,,33.5,207,81,335,38.4,240,72,38,43.2*65,1745468208284
NMEA,$BDGSV,2,2,7,210,70,306,33.5,245,28,305,36.4,238,1,,36.0*46,1745468208284
NMEA,$GAGSV,1,1,4,110,23,147,32.5,130,82,274,35.0,105,41,45,36.7,107,8,289,0.0*6B,1745468208284
NMEA,$GPVTG,198.004,T,,M,0.000,N,0.000,K,A*09,1745468208284
NMEA,$RD_RSSI, 657, 793, 0, 0,1745468208284
NMEA,$GPGGA,041649.184,3958.838562,N,11629.010875,E,1,12,2.159,35.988,M,0,M,,*41,1745468209184
NMEA,$GPRMC,041649.184,A,3958.838562,N,11629.010875,E,0.570,198.004,240425,,E,A*28,1745468209184
NMEA,$GPGLL,3958.838562,N,11629.010875,E,041649.184,A,A*59,1745468209184
NMEA,$GPGSA,A,3,17,3,1,22,14,,,,,,,,4.066,2.159,3.445*3E,1745468209184
NMEA,$BDGSA,A,3,230,207,240,210,,,,,,,,,4.066,2.159,3.445*2F,1745468209184
NMEA,$GAGSA,A,3,110,130,105,,,,,,,,,,4.066,2.159,3.445*18,1745468209184
NMEA,$GPGSV,4,1,16,17,70,353,41.5,3,45,78,41.0,1,32,49,37.7,22,76,257,32.0*79,1745468209184
NMEA,$GPGSV,4,2,16,14,66,186,30.1,6,33,239,25.1,195,1,,34.2,194,1,,31.2*4C,1745468209184
NMEA,$GPGSV,4,3,16,196,1,,35.0,19,47,302,18.8,2,6,56,0.0,11,3,234,0.0*4A,1745468209184
NMEA,$GPGSV,4,4,16,24,7,310,0.0,30,4,202,0.0,193,1,,0.0,47,1,,0.0*42,1745468209184
NMEA,$BDGSV,2,1,7,230,71,354,43.7,203,1,,33.0,207,81,335,38.5,240,72,38,43.0*61,1745468209184
NMEA,$BDGSV,2,2,7,210,70,306,33.4,245,28,305,36.2,238,1,,36.2*43,1745468209184
NMEA,$GAGSV,1,1,4,110,23,147,32.7,130,82,274,35.2,105,41,45,36.5,107,8,289,0.0*69,1745468209184
NMEA,$GPVTG,198.004,T,,M,0.570,N,1.056,K,A*09,1745468209184
NMEA,$RD_RSSI, 733, 747, 0, 0,1745468209184
NMEA,$GPGGA,041650.084,3958.838512,N,11629.010696,E,1,12,2.159,35.259,M,0,M,,*4B,1745468210084
NMEA,$GPRMC,041650.084,A,3958.838512,N,11629.010696,E,0.000,198.004,240425,,E,A*27,1745468210084
NMEA,$GPGLL,3958.838512,N,11629.010696,E,041650.084,A,A*54,1745468210084
NMEA,$GPGSA,A,3,17,3,1,22,14,,,,,,,,4.065,2.159,3.445*3D,1745468210084
NMEA,$BDGSA,A,3,230,207,240,210,,,,,,,,,4.065,2.159,3.445*2C,1745468210084
NMEA,$GAGSA,A,3,110,130,105,,,,,,,,,,4.065,2.159,3.445*1B,1745468210084
NMEA,$GPGSV,4,1,16,17,70,353,41.2,3,45,78,41.4,1,32,49,38.0,22,76,257,31.3*72,1745468210084
NMEA,$GPGSV,4,2,16,14,66,186,30.7,6,33,239,22.2,195,1,,33.2,194,1,,32.5*4D,1745468210084
NMEA,$GPGSV,4,3,16,196,1,,33.9,19,47,302,20.0,2,6,56,0.0,11,3,234,0.0*46,1745468210084
NMEA,$GPGSV,4,4,16,24,7,310,0.0,30,4,202,0.0,193,1,,0.0,47,1,,0.0*42,1745468210084
NMEA,$BDGSV,2,1,7,230,71,354,43.4,203,1,,33.0,207,81,335,38.7,240,72,38,43.0*60,1745468210084
NMEA,$BDGSV,2,2,7,210,70,306,33.4,245,28,305,36.0,238,1,,36.7*44,1745468210084
NMEA,$GAGSV,1,1,4,110,23,147,31.7,130,82,274,35.4,105,41,45,36.7,107,8,289,0.0*6E,1745468210084
NMEA,$GPVTG,198.004,T,,M,0.000,N,0.000,K,A*09,1745468210084
NMEA,$RD_RSSI, 733, 804, 0, 0,1745468210084
NMEA,$GPGGA,041651.000,3958.838473,N,11629.010519,E,1,12,2.159,34.788,M,0,M,,*4C,1745468211000
NMEA,$GPRMC,041651.000,A,3958.838473,N,11629.010519,E,0.388,198.004,240425,,E,A*2B,1745468211000
NMEA,$GPGLL,3958.838473,N,11629.010519,E,041651.000,A,A*5B,1745468211000
NMEA,$GPGSA,A,3,17,3,1,22,14,,,,,,,,4.065,2.159,3.444*3C,1745468211000
NMEA,$BDGSA,A,3,230,207,240,210,,,,,,,,,4.065,2.159,3.444*2D,1745468211000
NMEA,$GAGSA,A,3,110,130,105,,,,,,,,,,4.065,2.159,3.444*1A,1745468211000
NMEA,$GPGSV,4,1,16,17,70,353,40.7,3,45,78,41.4,1,32,49,38.0,22,76,257,31.6*73,1745468211000
NMEA,$GPGSV,4,2,16,14,66,186,28.3,6,33,239,22.5,195,1,,34.0,194,1,,33.9*4F,1745468211000
NMEA,$GPGSV,4,3,16,196,1,,33.5,19,47,302,19.6,2,6,56,0.0,11,3,234,0.0*46,1745468211000
NMEA,$GPGSV,4,4,16,24,7,310,0.0,30,4,202,0.0,193,1,,0.0,47,1,,0.0*42,1745468211000
NMEA,$BDGSV,2,1,7,230,71,354,43.0,203,1,,33.0,207,81,335,38.7,240,72,38,42.7*62,1745468211000
NMEA,$BDGSV,2,2,7,210,70,306,32.7,245,28,305,35.2,238,1,,36.9*49,1745468211000
NMEA,$GAGSV,1,1,4,110,23,147,30.0,130,82,274,35.9,105,41,45,37.2,107,8,289,0.0*61,1745468211000
NMEA,$GPVTG,198.004,T,,M,0.388,N,0.719,K,A*05,1745468211000
NMEA,$RD_RSSI, 764, 752, 0, 0,1745468211000
NMEA,$GPGGA,041652.000,3958.838487,N,11629.010362,E,1,12,2.159,34.477,M,0,M,,*4D,1745468212000
NMEA,$GPRMC,041652.000,A,3958.838487,N,11629.010362,E,0.474,198.004,240425,,E,A*2D,1745468212000
NMEA,$GPGLL,3958.838487,N,11629.010362,E,041652.000,A,A*59,1745468212000
NMEA,$GPGSA,A,3,17,3,1,22,14,,,,,,,,4.065,2.159,3.444*3C,1745468212000
NMEA,$BDGSA,A,3,230,207,240,210,,,,,,,,,4.065,2.159,3.444*2D,1745468212000
NMEA,$GAGSA,A,3,110,130,105,,,,,,,,,,4.065,2.159,3.444*1A,1745468212000
NMEA,$GPGSV,4,1,16,17,70,353,40.5,3,45,78,41.2,1,32,49,37.2,22,76,257,31.1*7D,1745468212000
NMEA,$GPGSV,4,2,16,14,66,186,27.8,6,33,239,21.3,195,1,,34.0,194,1,,33.5*42,1745468212000
NMEA,$GPGSV,4,3,16,196,1,,32.7,19,47,302,13.3,2,6,56,0.0,11,3,234,0.0*4A,1745468212000
NMEA,$GPGSV,4,4,16,24,7,310,0.0,30,4,202,0.0,193,1,,0.0,47,1,,0.0*42,1745468212000
