NMEA,$RD_RSSI, 702, 782, 0, 0,1741761618139
NMEA,$GPGGA,064019.139,3959.892787,N,11628.836923,E,1,21,0.908,31.318,M,0,M,,*4D,1741761619139
NMEA,$GPRMC,064019.139,A,3959.892787,N,11628.836923,E,0.268,0.000,120325,,E,A*25,1741761619139
NMEA,$GPGLL,3959.892787,N,11628.836923,E,064019.139,A,A*5C,1741761619139
NMEA,$GPGSA,A,3,14,22,17,194,1,3,19,2,195,,,,1.524,0.908,1.224*0E,1741761619139
NMEA,$BDGSA,A,3,207,229,240,245,226,235,,,,,,,1.524,0.908,1.224*2E,1741761619139
NMEA,$GAGSA,A,3,105,110,119,104,118,106,,,,,,,1.524,0.908,1.224*22,1741761619139
NMEA,$GPGSV,4,1,16,14,79,217,42.4,22,67,301,39.0,17,62,320,46.7,194,54,133,34.5*47,1741761619139
NMEA,$GPGSV,4,2,16,1,44,48,45.2,3,43,104,40.2,19,35,289,38.7,2,25,50,41.0*45,1741761619139
NMEA,$GPGSV,4,3,16,195,70,96,40.4,6,18,229,0.0,8,2,94,0.0,24,4,322,0.0*7C,1741761619139
NMEA,$GPGSV,4,4,16,30,15,209,0.0,193,1,,0.0,196,1,,0.0,47,1,,0.0*75,1741761619139
NMEA,$BDGSV,3,1,9,207,80,340,37.2,229,73,336,34.7,240,71,29,40.7,245,54,243,44.7*6C,1741761619139
NMEA,$BDGSV,3,2,9,209,25,216,25.7,226,25,311,34.0,235,24,263,45.4,236,28,181,35.7*58,1741761619139
NMEA,$BDGSV,3,3,9,203,1,,34.5*4D,1741761619139
NMEA,$GAGSV,2,1,8,105,83,224,35.2,110,76,160,36.7,119,74,297,42.2,104,66,44,40.7*6C,1741761619139
NMEA,$GAGSV,2,2,8,118,48,143,40.5,106,40,44,36.7,99,3,320,0.0,121,50,183,0.0*6D,1741761619139
NMEA,$GPVTG,0.000,T,,M,0.268,N,0.497,K,A*0B,1741761619139
NMEA,$RD_RSSI, 746, 768, 0, 0,1741761619139
NMEA,$GPGGA,064020.139,3959.892492,N,11628.837060,E,1,22,0.814,30.885,M,0,M,,*4E,1741761620139
NMEA,$GPRMC,064020.139,A,3959.892492,N,11628.837060,E,0.469,0.000,120325,,E,A*20,1741761620139
NMEA,$GPGLL,3959.892492,N,11628.837060,E,064020.139,A,A*5E,1741761620139
NMEA,$GPGSA,A,3,14,22,17,194,1,3,19,2,195,,,,1.374,0.814,1.107*03,1741761620139
NMEA,$BDGSA,A,3,207,229,240,245,209,226,235,,,,,,1.374,0.814,1.107*18,1741761620139
NMEA,$GAGSA,A,3,105,110,119,104,118,106,,,,,,,1.374,0.814,1.107*2F,1741761620139
NMEA,$GPGSV,4,1,16,14,79,217,42.2,22,67,301,38.9,17,62,320,46.7,194,54,133,34.5*49,1741761620139
NMEA,$GPGSV,4,2,16,1,44,48,45.4,3,43,104,40.2,19,36,289,38.7,2,25,50,40.9*48,1741761620139
NMEA,$GPGSV,4,3,16,195,70,96,40.4,6,18,229,0.0,8,2,94,0.0,24,4,322,0.0*7C,1741761620139
NMEA,$GPGSV,4,4,16,30,15,209,0.0,193,1,,0.0,196,1,,0.0,47,1,,0.0*75,1741761620139
NMEA,$BDGSV,3,1,9,207,80,340,37.9,229,73,336,34.4,240,71,29,40.7,245,54,243,44.7*64,1741761620139
NMEA,$BDGSV,3,2,9,209,25,216,25.3,226,25,311,33.5,235,24,263,45.0,236,28,181,35.2*5F,1741761620139
NMEA,$BDGSV,3,3,9,203,1,,35.0*49,1741761620139
NMEA,$GAGSV,2,1,8,105,83,224,35.2,110,76,160,37.2,119,74,297,42.2,104,66,44,40.5*6A,1741761620139
NMEA,$GAGSV,2,2,8,118,48,143,40.5,106,40,44,36.5,99,3,320,0.0,121,50,183,0.0*6F,1741761620139
NMEA,$GPVTG,0.000,T,,M,0.469,N,0.869,K,A*01,1741761620139
NMEA,$RD_RSSI, 688, 739, 0, 0,1741761620139
NMEA,$GPGGA,064021.139,3959.892289,N,11628.837130,E,1,22,0.814,30.404,M,0,M,,*42,1741761621139
NMEA,$GPRMC,064021.139,A,3959.892289,N,11628.837130,E,0.626,0.000,120325,,E,A*20,1741761621139
NMEA,$GPGLL,3959.892289,N,11628.837130,E,064021.139,A,A*57,1741761621139
NMEA,$GPGSA,A,3,14,22,17,194,1,3,19,2,195,,,,1.374,0.814,1.107*03,1741761621139
NMEA,$BDGSA,A,3,207,229,240,245,209,226,235,,,,,,1.374,0.814,1.107*18,1741761621139
NMEA,$GAGSA,A,3,105,110,119,104,118,106,,,,,,,1.374,0.814,1.107*2F,1741761621139
NMEA,$GPGSV,4,1,16,14,79,216,42.0,22,67,301,38.0,17,62,320,46.2,194,54,133,35.7*45,1741761621139
NMEA,$GPGSV,4,2,16,1,44,48,45.7,3,43,104,41.7,19,36,289,37.5,2,25,50,40.7*4C,1741761621139
NMEA,$GPGSV,4,3,16,195,70,96,39.7,6,18,229,0.0,8,2,94,0.0,24,4,322,0.0*71,1741761621139
NMEA,$GPGSV,4,4,16,30,15,209,0.0,193,1,,0.0,196,1,,0.0,47,1,,0.0*75,1741761621139
NMEA,$BDGSV,3,1,9,207,80,340,38.0,229,73,336,34.5,240,71,29,41.0,245,54,243,45.2*61,1741761621139
NMEA,$BDGSV,3,2,9,209,25,216,23.3,226,25,311,33.4,235,24,263,44.9,236,28,181,35.4*56,1741761621139
NMEA,$BDGSV,3,3,9,203,1,,30.2*4E,1741761621139
NMEA,$GAGSV,2,1,8,105,83,224,34.5,110,76,160,37.9,119,74,297,41.7,104,66,44,41.0*65,1741761621139
NMEA,$GAGSV,2,2,8,118,48,143,40.7,106,40,44,37.2,99,3,320,0.0,121,50,183,0.0*6B,1741761621139
NMEA,$GPVTG,0.000,T,,M,0.626,N,1.160,K,A*09,1741761621139
NMEA,$RD_RSSI, 715, 734, 0, 0,1741761621139
NMEA,$GPGGA,064022.139,3959.892071,N,11628.837231,E,1,22,0.814,29.902,M,0,M,,*45,1741761622139
NMEA,$GPRMC,064022.139,A,3959.892071,N,11628.837231,E,0.486,0.000,120325,,E,A*2C,1741761622139
NMEA,$GPGLL,3959.892071,N,11628.837231,E,064022.139,A,A*53,1741761622139
NMEA,$GPGSA,A,3,14,22,17,194,1,3,19,2,195,,,,1.374,0.814,1.107*03,1741761622139
NMEA,$BDGSA,A,3,207,229,240,245,209,226,235,,,,,,1.374,0.814,1.107*18,1741761622139
NMEA,$GAGSA,A,3,105,110,119,104,118,106,,,,,,,1.374,0.814,1.107*2F,1741761622139
NMEA,$GPGSV,4,1,16,14,79,216,42.7,22,67,301,37.5,17,63,320,46.4,194,54,133,35.4*4C,1741761622139
NMEA,$GPGSV,4,2,16,1,44,48,45.5,3,43,104,42.4,19,36,289,38.2,2,25,50,41.4*44,1741761622139
NMEA,$GPGSV,4,3,16,195,70,96,39.5,6,18,229,0.0,8,2,94,0.0,24,4,322,0.0*73,1741761622139
NMEA,$GPGSV,4,4,16,30,15,209,0.0,193,1,,0.0,196,1,,0.0,47,1,,0.0*75,1741761622139
NMEA,$BDGSV,3,1,9,207,80,340,37.9,229,73,336,34.5,240,71,29,41.4,245,54,243,45.7*66,1741761622139
NMEA,$BDGSV,3,2,9,209,25,216,24.8,226,25,311,33.7,235,24,263,44.2,236,28,181,35.7*51,1741761622139
NMEA,$BDGSV,3,3,9,203,1,,32.7*49,1741761622139
NMEA,$GAGSV,2,1,8,105,83,224,34.2,110,76,160,38.2,119,74,297,41.5,104,66,44,41.5*61,1741761622139
NMEA,$GAGSV,2,2,8,118,48,143,40.7,106,40,44,37.2,99,3,320,0.0,121,50,183,0.0*6B,1741761622139
NMEA,$GPVTG,0.000,T,,M,0.486,N,0.900,K,A*0E,1741761622139
NMEA,$RD_RSSI, 723, 744, 0, 0,1741761622139
NMEA,$GPGGA,064023.139,3959.891940,N,11628.837276,E,1,22,0.814,29.376,M,0,M,,*46,1741761623139
NMEA,$GPRMC,064023.139,A,3959.891940,N,11628.837276,E,0.345,0.000,120325,,E,A*2E,1741761623139
NMEA,$GPGLL,3959.891940,N,11628.837276,E,064023.139,A,A*59,1741761623139
NMEA,$GPGSA,A,3,14,22,17,194,1,3,19,2,195,,,,1.374,0.814,1.107*03,1741761623139
NMEA,$BDGSA,A,3,207,229,240,245,209,226,235,,,,,,1.374,0.814,1.107*18,1741761623139
NMEA,$GAGSA,A,3,105,110,119,104,118,106,,,,,,,1.374,0.814,1.107*2F,1741761623139
NMEA,$GPGSV,4,1,16,14,79,216,42.9,22,67,301,38.4,17,63,320,46.7,194,54,133,33.9*44,1741761623139
NMEA,$GPGSV,4,2,16,1,44,48,45.5,3,43,104,41.4,19,36,289,38.0,2,25,50,40.9*49,1741761623139
NMEA,$GPGSV,4,3,16,195,70,96,40.0,6,18,229,0.0,8,2,94,0.0,24,4,322,0.0*78,1741761623139
NMEA,$GPGSV,4,4,16,30,15,209,0.0,193,1,,0.0,196,1,,0.0,47,1,,0.0*75,1741761623139
NMEA,$BDGSV,3,1,9,207,80,340,37.9,229,73,336,33.7,240,71,29,40.9,245,54,243,45.4*6C,1741761623139
NMEA,$BDGSV,3,2,9,209,25,216,25.2,226,25,311,34.0,235,24,263,43.9,236,28,181,35.4*55,1741761623139
NMEA,$BDGSV,3,3,9,203,1,,33.9*46,1741761623139
NMEA,$GAGSV,2,1,8,105,83,224,34.5,110,76,160,38.7,119,74,297,42.2,104,66,44,41.4*66,1741761623139
NMEA,$GAGSV,2,2,8,118,48,143,40.0,106,40,44,36.9,99,3,320,0.0,121,50,183,0.0*66,1741761623139
NMEA,$GPVTG,0.000,T,,M,0.345,N,0.639,K,A*03,1741761623139
NMEA,$RD_RSSI, 684, 732, 0, 0,1741761623139
NMEA,$GPGGA,064024.138,3959.891774,N,11628.837332,E,1,22,0.814,28.757,M,0,M,,*4E,1741761624138
NMEA,$GPRMC,064024.138,A,3959.891774,N,11628.837332,E,0.000,0.000,120325,,E,A*22,1741761624138
NMEA,$GPGLL,3959.891774,N,11628.837332,E,064024.138,A,A*57,1741761624138
NMEA,$GPGSA,A,3,14,22,17,194,1,3,19,2,195,,,,1.374,0.814,1.107*03,1741761624138
NMEA,$BDGSA,A,3,207,229,240,245,209,226,235,,,,,,1.374,0.814,1.107*18,1741761624138
NMEA,$GAGSA,A,3,105,110,119,104,118,106,,,,,,,1.374,0.814,1.107*2F,1741761624138
NMEA,$GPGSV,4,1,16,14,79,216,43.2,22,67,301,38.5,17,63,320,46.9,194,54,133,33.5*4D,1741761624138
NMEA,$GPGSV,4,2,16,1,44,48,46.0,3,43,104,41.2,19,36,289,37.7,2,25,50,41.0*49,1741761624138
NMEA,$GPGSV,4,3,16,195,70,96,40.4,6,18,229,0.0,8,2,94,0.0,24,4,322,0.0*7C,1741761624138
NMEA,$GPGSV,4,4,16,30,15,209,0.0,193,1,,0.0,196,1,,0.0,47,1,,0.0*75,1741761624138
NMEA,$BDGSV,3,1,9,207,80,340,37.5,229,73,336,32.9,240,71,29,40.9,245,54,243,45.5*6E,1741761624138
NMEA,$BDGSV,3,2,9,209,25,216,25.1,226,25,311,34.2,235,24,263,43.7,236,28,181,35.0*5E,1741761624138
NMEA,$BDGSV,3,3,9,203,1,,46.2*4F,1741761624138
NMEA,$GAGSV,2,1,8,105,83,224,35.2,110,76,160,39.4,119,74,297,42.7,104,66,44,41.2*61,1741761624138
NMEA,$GAGSV,2,2,8,118,48,143,40.0,106,40,44,36.9,99,3,320,0.0,121,50,183,0.0*66,1741761624138
NMEA,$GPVTG,0.000,T,,M,0.000,N,0.000,K,A*0D,1741761624138
NMEA,$RD_RSSI, 691, 730, 0, 0,1741761624138
NMEA,$GPGGA,064025.138,3959.891616,N,11628.837403,E,1,22,0.814,28.074,M,0,M,,*49,1741761625138
NMEA,$GPRMC,064025.138,A,3959.891616,N,11628.837403,E,0.000,0.000,120325,,E,A*23,1741761625138
NMEA,$GPGLL,3959.891616,N,11628.837403,E,064025.138,A,A*56,1741761625138
NMEA,$GPGSA,A,3,14,22,17,194,1,3,19,2,195,,,,1.374,0.814,1.107*03,1741761625138
NMEA,$BDGSA,A,3,207,229,240,245,209,226,235,,,,,,1.374,0.814,1.107*18,1741761625138
NMEA,$GAGSA,A,3,105,110,119,104,118,106,,,,,,,1.374,0.814,1.107*2F,1741761625138
NMEA,$GPGSV,4,1,16,14,79,216,43.4,22,67,301,39.0,17,63,320,46.9,194,54,133,34.7*4A,1741761625138
NMEA,$GPGSV,4,2,16,1,44,48,46.0,3,43,104,41.5,19,36,289,37.5,2,25,50,41.2*4E,1741761625138
NMEA,$GPGSV,4,3,16,195,70,96,40.4,6,18,229,0.0,8,2,94,0.0,24,4,322,0.0*7C,1741761625138
NMEA,$GPGSV,4,4,16,30,15,209,0.0,193,1,,0.0,196,1,,0.0,47,1,,0.0*75,1741761625138
NMEA,$BDGSV,3,1,9,207,80,340,37.4,229,73,336,33.0,240,71,29,40.7,245,54,243,45.7*6B,1741761625138
NMEA,$BDGSV,3,2,9,209,25,216,25.1,226,25,311,32.9,235,24,263,43.4,236,28,181,34.9*58,1741761625138
NMEA,$BDGSV,3,3,9,203,1,,39.2*47,1741761625138
NMEA,$GAGSV,2,1,8,105,83,224,35.5,110,76,160,40.0,119,74,297,42.5,104,66,44,41.5*69,1741761625138
NMEA,$GAGSV,2,2,8,118,48,143,40.0,106,40,44,36.7,99,3,320,0.0,121,50,183,0.0*68,1741761625138
NMEA,$GPVTG,0.000,T,,M,0.000,N,0.000,K,A*0D,1741761625138
NMEA,$RD_RSSI, 704, 761, 0, 0,1741761625138
NMEA,$GPGGA,064026.138,3959.891430,N,11628.837479,E,1,22,0.814,27.514,M,0,M,,*4D,1741761626138
NMEA,$GPRMC,064026.138,A,3959.891430,N,11628.837479,E,0.000,0.000,120325,,E,A*2B,1741761626138
NMEA,$GPGLL,3959.891430,N,11628.837479,E,064026.138,A,A*5E,1741761626138
NMEA,$GPGSA,A,3,14,22,17,194,1,3,19,2,195,,,,1.374,0.814,1.107*03,1741761626138
NMEA,$BDGSA,A,3,207,229,240,245,209,226,235,,,,,,1.374,0.814,1.107*18,1741761626138
NMEA,$GAGSA,A,3,105,110,119,104,118,106,,,,,,,1.374,0.814,1.107*2F,1741761626138
NMEA,$GPGSV,4,1,16,14,79,216,44.0,22,67,301,39.9,17,63,320,46.4,194,54,133,34.4*4E,1741761626138
NMEA,$GPGSV,4,2,16,1,44,48,45.9,3,43,104,41.0,19,36,289,36.7,2,25,50,41.7*47,1741761626138
NMEA,$GPGSV,4,3,16,195,70,96,40.5,6,18,229,0.0,8,2,94,0.0,24,4,322,0.0*7D,1741761626138
NMEA,$GPGSV,4,4,16,30,15,209,0.0,193,1,,0.0,196,1,,0.0,47,1,,0.0*75,1741761626138
NMEA,$BDGSV,3,1,9,207,80,340,37.2,229,73,336,32.7,240,71,29,40.0,245,54,243,46.5*6D,1741761626138
NMEA,$BDGSV,3,2,9,209,25,216,25.8,226,25,311,35.9,235,24,263,42.0,236,28,181,34.4*5E,1741761626138
NMEA,$BDGSV,3,3,9,203,1,,35.5*4C,1741761626138
NMEA,$GAGSV,2,1,8,105,83,224,35.7,110,76,160,41.0,119,74,297,43.0,104,66,44,41.2*69,1741761626138
NMEA,$GAGSV,2,2,8,118,48,143,39.5,106,40,44,36.7,99,3,320,0.0,121,50,183,0.0*63,1741761626138
NMEA,$GPVTG,0.000,T,,M,0.000,N,0.000,K,A*0D,1741761626138
NMEA,$RD_RSSI, 719, 748, 0, 0,1741761626138
NMEA,$GPGGA,064027.138,3959.891296,N,11628.837567,E,1,22,0.814,27.049,M,0,M,,*45,1741761627138
NMEA,$GPRMC,064027.138,A,3959.891296,N,11628.837567,E,0.548,0.000,120325,,E,A*27,1741761627138
NMEA,$GPGLL,3959.891296,N,11628.837567,E,064027.138,A,A*5B,1741761627138
NMEA,$GPGSA,A,3,14,22,17,194,1,3,19,2,195,,,,1.374,0.814,1.107*03,1741761627138
NMEA,$BDGSA,A,3,207,229,240,245,209,226,235,,,,,,1.374,0.814,1.107*18,1741761627138
NMEA,$GAGSA,A,3,105,110,119,104,118,106,,,,,,,1.374,0.814,1.107*2F,1741761627138
NMEA,$GPGSV,4,1,16,14,79,216,43.5,22,67,301,41.0,17,63,320,46.4,194,54,133,34.5*4B,1741761627138
NMEA,$GPGSV,4,2,16,1,44,48,45.9,3,43,104,41.5,19,36,289,37.2,2,25,50,42.2*40,1741761627138
NMEA,$GPGSV,4,3,16,195,70,96,39.7,6,18,229,0.0,8,2,94,0.0,24,4,322,0.0*71,1741761627138
NMEA,$GPGSV,4,4,16,30,15,209,0.0,193,1,,0.0,196,1,,0.0,47,1,,0.0*75,1741761627138
NMEA,$BDGSV,3,1,9,207,80,340,37.5,229,73,336,33.4,240,71,29,40.4,245,54,243,46.7*6E,1741761627138
NMEA,$BDGSV,3,2,9,209,25,216,26.1,226,25,311,34.9,235,24,263,41.2,236,28,181,33.4*53,1741761627138
NMEA,$BDGSV,3,3,9,203,1,,33.7*48,1741761627138
NMEA,$GAGSV,2,1,8,105,83,224,35.5,110,76,160,40.7,119,74,297,43.5,104,66,44,41.0*6A,1741761627138
NMEA,$GAGSV,2,2,8,118,48,143,39.7,106,40,44,37.5,99,3,320,0.0,121,50,183,0.0*62,1741761627138
NMEA,$GPVTG,0.000,T,,M,0.548,N,1.014,K,A*00,1741761627138
NMEA,$RD_RSSI, 679, 749, 0, 0,1741761627138
NMEA,$GPGGA,064028.138,3959.891185,N,11628.837633,E,1,22,0.814,26.637,M,0,M,,*47,1741761628138
NMEA,$GPRMC,064028.138,A,3959.891185,N,11628.837633,E,0.000,0.000,120325,,E,A*22,1741761628138
NMEA,$GPGLL,3959.891185,N,11628.837633,E,064028.138,A,A*57,1741761628138
NMEA,$GPGSA,A,3,14,22,17,194,1,3,19,2,195,,,,1.374,0.814,1.107*03,1741761628138
NMEA,$BDGSA,A,3,207,229,240,245,209,226,235,,,,,,1.374,0.814,1.107*18,1741761628138
NMEA,$GAGSA,A,3,105,110,119,104,118,106,,,,,,,1.374,0.814,1.107*2F,1741761628138
NMEA,$GPGSV,4,1,16,14,79,216,43.5,22,67,301,41.2,17,63,320,46.2,194,54,133,33.5*48,1741761628138
NMEA,$GPGSV,4,2,16,1,44,48,45.7,3,43,104,41.4,19,36,289,36.7,2,25,50,41.9*43,1741761628138
NMEA,$GPGSV,4,3,16,195,70,96,38.5,6,18,229,0.0,8,2,94,0.0,24,4,322,0.0*72,1741761628138
NMEA,$GPGSV,4,4,16,30,15,209,0.0,193,1,,0.0,196,1,,0.0,47,1,,0.0*75,1741761628138
NMEA,$BDGSV,3,1,9,207,80,340,38.2,229,73,336,31.2,240,71,29,41.0,245,54,243,46.7*67,1741761628138
NMEA,$BDGSV,3,2,9,209,25,216,26.5,226,25,311,32.5,235,24,263,41.2,236,28,181,33.7*5E,1741761628138
NMEA,$BDGSV,3,3,9,203,1,,33.0*4F,1741761628138
NMEA,$GAGSV,2,1,8,105,83,224,35.5,110,76,160,40.5,119,74,297,42.7,104,66,44,40.7*6D,1741761628138
NMEA,$GAGSV,2,2,8,118,48,143,39.0,106,40,44,37.4,99,3,320,0.0,121,50,183,0.0*64,1741761628138
NMEA,$GPVTG,0.000,T,,M,0.000,N,0.000,K,A*0D,1741761628138
NMEA,$RD_RSSI, 674, 750, 0, 0,1741761628138
NMEA,$GPGGA,064029.138,3959.891092,N,11628.837740,E,1,22,0.814,26.107,M,0,M,,*40,1741761629138
NMEA,$GPRMC,064029.138,A,3959.891092,N,11628.837740,E,0.000,0.000,120325,,E,A*21,1741761629138
NMEA,$GPGLL,3959.891092,N,11628.837740,E,064029.138,A,A*54,1741761629138
NMEA,$GPGSA,A,3,14,22,17,194,1,3,19,2,195,,,,1.374,0.814,1.107*03,1741761629138
NMEA,$BDGSA,A,3,207,229,240,245,209,226,235,,,,,,1.374,0.814,1.107*18,1741761629138
NMEA,$GAGSA,A,3,105,110,119,104,118,106,,,,,,,1.374,0.814,1.107*2F,1741761629138
NMEA,$GPGSV,4,1,16,14,79,216,43.7,22,67,301,40.7,17,63,320,45.4,194,54,133,32.4*4B,1741761629138
NMEA,$GPGSV,4,2,16,1,44,48,45.5,3,43,104,40.2,19,36,289,35.5,2,25,50,42.0*4D,1741761629138
NMEA,$GPGSV,4,3,16,195,70,96,37.2,6,18,229,0.0,8,2,94,0.0,24,4,322,0.0*7A,1741761629138
NMEA,$GPGSV,4,4,16,30,15,209,0.0,193,1,,0.0,196,1,,0.0,47,1,,0.0*75,1741761629138
NMEA,$BDGSV,3,1,9,207,80,340,38.4,229,73,336,30.2,240,71,29,41.4,245,54,243,46.4*67,1741761629138
NMEA,$BDGSV,3,2,9,209,25,216,26.7,226,25,311,30.6,235,24,263,40.7,236,28,181,33.2*5C,1741761629138
NMEA,$BDGSV,3,3,9,203,1,,31.7*4A,1741761629138
NMEA,$GAGSV,2,1,8,105,83,224,35.5,110,76,160,40.5,119,74,297,42.2,104,66,44,40.7*68,1741761629138
NMEA,$GAGSV,2,2,8,118,48,143,38.9,106,40,44,37.2,99,3,320,0.0,121,50,183,0.0*6A,1741761629138
NMEA,$GPVTG,0.000,T,,M,0.000,N,0.000,K,A*0D,1741761629138
NMEA,$RD_RSSI, 668, 741, 0, 0,1741761629138
NMEA,$GPGGA,064030.138,3959.891042,N,11628.837822,E,1,22,0.814,25.657,M,0,M,,*4F,1741761630138
NMEA,$GPRMC,064030.138,A,3959.891042,N,11628.837822,E,0.000,0.000,120325,,E,A*2F,1741761630138
NMEA,$GPGLL,3959.891042,N,11628.837822,E,064030.138,A,A*5A,1741761630138
NMEA,$GPGSA,A,3,14,22,17,194,1,3,19,2,195,,,,1.374,0.814,1.106*02,1741761630138
NMEA,$BDGSA,A,3,207,229,240,245,209,226,235,,,,,,1.374,0.814,1.106*19,1741761630138
NMEA,$GAGSA,A,3,105,110,119,104,118,106,,,,,,,1.374,0.814,1.106*2E,1741761630138
NMEA,$GPGSV,4,1,16,14,79,216,43.2,22,67,301,40.7,17,63,320,45.5,194,54,133,30.8*41,1741761630138
NMEA,$GPGSV,4,2,16,1,44,48,45.5,3,43,104,39.4,19,36,289,34.9,2,25,50,42.2*4A,1741761630138
NMEA,$GPGSV,4,3,16,195,70,96,37.2,6,18,229,0.0,8,2,94,0.0,24,4,322,0.0*7A,1741761630138
NMEA,$GPGSV,4,4,16,30,15,209,0.0,193,1,,0.0,196,1,,0.0,47,1,,0.0*75,1741761630138
NMEA,$BDGSV,3,1,9,207,80,340,38.5,229,73,336,29.7,240,71,29,41.7,245,54,243,46.2*6E,1741761630138
NMEA,$BDGSV,3,2,9,209,25,216,26.3,226,25,311,30.6,235,24,263,40.0,236,28,181,33.4*59,1741761630138
NMEA,$BDGSV,3,3,9,203,1,,31.6*4B,1741761630138
NMEA,$GAGSV,2,1,8,105,83,224,35.4,110,76,160,40.7,119,74,297,42.0,104,65,44,40.5*68,1741761630138
NMEA,$GAGSV,2,2,8,118,48,143,38.7,106,40,44,37.4,99,3,320,0.0,121,50,183,0.0*62,1741761630138
NMEA,$GPVTG,0.000,T,,M,0.000,N,0.000,K,A*0D,1741761630138
NMEA,$RD_RSSI, 674, 737, 0, 0,1741761630138
NMEA,$GPGGA,064031.138,3959.890885,N,11628.837929,E,1,22,0.814,25.459,M,0,M,,*4A,1741761630138
NMEA,$GPRMC,064031.138,A,3959.890885,N,11628.837929,E,0.000,0.000,120325,,E,A*26,1741761631138
NMEA,$GPGLL,3959.890885,N,11628.837929,E,064031.138,A,A*53,1741761631138
NMEA,$GPGSA,A,3,14,22,17,194,1,3,19,2,195,,,,1.374,0.814,1.106*02,1741761631138
NMEA,$BDGSA,A,3,207,229,240,245,209,226,235,,,,,,1.374,0.814,1.106*19,1741761631138
NMEA,$GAGSA,A,3,105,110,119,104,118,106,,,,,,,1.374,0.814,1.106*2E,1741761631138
NMEA,$GPGSV,4,1,16,14,79,216,43.2,22,67,301,40.9,17,63,320,45.7,194,54,133,30.8*4D,1741761631138
NMEA,$GPGSV,4,2,16,1,44,48,45.5,3,43,104,39.0,19,36,289,34.5,2,25,50,42.2*42,1741761631138
NMEA,$GPGSV,4,3,16,195,70,96,37.4,6,18,229,0.0,8,2,94,0.0,24,4,322,0.0*7C,1741761631138
NMEA,$GPGSV,4,4,16,30,15,209,0.0,193,1,,0.0,196,1,,0.0,47,1,,0.0*75,1741761631138
NMEA,$BDGSV,3,1,9,207,80,340,38.5,229,73,336,29.7,240,71,29,42.0,245,54,243,46.5*6D,1741761631138
NMEA,$BDGSV,3,2,9,209,25,216,26.2,226,25,311,30.7,235,24,263,39.4,236,28,181,33.9*5E,1741761631138
NMEA,$BDGSV,3,3,9,203,1,,31.2*4F,1741761631138
NMEA,$GAGSV,2,1,8,105,83,224,35.5,110,76,160,40.9,119,74,297,42.4,104,65,44,40.7*61,1741761631138
NMEA,$GAGSV,2,2,8,118,48,143,38.5,106,40,44,37.5,99,3,320,0.0,121,50,183,0.0*61,1741761631138
NMEA,$GPVTG,0.000,T,,M,0.000,N,0.000,K,A*0D,1741761631138
NMEA,$RD_RSSI, 662, 771, 0, 0,1741761631138
NMEA,$GPGGA,064032.038,3959.890885,N,11628.837929,E,1,22,0.814,25.459,M,0,M,,*48,1741761632037
NMEA,$GPRMC,064032.038,A,3959.890885,N,11628.837929,E,0.000,0.000,120325,,E,A*24,1741761632037
NMEA,$GPGLL,3959.890885,N,11628.837929,E,064032.038,A,A*51,1741761632037
NMEA,$GPGSA,A,3,14,22,17,194,1,3,19,2,195,,,,1.374,0.814,1.106*02,1741761632037
NMEA,$BDGSA,A,3,207,229,240,245,209,226,235,,,,,,1.374,0.814,1.106*19,1741761632037
NMEA,$GAGSA,A,3,105,110,119,104,118,106,,,,,,,1.374,0.814,1.106*2E,1741761632037
NMEA,$GPGSV,4,1,16,14,79,216,43.2,22,67,301,40.2,17,63,320,46.0,194,54,133,33.4*4D,1741761632037
NMEA,$GPGSV,4,2,16,1,44,48,45.0,3,43,104,37.2,19,36,289,35.4,2,25,50,42.0*49,1741761632037
NMEA,$GPGSV,4,3,16,195,70,96,38.0,6,18,229,0.0,8,2,94,0.0,24,4,322,0.0*77,1741761632037
NMEA,$GPGSV,4,4,16,30,15,209,0.0,193,1,,0.0,196,1,,0.0,47,1,,0.0*75,1741761632037
NMEA,$BDGSV,3,1,9,207,80,340,39.0,229,73,337,33.2,240,71,29,41.9,245,54,243,46.4*6D,1741761632037
NMEA,$BDGSV,3,2,9,209,25,216,26.6,226,25,311,30.6,235,24,263,37.4,236,28,181,34.0*5B,1741761632037
NMEA,$BDGSV,3,3,9,203,1,,32.0*4E,1741761632037
NMEA,$GAGSV,2,1,8,105,83,224,35.7,110,76,160,40.5,119,74,297,42.9,104,65,44,41.0*64,1741761632037
NMEA,$GAGSV,2,2,8,118,48,143,39.2,106,40,44,37.0,99,3,320,0.0,121,50,183,0.0*62,1741761632037
NMEA,$GPVTG,0.000,T,,M,0.000,N,0.000,K,A*0D,1741761632037
NMEA,$RD_RSSI, 703, 751, 0, 0,1741761632037
NMEA,$GPGGA,064033.000,3959.890885,N,11628.837929,E,1,22,0.814,25.459,M,0,M,,*42,1741761633000
NMEA,$GPRMC,064033.000,A,3959.890885,N,11628.837929,E,0.566,0.000,120325,,E,A*2B,1741761633000
NMEA,$GPGLL,3959.890885,N,11628.837929,E,064033.000,A,A*5B,1741761633000
NMEA,$GPGSA,A,3,14,22,17,194,1,3,19,2,195,,,,1.374,0.814,1.106*02,1741761633000
NMEA,$BDGSA,A,3,207,229,240,245,209,226,235,,,,,,1.374,0.814,1.106*19,1741761633000
NMEA,$GAGSA,A,3,105,110,119,104,118,106,,,,,,,1.374,0.814,1.106*2E,1741761633000
NMEA,$GPGSV,4,1,16,14,79,216,42.5,22,67,301,38.7,17,63,320,45.9,194,54,133,33.0*4F,1741761633000
NMEA,$GPGSV,4,2,16,1,44,48,44.5,3,43,104,34.4,19,36,289,36.2,2,25,50,41.9*47,1741761633000
NMEA,$GPGSV,4,3,16,195,70,96,38.5,6,18,229,0.0,8,2,94,0.0,24,4,322,0.0*72,1741761633000
NMEA,$GPGSV,4,4,16,30,15,209,0.0,193,1,,0.0,196,1,,0.0,47,1,,0.0*75,1741761633000
NMEA,$BDGSV,3,1,9,207,80,340,39.5,229,73,337,33.7,240,71,29,42.0,245,54,243,46.2*61,1741761633000
NMEA,$BDGSV,3,2,9,209,25,216,26.2,226,25,311,30.2,235,24,263,36.2,236,28,181,34.5*59,1741761633000
NMEA,$BDGSV,3,3,9,203,1,,33.7*48,1741761633000
NMEA,$GAGSV,2,1,8,105,83,224,35.0,110,76,160,40.5,119,74,297,42.7,104,65,44,41.5*68,1741761633000
NMEA,$GAGSV,2,2,8,118,48,143,39.9,106,40,44,36.5,99,3,320,0.0,121,50,183,0.0*6D,1741761633000
NMEA,$GPVTG,0.000,T,,M,0.566,N,1.049,K,A*04,1741761633000
NMEA,$RD_RSSI, 725, 738, 0, 0,1741761633000
NMEA,$GPGGA,064034.000,3959.890833,N,11628.838086,E,1,22,0.814,24.795,M,0,M,,*49,1741761634000
NMEA,$GPRMC,064034.000,A,3959.890833,N,11628.838086,E,0.339,0.000,120325,,E,A*2E,1741761634000
NMEA,$GPGLL,3959.890833,N,11628.838086,E,064034.000,A,A*52,1741761634000
NMEA,$GPGSA,A,3,14,22,17,194,1,3,19,2,195,,,,1.374,0.814,1.106*02,1741761634000
NMEA,$BDGSA,A,3,207,229,240,245,209,226,235,,,,,,1.374,0.814,1.106*19,1741761634000
NMEA,$GAGSA,A,3,105,110,119,104,118,106,,,,,,,1.374,0.814,1.106*2E,1741761634000
NMEA,$GPGSV,4,1,16,14,79,216,42.0,22,67,301,37.7,17,63,320,45.7,194,54,133,35.2*4F,1741761634000
NMEA,$GPGSV,4,2,16,1,44,48,45.0,3,43,104,32.7,19,36,289,35.5,2,25,50,42.0*48,1741761634000
NMEA,$GPGSV,4,3,16,195,70,96,37.9,6,18,229,0.0,8,2,94,0.0,24,4,322,0.0*71,1741761634000
NMEA,$GPGSV,4,4,16,30,15,209,0.0,193,1,,0.0,196,1,,0.0,47,1,,0.0*75,1741761634000
NMEA,$BDGSV,3,1,9,207,80,340,39.0,229,73,337,32.7,240,71,29,42.7,245,54,243,45.9*6A,1741761634000
NMEA,$BDGSV,3,2,9,209,25,216,25.7,226,25,311,31.5,235,24,263,33.9,236,28,181,34.0*52,1741761634000
NMEA,$BDGSV,3,3,9,203,1,,34.2*4A,1741761634000
NMEA,$GAGSV,2,1,8,105,83,224,34.4,110,76,160,39.9,119,74,297,42.4,104,65,44,41.7*6E,1741761634000
NMEA,$GAGSV,2,2,8,118,48,143,39.7,106,40,44,36.5,99,3,320,0.0,121,50,183,0.0*63,1741761634000
NMEA,$GPVTG,0.000,T,,M,0.339,N,0.628,K,A*08,1741761634000
NMEA,$RD_RSSI, 718, 759, 0, 0,1741761634000
NMEA,$GPGGA,064035.000,3959.890924,N,11628.838085,E,1,22,0.814,24.206,M,0,M,,*43,1741761635000
NMEA,$GPRMC,064035.000,A,3959.890924,N,11628.838085,E,0.000,0.000,120325,,E,A*22,1741761635000
NMEA,$GPGLL,3959.890924,N,11628.838085,E,064035.000,A,A*57,1741761635000
NMEA,$GPGSA,A,3,14,22,17,194,1,3,19,2,195,,,,1.374,0.814,1.106*02,1741761635000
NMEA,$BDGSA,A,3,207,229,240,245,209,226,235,,,,,,1.374,0.814,1.106*19,1741761635000
NMEA,$GAGSA,A,3,105,110,119,104,118,106,,,,,,,1.374,0.814,1.106*2E,1741761635000
NMEA,$GPGSV,4,1,16,14,79,216,42.0,22,67,301,37.5,17,63,320,45.5,194,54,133,35.2*4F,1741761635000
NMEA,$GPGSV,4,2,16,1,44,48,45.2,3,43,104,30.7,19,36,289,35.0,2,25,50,42.5*48,1741761635000
NMEA,$GPGSV,4,3,16,195,70,96,36.5,6,18,229,0.0,8,2,94,0.0,24,4,322,0.0*7C,1741761635000
NMEA,$GPGSV,4,4,16,30,15,209,0.0,193,1,,0.0,196,1,,0.0,47,1,,0.0*75,1741761635000
NMEA,$BDGSV,3,1,9,207,80,340,38.2,229,73,337,32.5,240,71,29,42.5,245,54,242,45.2*63,1741761635000
NMEA,$BDGSV,3,2,9,209,25,216,25.7,226,25,311,31.7,235,24,263,31.0,236,28,181,33.7*5B,1741761635000
NMEA,$BDGSV,3,3,9,203,1,,34.2*4A,1741761635000
NMEA,$GAGSV,2,1,8,105,83,224,33.7,110,76,160,39.2,119,74,297,42.0,104,65,44,41.2*60,1741761635000
NMEA,$GAGSV,2,2,8,118,48,143,39.5,106,40,44,36.5,99,3,320,0.0,121,50,183,0.0*61,1741761635000
NMEA,$GPVTG,0.000,T,,M,0.000,N,0.000,K,A*0D,1741761635000
NMEA,$RD_RSSI, 715, 796, 0, 0,1741761635000
NMEA,$GPGGA,064036.000,3959.891118,N,11628.838085,E,1,22,0.814,23.777,M,0,M,,*42,1741761636000
NMEA,$GPRMC,064036.000,A,3959.891118,N,11628.838085,E,0.000,0.000,120325,,E,A*27,1741761636000
NMEA,$GPGLL,3959.891118,N,11628.838085,E,064036.000,A,A*52,1741761636000
NMEA,$GPGSA,A,3,14,22,17,194,1,3,19,2,195,,,,1.373,0.814,1.106*05,1741761636000
NMEA,$BDGSA,A,3,207,229,240,245,209,226,235,,,,,,1.373,0.814,1.106*1E,1741761636000
NMEA,$GAGSA,A,3,105,110,119,104,118,106,,,,,,,1.373,0.814,1.106*29,1741761636000
NMEA,$GPGSV,4,1,16,14,79,216,40.7,22,67,301,36.0,17,63,320,45.5,194,54,133,34.7*4A,1741761636000
NMEA,$GPGSV,4,2,16,1,44,48,45.0,3,43,104,32.4,19,36,289,35.2,2,25,50,42.2*4E,1741761636000
NMEA,$GPGSV,4,3,16,195,70,96,35.9,6,18,229,0.0,8,2,94,0.0,24,4,322,0.0*73,1741761636000
NMEA,$GPGSV,4,4,16,30,15,209,0.0,193,1,,0.0,196,1,,0.0,47,1,,0.0*75,1741761636000
NMEA,$BDGSV,3,1,9,207,80,340,38.7,229,73,337,33.9,240,71,29,42.2,245,54,242,45.0*6E,1741761636000
NMEA,$BDGSV,3,2,9,209,25,216,25.2,226,25,311,33.5,235,24,263,32.0,236,28,181,33.9*53,1741761636000
NMEA,$BDGSV,3,3,9,203,1,,33.4*4B,1741761636000
NMEA,$GAGSV,2,1,8,105,83,224,34.0,110,76,160,38.7,119,74,296,42.0,104,65,44,41.0*67,1741761636000
NMEA,$GAGSV,2,2,8,118,48,143,39.5,106,40,44,36.2,99,3,320,0.0,121,50,183,0.0*66,1741761636000
NMEA,$GPVTG,0.000,T,,M,0.000,N,0.000,K,A*0D,1741761636000
NMEA,$RD_RSSI, 734, 740, 0, 0,1741761636000
NMEA,$GPGGA,064037.000,3959.891312,N,11628.838084,E,1,22,0.814,23.349,M,0,M,,*43,1741761637000
NMEA,$GPRMC,064037.000,A,3959.891312,N,11628.838084,E,0.152,0.000,120325,,E,A*29,1741761637000
NMEA,$GPGLL,3959.891312,N,11628.838084,E,064037.000,A,A*5A,1741761637000
NMEA,$GPGSA,A,3,14,22,17,194,1,3,19,2,195,,,,1.373,0.814,1.106*05,1741761637000
NMEA,$BDGSA,A,3,207,229,240,245,209,226,235,,,,,,1.373,0.814,1.106*1E,1741761637000
NMEA,$GAGSA,A,3,105,110,119,104,118,106,,,,,,,1.373,0.814,1.106*29,1741761637000
NMEA,$GPGSV,4,1,16,14,79,216,41.0,22,67,301,35.7,17,63,320,45.0,194,54,133,35.0*4B,1741761637000
NMEA,$GPGSV,4,2,16,1,44,48,45.0,3,43,104,30.1,19,36,289,36.0,2,25,50,42.4*4E,1741761637000
NMEA,$GPGSV,4,3,16,195,70,96,34.7,6,18,229,0.0,8,2,94,0.0,24,4,322,0.0*7C,1741761637000
NMEA,$GPGSV,4,4,16,30,15,209,0.0,193,1,,0.0,196,1,,0.0,47,1,,0.0*75,1741761637000
NMEA,$BDGSV,3,1,9,207,80,340,38.7,229,73,337,33.7,240,71,29,42.2,245,54,242,45.0*60,1741761637000
NMEA,$BDGSV,3,2,9,209,25,216,25.0,226,25,311,34.0,235,24,263,31.7,236,28,181,33.7*59,1741761637000
NMEA,$BDGSV,3,3,9,203,1,,33.2*4D,1741761637000
NMEA,$GAGSV,2,1,8,105,83,224,34.0,110,76,160,38.5,119,74,296,41.5,104,65,44,40.9*6B,1741761637000
NMEA,$GAGSV,2,2,8,118,48,143,39.5,106,40,44,36.2,99,3,320,0.0,121,50,183,0.0*66,1741761637000
NMEA,$GPVTG,0.000,T,,M,0.152,N,0.282,K,A*03,1741761637000
NMEA,$RD_RSSI, 716, 759, 0, 0,1741761637000
NMEA,$GPGGA,064038.000,3959.891506,N,11628.838084,E,1,22,0.814,22.921,M,0,M,,*4A,1741761638000
NMEA,$GPRMC,064038.000,A,3959.891506,N,11628.838084,E,0.000,0.000,120325,,E,A*23,1741761638000
NMEA,$GPGLL,3959.891506,N,11628.838084,E,064038.000,A,A*56,1741761638000
NMEA,$GPGSA,A,3,14,22,17,194,1,3,19,2,195,,,,1.373,0.814,1.106*05,1741761638000
NMEA,$BDGSA,A,3,207,229,240,245,209,226,235,,,,,,1.373,0.814,1.106*1E,1741761638000
NMEA,$GAGSA,A,3,105,110,119,104,118,106,,,,,,,1.373,0.814,1.106*29,1741761638000
NMEA,$GPGSV,4,1,16,14,79,216,41.0,22,67,301,36.9,17,63,320,44.7,194,54,133,35.5*45,1741761638000
NMEA,$GPGSV,4,2,16,1,44,48,45.2,3,43,104,26.1,19,36,289,37.0,2,25,50,42.0*4E,1741761638000
NMEA,$GPGSV,4,3,16,195,70,96,35.2,6,18,229,0.0,8,2,94,0.0,24,4,322,0.0*78,1741761638000
NMEA,$GPGSV,4,4,16,30,15,209,0.0,193,1,,0.0,196,1,,0.0,47,1,,0.0*75,1741761638000
NMEA,$BDGSV,3,1,9,207,80,340,37.2,229,73,337,32.2,240,71,29,42.0,245,54,242,45.2*6E,1741761638000
NMEA,$BDGSV,3,2,9,209,25,216,25.3,226,25,311,34.9,235,24,263,28.6,236,28,181,34.2*58,1741761638000
NMEA,$BDGSV,3,3,9,203,1,,33.0*4F,1741761638000
NMEA,$GAGSV,2,1,8,105,83,224,34.7,110,76,160,37.5,119,74,296,41.5,104,65,44,41.2*69,1741761638000
NMEA,$GAGSV,2,2,8,118,48,143,39.7,106,40,44,36.4,99,3,320,0.0,121,50,183,0.0*62,1741761638000
NMEA,$GPVTG,0.000,T,,M,0.000,N,0.000,K,A*0D,1741761638000
NMEA,$RD_RSSI, 696, 741, 0, 0,1741761638000
NMEA,$GPGGA,064039.000,3959.891545,N,11628.837927,E,1,22,0.814,22.836,M,0,M,,*44,1741761639000
NMEA,$GPRMC,064039.000,A,3959.891545,N,11628.837927,E,0.299,0.000,120325,,E,A*28,1741761639000
NMEA,$GPGLL,3959.891545,N,11628.837927,E,064039.000,A,A*5F,1741761639000
NMEA,$GPGSA,A,3,14,22,17,194,1,3,19,2,195,,,,1.373,0.814,1.106*05,1741761639000
NMEA,$BDGSA,A,3,207,229,240,245,209,226,235,,,,,,1.373,0.814,1.106*1E,1741761639000
NMEA,$GAGSA,A,3,105,110,119,104,118,106,,,,,,,1.373,0.814,1.106*29,1741761639000
NMEA,$GPGSV,4,1,16,14,79,216,41.5,22,67,301,36.7,17,63,320,45.2,194,54,133,36.0*4C,1741761639000
NMEA,$GPGSV,4,2,16,1,44,48,45.4,3,43,104,22.7,19,36,289,37.0,2,25,50,42.0*4A,1741761639000
NMEA,$GPGSV,4,3,16,195,70,96,34.7,6,18,229,0.0,8,2,94,0.0,24,4,322,0.0*7C,1741761639000
NMEA,$GPGSV,4,4,16,30,15,209,0.0,193,1,,0.0,196,1,,0.0,47,1,,0.0*75,1741761639000
NMEA,$BDGSV,3,1,9,207,80,340,37.0,229,73,337,32.0,240,71,29,42.2,245,54,242,45.7*69,1741761639000
NMEA,$BDGSV,3,2,9,209,25,216,25.1,226,25,311,35.7,235,24,263,29.2,236,28,181,34.7*55,1741761639000
NMEA,$BDGSV,3,3,9,203,1,,32.7*49,1741761639000
NMEA,$GAGSV,2,1,8,105,83,224,35.4,110,76,160,36.7,119,74,296,41.5,104,65,44,41.5*6F,1741761639000
NMEA,$GAGSV,2,2,8,118,48,143,40.0,106,40,44,36.5,99,3,320,0.0,121,50,183,0.0*6A,1741761639000
NMEA,$GPVTG,0.000,T,,M,0.299,N,0.553,K,A*0C,1741761639000
NMEA,$RD_RSSI, 724, 794, 0, 0,1741761639000
NMEA,$GPGGA,064040.000,3959.891545,N,11628.837926,E,1,22,0.814,22.836,M,0,M,,*4B,1741761640000
NMEA,$GPRMC,064040.000,A,3959.891545,N,11628.837926,E,0.000,0.000,120325,,E,A*25,1741761640000
NMEA,$GPGLL,3959.891545,N,11628.837926,E,064040.000,A,A*50,1741761640000
NMEA,$GPGSA,A,3,14,22,17,194,1,3,19,2,195,,,,1.373,0.814,1.106*05,1741761640000
NMEA,$BDGSA,A,3,207,229,240,245,209,226,235,,,,,,1.373,0.814,1.106*1E,1741761640000
NMEA,$GAGSA,A,3,105,110,119,104,118,106,,,,,,,1.373,0.814,1.106*29,1741761640000
NMEA,$GPGSV,4,1,16,14,79,216,41.5,22,67,301,37.2,17,63,320,45.4,194,54,133,35.0*4D,1741761640000
NMEA,$GPGSV,4,2,16,1,44,48,45.5,3,43,104,29.3,19,36,289,38.0,2,25,50,41.7*4F,1741761640000
NMEA,$GPGSV,4,3,16,195,70,96,36.2,6,18,229,0.0,8,2,94,0.0,24,4,322,0.0*7B,1741761640000
NMEA,$GPGSV,4,4,16,30,15,209,0.0,193,1,,0.0,196,1,,0.0,47,1,,0.0*75,1741761640000
NMEA,$BDGSV,3,1,9,207,80,340,37.0,229,73,337,31.7,240,71,29,41.7,245,54,242,45.5*69,1741761640000
NMEA,$BDGSV,3,2,9,209,25,216,24.5,226,25,311,34.5,235,24,263,30.5,236,28,181,35.7*5D,1741761640000
NMEA,$BDGSV,3,3,9,203,1,,32.2*4C,1741761640000
NMEA,$GAGSV,2,1,8,105,83,224,36.2,110,76,160,36.2,119,74,296,42.0,104,65,44,41.7*6B,1741761640000
NMEA,$GAGSV,2,2,8,118,48,143,40.4,106,40,44,36.7,99,3,320,0.0,121,50,183,0.0*6C,1741761640000
NMEA,$GPVTG,0.000,T,,M,0.000,N,0.000,K,A*0D,1741761640000
NMEA,$RD_RSSI, 738, 800, 0, 0,1741761640000
NMEA,$GPGGA,064041.000,3959.891651,N,11628.837892,E,1,22,0.814,22.774,M,0,M,,*4B,1741761641000
NMEA,$GPRMC,064041.000,A,3959.891651,N,11628.837892,E,0.000,0.000,120325,,E,A*2C,1741761641000
NMEA,$GPGLL,3959.891651,N,11628.837892,E,064041.000,A,A*59,1741761641000
NMEA,$GPGSA,A,3,14,22,17,194,1,3,19,2,195,,,,1.373,0.814,1.106*05,1741761641000
NMEA,$BDGSA,A,3,207,229,240,245,209,226,235,,,,,,1.373,0.814,1.106*1E,1741761641000
NMEA,$GAGSA,A,3,105,110,119,104,118,106,,,,,,,1.373,0.814,1.106*29,1741761641000
NMEA,$GPGSV,4,1,16,14,79,216,41.7,22,67,301,37.7,17,63,320,45.2,194,54,133,35.5*49,1741761641000
NMEA,$GPGSV,4,2,16,1,44,48,45.5,3,43,104,28.2,19,36,289,38.2,2,25,50,41.9*43,1741761641000
NMEA,$GPGSV,4,3,16,195,70,96,35.4,6,18,229,0.0,8,2,94,0.0,24,4,322,0.0*7E,1741761641000
NMEA,$GPGSV,4,4,16,30,15,209,0.0,193,1,,0.0,196,1,,0.0,47,1,,0.0*75,1741761641000
NMEA,$BDGSV,3,1,9,207,80,340,36.5,229,73,337,31.1,240,71,29,41.7,245,54,242,45.7*69,1741761641000
NMEA,$BDGSV,3,2,9,209,25,216,24.2,226,25,311,35.4,235,24,263,33.2,236,28,181,36.0*5A,1741761641000
NMEA,$BDGSV,3,3,9,203,1,,32.2*4C,1741761641000
NMEA,$GAGSV,2,1,8,105,83,224,36.2,110,76,160,36.4,119,74,296,42.2,104,65,44,42.0*6B,1741761641000
NMEA,$GAGSV,2,2,8,118,48,143,40.4,106,40,44,36.5,99,3,320,0.0,121,50,183,0.0*6E,1741761641000
NMEA,$GPVTG,0.000,T,,M,0.000,N,0.000,K,A*0D,1741761641000
NMEA,$RD_RSSI, 722, 783, 0, 0,1741761641000
NMEA,$GPGGA,064042.000,3959.891651,N,11628.837892,E,1,22,0.814,22.774,M,0,M,,*48,1741761642000
NMEA,$GPRMC,064042.000,A,3959.891651,N,11628.837892,E,0.567,0.000,120325,,E,A*2B,1741761642000
NMEA,$GPGLL,3959.891651,N,11628.837892,E,064042.000,A,A*5A,1741761642000
NMEA,$GPGSA,A,3,14,22,17,194,1,3,19,2,195,,,,1.373,0.814,1.106*05,1741761642000
NMEA,$BDGSA,A,3,207,229,240,245,209,226,235,,,,,,1.373,0.814,1.106*1E,1741761642000
NMEA,$GAGSA,A,3,105,110,119,104,118,106,,,,,,,1.373,0.814,1.106*29,1741761642000
NMEA,$GPGSV,4,1,16,14,79,216,41.2,22,67,301,37.9,17,63,320,45.0,194,54,133,35.4*41,1741761642000
NMEA,$GPGSV,4,2,16,1,44,48,44.9,3,43,104,25.0,19,36,289,38.5,2,25,50,41.2*4D,1741761642000
NMEA,$GPGSV,4,3,16,195,70,96,34.7,6,18,229,0.0,8,2,94,0.0,24,4,322,0.0*7C,1741761642000
NMEA,$GPGSV,4,4,16,30,15,209,0.0,193,1,,0.0,196,1,,0.0,47,1,,0.0*75,1741761642000
NMEA,$BDGSV,3,1,9,207,80,340,36.2,229,73,337,31.5,240,71,29,42.0,245,54,242,45.7*6E,1741761642000
NMEA,$BDGSV,3,2,9,209,25,216,23.8,226,25,311,35.9,235,24,263,33.9,236,28,181,35.5*57,1741761642000
NMEA,$BDGSV,3,3,9,203,1,,32.2*4C,1741761642000
NMEA,$GAGSV,2,1,8,105,83,224,35.7,110,76,160,35.9,119,74,296,42.0,104,65,44,41.7*65,1741761642000
NMEA,$GAGSV,2,2,8,118,48,143,39.7,106,40,44,35.9,99,3,320,0.0,121,50,183,0.0*6C,1741761642000
NMEA,$GPVTG,0.000,T,,M,0.567,N,1.050,K,A*0D,1741761642000
NMEA,$RD_RSSI, 770, 768, 0, 0,1741761642000
NMEA,$GPGGA,064043.000,3959.891651,N,11628.837892,E,1,22,0.814,22.774,M,0,M,,*49,1741761643000
NMEA,$GPRMC,064043.000,A,3959.891651,N,11628.837892,E,0.839,319.311,120325,,E,A*24,1741761643000
NMEA,$GPGLL,3959.891651,N,11628.837892,E,064043.000,A,A*5B,1741761643000
NMEA,$GPGSA,A,3,14,22,17,194,1,3,19,2,195,,,,1.373,0.814,1.106*05,1741761643000
NMEA,$BDGSA,A,3,207,229,240,245,209,226,235,,,,,,1.373,0.814,1.106*1E,1741761643000
NMEA,$GAGSA,A,3,105,110,119,104,118,106,,,,,,,1.373,0.814,1.106*29,1741761643000
NMEA,$GPGSV,4,1,16,14,79,216,40.9,22,67,301,37.2,17,63,320,44.7,194,54,133,35.2*40,1741761643000
NMEA,$GPGSV,4,2,16,1,44,48,44.7,3,43,103,21.2,19,36,289,38.9,2,25,50,41.0*4C,1741761643000
NMEA,$GPGSV,4,3,16,195,70,96,33.7,6,18,229,0.0,8,2,94,0.0,24,4,322,0.0*7B,1741761643000
NMEA,$GPGSV,4,4,16,30,15,209,0.0,193,1,,0.0,196,1,,0.0,47,1,,0.0*75,1741761643000
NMEA,$BDGSV,3,1,9,207,80,340,36.7,229,73,337,31.7,240,71,29,42.2,245,54,242,46.0*6F,1741761643000
NMEA,$BDGSV,3,2,9,209,25,216,22.1,226,25,311,36.0,235,24,263,34.0,236,28,181,34.9*56,1741761643000
NMEA,$BDGSV,3,3,9,203,1,,32.9*47,1741761643000
NMEA,$GAGSV,2,1,8,105,83,224,35.2,110,76,160,35.7,119,74,296,41.4,104,65,44,41.2*6C,1741761643000
NMEA,$GAGSV,2,2,8,118,48,143,39.7,106,40,44,35.2,99,3,320,0.0,121,50,183,0.0*67,1741761643000
NMEA,$GPVTG,319.311,T,,M,0.839,N,1.554,K,A*02,1741761643000
NMEA,$RD_RSSI, 700, 760, 0, 0,1741761643000
NMEA,$GPGGA,064044.000,3959.891651,N,11628.837892,E,1,21,0.854,22.774,M,0,M,,*49,1741761643000
NMEA,$GPRMC,064044.000,A,3959.891651,N,11628.837892,E,0.000,319.311,120325,,E,A*21,1741761644000
NMEA,$GPGLL,3959.891651,N,11628.837892,E,064044.000,A,A*5C,1741761644000
NMEA,$GPGSA,A,3,14,22,17,194,1,19,2,195,,,,,1.408,0.854,1.119*37,1741761644000
NMEA,$BDGSA,A,3,207,229,240,245,209,226,235,,,,,,1.408,0.854,1.119*1F,1741761644000
NMEA,$GAGSA,A,3,105,110,119,104,118,106,,,,,,,1.408,0.854,1.119*28,1741761644000
NMEA,$GPGSV,4,1,16,14,79,216,40.9,22,67,300,37.2,17,63,320,45.0,194,54,133,35.0*45,1741761644000
NMEA,$GPGSV,4,2,16,1,44,48,45.0,3,43,103,22.7,19,36,289,39.0,2,25,50,41.0*44,1741761644000
NMEA,$GPGSV,4,3,16,195,70,96,32.9,6,18,229,0.0,8,2,94,0.0,24,4,322,0.0*74,1741761644000
NMEA,$GPGSV,4,4,16,30,15,209,0.0,193,1,,0.0,196,1,,0.0,47,1,,0.0*75,1741761644000
NMEA,$BDGSV,3,1,9,207,80,340,36.9,229,73,337,31.5,240,71,29,42.0,245,54,242,46.0*61,1741761644000
NMEA,$BDGSV,3,2,9,209,25,216,22.3,226,25,311,35.5,235,24,263,35.9,236,28,181,34.0*53,1741761644000
NMEA,$BDGSV,3,3,9,203,1,,33.2*4D,1741761644000
NMEA,$GAGSV,2,1,8,105,83,224,35.7,110,76,160,35.7,119,74,296,41.5,104,65,44,41.2*68,1741761644000
NMEA,$GAGSV,2,2,8,118,48,143,39.5,106,40,44,34.9,99,3,320,0.0,121,50,183,0.0*6F,1741761644000
NMEA,$GPVTG,319.311,T,,M,0.000,N,0.000,K,A*05,1741761644000
NMEA,$RD_RSSI, 724, 793, 0, 0,1741761644000
NMEA,$GPGGA,064045.000,3959.891651,N,11628.837892,E,1,22,0.814,22.774,M,0,M,,*4F,1741761645000
NMEA,$GPRMC,064045.000,A,3959.891651,N,11628.837892,E,0.173,319.311,120325,,E,A*25,1741761645000
NMEA,$GPGLL,3959.891651,N,11628.837892,E,064045.000,A,A*5D,1741761645000
NMEA,$GPGSA,A,3,14,22,17,194,1,3,19,2,195,,,,1.373,0.814,1.106*05,1741761645000
NMEA,$BDGSA,A,3,207,229,240,245,209,226,235,,,,,,1.373,0.814,1.106*1E,1741761645000
NMEA,$GAGSA,A,3,105,110,119,104,118,106,,,,,,,1.373,0.814,1.106*29,1741761645000
NMEA,$GPGSV,4,1,16,14,79,216,40.5,22,67,300,35.9,17,63,320,45.2,194,54,133,34.9*4A,1741761645000
NMEA,$GPGSV,4,2,16,1,44,48,45.4,3,43,103,22.2,19,36,289,38.5,2,25,50,41.0*41,1741761645000
NMEA,$GPGSV,4,3,16,195,70,96,32.4,6,18,229,0.0,8,2,94,0.0,24,4,322,0.0*79,1741761645000
NMEA,$GPGSV,4,4,16,30,15,209,0.0,193,1,,0.0,196,1,,0.0,47,1,,0.0*75,1741761645000
NMEA,$BDGSV,3,1,9,207,80,340,37.7,229,73,337,33.5,240,71,29,41.7,245,54,242,46.0*68,1741761645000
NMEA,$BDGSV,3,2,9,209,25,216,22.8,226,25,311,33.0,235,24,263,38.9,236,28,181,34.0*56,1741761645000
NMEA,$BDGSV,3,3,9,203,1,,33.2*4D,1741761645000
NMEA,$GAGSV,2,1,8,105,83,224,35.7,110,76,160,36.5,119,74,296,41.9,104,65,44,41.5*62,1741761645000
NMEA,$GAGSV,2,2,8,118,48,143,39.5,106,40,44,35.2,99,3,320,0.0,121,51,183,0.0*64,1741761645000
NMEA,$GPVTG,319.311,T,,M,0.173,N,0.321,K,A*00,1741761645000
NMEA,$RD_RSSI, 686, 726, 0, 0,1741761645000
NMEA,$GPGGA,064046.000,3959.891651,N,11628.837892,E,1,22,0.814,22.774,M,0,M,,*4C,1741761646000
NMEA,$GPRMC,064046.000,A,3959.891651,N,11628.837892,E,0.000,319.311,120325,,E,A*23,1741761646000
NMEA,$GPGLL,3959.891651,N,11628.837892,E,064046.000,A,A*5E,1741761646000
NMEA,$GPGSA,A,3,14,22,17,194,1,3,19,2,195,,,,1.373,0.814,1.106*05,1741761646000
NMEA,$BDGSA,A,3,207,229,240,245,209,226,235,,,,,,1.373,0.814,1.106*1E,1741761646000
NMEA,$GAGSA,A,3,105,110,119,104,118,106,,,,,,,1.373,0.814,1.106*29,1741761646000
NMEA,$GPGSV,4,1,16,14,79,216,39.9,22,67,300,35.0,17,63,320,45.5,194,54,133,35.2*4C,1741761646000
NMEA,$GPGSV,4,2,16,1,44,48,45.5,3,43,103,19.2,19,36,289,38.5,2,25,50,41.2*4A,1741761646000
NMEA,$GPGSV,4,3,16,195,70,96,29.1,6,18,229,0.0,8,2,94,0.0,24,4,322,0.0*76,1741761646000
NMEA,$GPGSV,4,4,16,30,15,209,0.0,193,1,,0.0,196,1,,0.0,47,1,,0.0*75,1741761646000
NMEA,$BDGSV,3,1,9,207,80,340,37.9,229,73,337,35.4,240,71,29,41.9,245,54,242,45.7*6B,1741761646000
NMEA,$BDGSV,3,2,9,209,25,216,24.6,226,25,311,32.5,235,24,263,39.5,236,28,181,34.7*50,1741761646000
NMEA,$BDGSV,3,3,9,203,1,,32.7*49,1741761646000
NMEA,$GAGSV,2,1,8,105,83,224,34.9,110,76,160,35.5,119,74,296,41.4,104,65,44,41.7*61,1741761646000
NMEA,$GAGSV,2,2,8,118,48,143,40.2,106,40,44,35.7,99,3,320,0.0,121,51,183,0.0*68,1741761646000
NMEA,$GPVTG,319.311,T,,M,0.000,N,0.000,K,A*05,1741761646000
NMEA,$RD_RSSI, 757, 755, 0, 0,1741761646000
NMEA,$GPGGA,064047.000,3959.891651,N,11628.837892,E,1,22,0.814,22.774,M,0,M,,*4D,1741761647000
NMEA,$GPRMC,064047.000,A,3959.891651,N,11628.837892,E,0.597,319.311,120325,,E,A*29,1741761647000
NMEA,$GPGLL,3959.891651,N,11628.837892,E,064047.000,A,A*5F,1741761647000
NMEA,$GPGSA,A,3,14,22,17,194,1,3,19,2,195,,,,1.373,0.814,1.106*05,1741761647000
NMEA,$BDGSA,A,3,207,229,240,245,209,226,235,,,,,,1.373,0.814,1.106*1E,1741761647000
NMEA,$GAGSA,A,3,105,110,119,104,118,106,,,,,,,1.373,0.814,1.106*29,1741761647000
NMEA,$GPGSV,4,1,16,14,79,215,40.0,22,67,300,35.0,17,63,320,45.2,194,54,133,35.5*48,1741761647000
NMEA,$GPGSV,4,2,16,1,44,48,45.5,3,43,103,22.7,19,36,289,38.0,2,25,50,40.7*46,1741761647000
NMEA,$GPGSV,4,3,16,195,70,96,28.2,6,18,229,0.0,8,2,94,0.0,24,4,322,0.0*74,1741761647000
NMEA,$GPGSV,4,4,16,30,15,209,0.0,193,1,,0.0,196,1,,0.0,47,1,,0.0*75,1741761647000
NMEA,$BDGSV,3,1,9,207,80,340,37.9,229,73,337,35.4,240,71,29,41.7,245,54,242,45.7*65,1741761647000
NMEA,$BDGSV,3,2,9,209,25,216,24.2,226,25,311,31.6,235,24,263,39.9,236,28,181,34.7*58,1741761647000
NMEA,$BDGSV,3,3,9,203,1,,32.9*47,1741761647000
NMEA,$GAGSV,2,1,8,105,83,224,35.2,110,76,160,35.7,119,74,296,41.5,104,65,44,41.5*6A,1741761647000
NMEA,$GAGSV,2,2,8,118,48,143,40.0,106,40,44,35.7,99,3,320,0.0,121,51,183,0.0*6A,1741761647000
NMEA,$GPVTG,319.311,T,,M,0.597,N,1.107,K,A*09,1741761647000
NMEA,$RD_RSSI, 763, 771, 0, 0,1741761647000
NMEA,$GPGGA,064048.000,3959.891651,N,11628.837892,E,1,22,0.814,22.774,M,0,M,,*42,1741761648000
NMEA,$GPRMC,064048.000,A,3959.891651,N,11628.837892,E,0.000,319.311,120325,,E,A*2D,1741761648000
NMEA,$GPGLL,3959.891651,N,11628.837892,E,064048.000,A,A*50,1741761648000
NMEA,$GPGSA,A,3,14,22,17,194,1,3,19,2,195,,,,1.373,0.814,1.106*05,1741761648000
NMEA,$BDGSA,A,3,207,229,240,245,209,226,235,,,,,,1.373,0.814,1.106*1E,1741761648000
NMEA,$GAGSA,A,3,105,110,119,104,118,106,,,,,,,1.373,0.814,1.106*29,1741761648000
NMEA,$GPGSV,4,1,16,14,79,215,40.7,22,67,300,35.2,17,63,320,45.2,194,54,133,35.2*4A,1741761648000
NMEA,$GPGSV,4,2,16,1,44,48,45.2,3,43,103,27.6,19,36,289,38.0,2,25,50,40.2*40,1741761648000
NMEA,$GPGSV,4,3,16,195,70,96,28.7,6,18,229,0.0,8,2,94,0.0,24,4,322,0.0*71,1741761648000
NMEA,$GPGSV,4,4,16,30,15,209,0.0,193,1,,0.0,196,1,,0.0,47,1,,0.0*75,1741761648000
NMEA,$BDGSV,3,1,9,207,80,340,37.7,229,73,337,34.9,240,71,29,41.7,245,54,242,46.0*63,1741761648000
NMEA,$BDGSV,3,2,9,209,25,216,25.1,226,25,311,31.7,235,24,263,40.9,236,28,181,34.4*56,1741761648000
NMEA,$BDGSV,3,3,9,203,1,,32.9*47,1741761648000
NMEA,$GAGSV,2,1,8,105,83,224,35.5,110,76,160,36.7,119,74,296,41.5,104,65,44,41.9*62,1741761648000
NMEA,$GAGSV,2,2,8,118,48,143,39.5,106,40,44,35.0,99,3,320,0.0,121,51,183,0.0*66,1741761648000
NMEA,$GPVTG,319.311,T,,M,0.000,N,0.000,K,A*05,1741761648000
NMEA,$RD_RSSI, 707, 802, 0, 0,1741761648000
NMEA,$GPGGA,064049.000,3959.891651,N,11628.837892,E,1,22,0.814,22.774,M,0,M,,*43,1741761649000
NMEA,$GPRMC,064049.000,A,3959.891651,N,11628.837892,E,0.000,319.311,120325,,E,A*2C,1741761649000
NMEA,$GPGLL,3959.891651,N,11628.837892,E,064049.000,A,A*51,1741761649000
NMEA,$GPGSA,A,3,14,22,17,194,1,3,19,2,195,,,,1.373,0.814,1.106*05,1741761649000
NMEA,$BDGSA,A,3,207,229,240,245,209,226,235,,,,,,1.373,0.814,1.106*1E,1741761649000
NMEA,$GAGSA,A,3,105,110,119,104,118,106,,,,,,,1.373,0.814,1.106*29,1741761649000
NMEA,$GPGSV,4,1,16,14,79,215,41.5,22,67,300,35.5,17,63,320,45.2,194,54,133,35.7*4B,1741761649000
NMEA,$GPGSV,4,2,16,1,44,48,45.4,3,43,103,31.2,19,36,289,37.7,2,25,50,40.2*4D,1741761649000
NMEA,$GPGSV,4,3,16,195,70,96,31.1,6,18,229,0.0,8,2,94,0.0,24,4,322,0.0*7F,1741761649000
NMEA,$GPGSV,4,4,16,30,15,209,0.0,193,1,,0.0,196,1,,0.0,47,1,,0.0*75,1741761649000
NMEA,$BDGSV,3,1,9,207,80,341,37.0,229,73,337,34.4,240,71,29,41.4,245,54,242,46.2*69,1741761649000
NMEA,$BDGSV,3,2,9,209,25,216,25.0,226,25,311,32.5,235,24,263,41.7,236,28,181,34.2*5F,1741761649000
NMEA,$BDGSV,3,3,9,203,1,,33.5*4A,1741761649000
NMEA,$GAGSV,2,1,8,105,83,224,36.5,110,76,160,37.9,119,74,296,42.0,104,65,44,41.9*68,1741761649000
NMEA,$GAGSV,2,2,8,118,48,143,39.2,106,40,44,35.2,99,3,320,0.0,121,51,183,0.0*63,1741761649000
NMEA,$GPVTG,319.311,T,,M,0.000,N,0.000,K,A*05,1741761649000
NMEA,$RD_RSSI, 704, 771, 0, 0,1741761649000
NMEA,$GPGGA,064050.000,3959.891651,N,11628.837892,E,1,22,0.813,22.774,M,0,M,,*4C,1741761650000
NMEA,$GPRMC,064050.000,A,3959.891651,N,11628.837892,E,0.856,142.610,120325,,E,A*27,1741761650000
NMEA,$GPGLL,3959.891651,N,11628.837892,E,064050.000,A,A*59,1741761650000
NMEA,$GPGSA,A,3,14,22,17,194,1,3,19,2,195,,,,1.373,0.813,1.106*02,1741761650000
NMEA,$BDGSA,A,3,207,229,240,245,209,226,235,,,,,,1.373,0.813,1.106*19,1741761650000
NMEA,$GAGSA,A,3,105,110,119,104,118,106,,,,,,,1.373,0.813,1.106*2E,1741761650000
NMEA,$GPGSV,4,1,16,14,79,215,42.4,22,67,300,36.0,17,63,320,45.5,194,54,133,36.0*4C,1741761650000
NMEA,$GPGSV,4,2,16,1,44,48,46.0,3,43,103,33.4,19,36,289,38.0,2,25,50,41.0*45,1741761650000
NMEA,$GPGSV,4,3,16,195,70,96,31.5,6,18,229,0.0,8,2,94,0.0,24,4,322,0.0*7B,1741761650000
NMEA,$GPGSV,4,4,16,30,15,209,0.0,193,1,,0.0,196,1,,0.0,47,1,,0.0*75,1741761650000
NMEA,$BDGSV,3,1,9,207,80,341,37.0,229,73,337,34.9,240,71,29,41.7,245,54,242,46.5*60,1741761650000
NMEA,$BDGSV,3,2,9,209,25,216,25.5,226,25,311,32.7,235,24,263,42.2,236,28,181,35.2*5F,1741761650000
NMEA,$BDGSV,3,3,9,203,1,,34.0*48,1741761650000
NMEA,$GAGSV,2,1,8,105,83,224,37.5,110,76,160,38.7,119,74,296,42.5,104,65,44,42.0*67,1741761650000
NMEA,$GAGSV,2,2,8,118,48,143,39.7,106,40,44,36.0,99,3,320,0.0,121,51,183,0.0*67,1741761650000
NMEA,$GPVTG,142.610,T,,M,0.856,N,1.585,K,A*0F,1741761650000
NMEA,$RD_RSSI, 720, 746, 0, 0,1741761650000
NMEA,$GPGGA,064051.000,3959.891651,N,11628.837892,E,1,22,0.813,22.774,M,0,M,,*4D,1741761651000
NMEA,$GPRMC,064051.000,A,3959.891651,N,11628.837892,E,0.438,142.610,120325,,E,A*22,1741761651000
NMEA,$GPGLL,3959.891651,N,11628.837892,E,064051.000,A,A*58,1741761651000
NMEA,$GPGSA,A,3,14,22,17,194,1,3,19,2,195,,,,1.373,0.813,1.105*01,1741761651000
NMEA,$BDGSA,A,3,207,229,240,245,209,226,235,,,,,,1.373,0.813,1.105*1A,1741761651000
NMEA,$GAGSA,A,3,105,110,119,104,118,106,,,,,,,1.373,0.813,1.105*2D,1741761651000
NMEA,$GPGSV,4,1,16,14,79,215,42.5,22,67,300,36.5,17,63,320,45.4,194,54,133,35.9*43,1741761651000
NMEA,$GPGSV,4,2,16,1,44,48,46.5,3,43,103,37.0,19,36,289,38.4,2,25,50,41.2*46,1741761651000
NMEA,$GPGSV,4,3,16,195,70,96,30.8,6,18,229,0.0,8,2,94,0.0,24,4,322,0.0*77,1741761651000
NMEA,$GPGSV,4,4,16,30,15,209,0.0,193,1,,0.0,196,1,,0.0,47,1,,0.0*75,1741761651000
NMEA,$BDGSV,3,1,9,207,80,341,37.2,229,73,337,35.2,240,71,29,41.7,245,54,242,46.7*6A,1741761651000
NMEA,$BDGSV,3,2,9,209,25,216,25.5,226,25,311,33.5,235,24,263,42.7,236,28,181,35.5*5E,1741761651000
NMEA,$BDGSV,3,3,9,203,1,,34.4*4C,1741761651000
NMEA,$GAGSV,2,1,8,105,83,224,37.4,110,76,160,39.2,119,74,296,42.7,104,65,44,42.0*60,1741761651000
NMEA,$GAGSV,2,2,8,118,48,143,39.7,106,40,44,36.2,99,3,320,0.0,121,51,183,0.0*65,1741761651000
NMEA,$GPVTG,142.610,T,,M,0.438,N,0.812,K,A*09,1741761651000
NMEA,$RD_RSSI, 762, 738, 0, 0,1741761651000
NMEA,$GPGGA,064052.000,3959.891651,N,11628.837892,E,1,22,0.813,22.774,M,0,M,,*4E,1741761652000
NMEA,$GPRMC,064052.000,A,3959.891651,N,11628.837892,E,0.000,142.610,120325,,E,A*2E,1741761652000
NMEA,$GPGLL,3959.891651,N,11628.837892,E,064052.000,A,A*5B,1741761652000
NMEA,$GPGSA,A,3,14,22,17,194,1,3,19,2,195,,,,1.373,0.813,1.105*01,1741761652000
NMEA,$BDGSA,A,3,207,229,240,245,209,226,235,,,,,,1.373,0.813,1.105*1A,1741761652000
NMEA,$GAGSA,A,3,105,110,119,104,118,106,,,,,,,1.373,0.813,1.105*2D,1741761652000
NMEA,$GPGSV,4,1,16,14,79,215,42.7,22,67,300,38.0,17,63,320,45.4,194,54,133,35.5*46,1741761652000
NMEA,$GPGSV,4,2,16,1,44,48,46.2,3,43,103,38.9,19,36,289,38.7,2,25,50,41.5*43,1741761652000
NMEA,$GPGSV,4,3,16,195,70,96,31.2,6,18,229,0.0,8,2,94,0.0,24,4,322,0.0*7C,1741761652000
NMEA,$GPGSV,4,4,16,30,15,209,0.0,193,1,,0.0,196,1,,0.0,47,1,,0.0*75,1741761652000
NMEA,$BDGSV,3,1,9,207,80,341,37.7,229,73,337,34.5,240,71,29,41.9,245,54,242,47.0*61,1741761652000
NMEA,$BDGSV,3,2,9,209,25,216,26.1,226,25,311,33.2,235,24,263,43.7,236,28,181,36.4*5D,1741761652000
NMEA,$BDGSV,3,3,9,203,1,,33.7*48,1741761652000
NMEA,$GAGSV,2,1,8,105,83,224,37.0,110,76,160,39.5,119,74,296,42.7,104,65,44,41.7*67,1741761652000
NMEA,$GAGSV,2,2,8,118,48,143,39.9,106,40,44,36.0,99,3,320,0.0,121,51,183,0.0*69,1741761652000
NMEA,$GPVTG,142.610,T,,M,0.000,N,0.000,K,A*0D,1741761652000
NMEA,$RD_RSSI, 706, 744, 0, 0,1741761652000
NMEA,$GPGGA,064053.000,3959.891651,N,11628.837892,E,1,22,0.813,22.774,M,0,M,,*4F,1741761653000
NMEA,$GPRMC,064053.000,A,3959.891651,N,11628.837892,E,0.179,142.610,120325,,E,A*20,1741761653000
NMEA,$GPGLL,3959.891651,N,11628.837892,E,064053.000,A,A*5A,1741761653000
NMEA,$GPGSA,A,3,14,22,17,194,1,3,19,2,195,,,,1.373,0.813,1.105*01,1741761653000
NMEA,$BDGSA,A,3,207,229,240,245,209,226,235,,,,,,1.373,0.813,1.105*1A,1741761653000
NMEA,$GAGSA,A,3,105,110,119,104,118,106,,,,,,,1.373,0.813,1.105*2D,1741761653000
NMEA,$GPGSV,4,1,16,14,79,215,43.0,22,67,300,39.7,17,63,320,45.4,194,54,133,36.0*40,1741761653000
NMEA,$GPGSV,4,2,16,1,44,48,46.9,3,43,103,39.7,19,36,289,37.0,2,25,50,41.5*4F,1741761653000
NMEA,$GPGSV,4,3,16,195,70,96,34.0,6,18,229,0.0,8,2,94,0.0,24,4,322,0.0*7B,1741761653000
NMEA,$GPGSV,4,4,16,30,15,209,0.0,193,1,,0.0,196,1,,0.0,47,1,,0.0*75,1741761653000
NMEA,$BDGSV,3,1,9,207,80,341,38.0,229,73,337,33.5,240,71,29,41.2,245,54,242,47.2*67,1741761653000
NMEA,$BDGSV,3,2,9,209,25,216,26.5,226,25,311,32.4,235,24,263,44.2,236,28,181,37.5*5C,1741761653000
NMEA,$BDGSV,3,3,9,203,1,,32.0*4E,1741761653000
NMEA,$GAGSV,2,1,8,105,83,225,36.5,110,76,160,39.9,119,74,296,42.2,104,65,44,41.4*68,1741761653000
NMEA,$GAGSV,2,2,8,118,48,143,40.2,106,40,44,37.2,99,3,320,0.0,121,51,183,0.0*6F,1741761653000
NMEA,$GPVTG,142.610,T,,M,0.179,N,0.332,K,A*00,1741761653000
NMEA,$RD_RSSI, 712, 763, 0, 0,1741761653000
NMEA,$GPGGA,064054.000,3959.891651,N,11628.837892,E,1,22,0.813,22.774,M,0,M,,*48,1741761654000
NMEA,$GPRMC,064054.000,A,3959.891651,N,11628.837892,E,0.000,142.610,120325,,E,A*28,1741761654000
NMEA,$GPGLL,3959.891651,N,11628.837892,E,064054.000,A,A*5D,1741761654000
NMEA,$GPGSA,A,3,14,22,17,194,1,3,19,2,195,,,,1.373,0.813,1.105*01,1741761654000
NMEA,$BDGSA,A,3,207,229,240,245,209,226,235,,,,,,1.373,0.813,1.105*1A,1741761654000
NMEA,$GAGSA,A,3,105,110,119,104,118,106,,,,,,,1.373,0.813,1.105*2D,1741761654000
NMEA,$GPGSV,4,1,16,14,79,215,42.7,22,67,300,39.7,17,63,320,45.2,194,54,133,35.5*46,1741761654000
NMEA,$GPGSV,4,2,16,1,44,48,47.4,3,43,103,41.5,19,36,289,36.9,2,25,50,41.4*47,1741761654000
NMEA,$GPGSV,4,3,16,195,70,96,35.2,6,18,229,0.0,8,2,94,0.0,24,4,322,0.0*78,1741761654000
NMEA,$GPGSV,4,4,16,30,15,209,0.0,193,1,,0.0,196,1,,0.0,47,1,,0.0*75,1741761654000
NMEA,$BDGSV,3,1,9,207,80,341,38.7,229,73,337,32.0,240,71,29,41.5,245,54,242,47.2*63,1741761654000
NMEA,$BDGSV,3,2,9,209,25,216,26.8,226,25,311,30.2,235,24,263,45.0,236,28,181,37.5*56,1741761654000
NMEA,$BDGSV,3,3,9,203,1,,31.3*4E,1741761654000
NMEA,$GAGSV,2,1,8,105,83,225,36.5,110,76,160,40.2,119,74,296,41.2,104,65,44,41.0*6A,1741761654000
NMEA,$GAGSV,2,2,8,118,48,143,40.4,106,40,44,37.7,99,3,320,0.0,121,51,183,0.0*6C,1741761654000
NMEA,$GPVTG,142.610,T,,M,0.000,N,0.000,K,A*0D,1741761654000
NMEA,$RD_RSSI, 694, 741, 0, 0,1741761654000
NMEA,$GPGGA,064055.000,3959.891651,N,11628.837892,E,1,22,0.813,22.774,M,0,M,,*49,1741761654000
NMEA,$GPRMC,064055.000,A,3959.891651,N,11628.837892,E,0.000,142.610,120325,,E,A*29,1741761655000
NMEA,$GPGLL,3959.891651,N,11628.837892,E,064055.000,A,A*5C,1741761655000
NMEA,$GPGSA,A,3,14,22,17,194,1,3,19,2,195,,,,1.373,0.813,1.105*01,1741761655000
NMEA,$BDGSA,A,3,207,229,240,245,209,226,235,,,,,,1.373,0.813,1.105*1A,1741761655000
NMEA,$GAGSA,A,3,105,110,119,104,118,106,,,,,,,1.373,0.813,1.105*2D,1741761655000
NMEA,$GPGSV,4,1,16,14,79,215,42.7,22,67,300,40.0,17,63,320,45.2,194,54,133,35.5*4F,1741761655000
NMEA,$GPGSV,4,2,16,1,44,48,47.5,3,43,103,42.0,19,36,289,37.0,2,25,50,41.2*4E,1741761655000
NMEA,$GPGSV,4,3,16,195,70,96,35.4,6,18,229,0.0,8,2,94,0.0,24,4,322,0.0*7E,1741761655000
NMEA,$GPGSV,4,4,16,30,15,209,0.0,193,1,,0.0,196,1,,0.0,47,1,,0.0*75,1741761655000
NMEA,$BDGSV,3,1,9,207,80,341,38.9,229,73,337,32.0,240,71,29,41.5,245,54,242,47.2*6D,1741761655000
NMEA,$BDGSV,3,2,9,209,25,216,26.8,226,25,311,31.7,235,25,263,44.9,236,28,181,37.7*59,1741761655000
NMEA,$BDGSV,3,3,9,203,1,,31.2*4F,1741761655000
NMEA,$GAGSV,2,1,8,105,83,225,36.7,110,76,160,40.2,119,74,296,41.2,104,65,44,41.2*6A,1741761655000
NMEA,$GAGSV,2,2,8,118,48,143,40.2,106,40,44,38.2,99,3,320,0.0,121,51,183,0.0*60,1741761655000
NMEA,$GPVTG,142.610,T,,M,0.000,N,0.000,K,A*0D,1741761655000
NMEA,$RD_RSSI, 661, 760, 0, 0,1741761655000
NMEA,$GPGGA,064056.000,3959.891651,N,11628.837892,E,1,22,0.813,22.774,M,0,M,,*4A,1741761656000
NMEA,$GPRMC,064056.000,A,3959.891651,N,11628.837892,E,0.000,142.610,120325,,E,A*2A,1741761656000
NMEA,$GPGLL,3959.891651,N,11628.837892,E,064056.000,A,A*5F,1741761656000
NMEA,$GPGSA,A,3,14,22,17,194,1,3,19,2,195,,,,1.372,0.813,1.105*00,1741761656000
NMEA,$BDGSA,A,3,207,229,240,245,209,226,235,,,,,,1.372,0.813,1.105*1B,1741761656000
NMEA,$GAGSA,A,3,105,110,119,104,118,106,,,,,,,1.372,0.813,1.105*2C,1741761656000
NMEA,$GPGSV,4,1,16,14,79,215,43.0,22,67,300,39.9,17,63,320,44.9,194,54,133,36.4*46,1741761656000
NMEA,$GPGSV,4,2,16,1,44,48,47.2,3,43,103,41.9,19,36,289,36.7,2,25,50,41.0*47,1741761656000
NMEA,$GPGSV,4,3,16,195,70,96,36.5,6,18,229,0.0,8,2,94,0.0,24,4,322,0.0*7C,1741761656000
NMEA,$GPGSV,4,4,16,30,15,209,0.0,193,1,,0.0,196,1,,0.0,47,1,,0.0*75,1741761656000
NMEA,$BDGSV,3,1,9,207,80,341,39.0,229,73,337,30.7,240,71,29,41.9,245,54,242,47.2*6C,1741761656000
NMEA,$BDGSV,3,2,9,209,25,216,26.7,226,25,311,32.5,235,25,263,45.2,236,28,181,38.0*55,1741761656000
NMEA,$BDGSV,3,3,9,203,1,,31.2*4F,1741761656000
NMEA,$GAGSV,2,1,8,105,83,225,36.7,110,76,160,39.9,119,74,296,41.0,104,65,44,41.5*6A,1741761656000
NMEA,$GAGSV,2,2,8,118,48,143,39.7,106,40,44,37.7,99,3,320,0.0,121,51,183,0.0*61,1741761656000
NMEA,$GPVTG,142.610,T,,M,0.000,N,0.000,K,A*0D,1741761656000
NMEA,$RD_RSSI, 690, 766, 0, 0,1741761656000
NMEA,$GPGGA,064057.000,3959.891651,N,11628.837892,E,1,22,0.813,22.774,M,0,M,,*4B,1741761657000
NMEA,$GPRMC,064057.000,A,3959.891651,N,11628.837892,E,0.000,142.610,120325,,E,A*2B,1741761657000
NMEA,$GPGLL,3959.891651,N,11628.837892,E,064057.000,A,A*5E,1741761657000
NMEA,$GPGSA,A,3,14,22,17,194,1,3,19,2,195,,,,1.372,0.813,1.105*00,1741761657000
NMEA,$BDGSA,A,3,207,229,240,245,209,226,235,,,,,,1.372,0.813,1.105*1B,1741761657000
NMEA,$GAGSA,A,3,105,110,119,104,118,106,,,,,,,1.372,0.813,1.105*2C,1741761657000
NMEA,$GPGSV,4,1,16,14,79,215,42.2,22,67,300,39.2,17,63,320,45.0,194,54,133,35.0*41,1741761657000
NMEA,$GPGSV,4,2,16,1,44,48,46.7,3,43,103,42.2,19,36,289,35.7,2,25,50,41.0*48,1741761657000
NMEA,$GPGSV,4,3,16,195,70,96,35.2,6,18,229,0.0,8,2,94,0.0,24,4,322,0.0*78,1741761657000
NMEA,$GPGSV,4,4,16,30,15,209,0.0,193,1,,0.0,196,1,,0.0,47,1,,0.0*75,1741761657000
NMEA,$BDGSV,3,1,9,207,80,341,38.7,229,73,337,30.2,240,71,29,41.5,245,54,242,47.2*63,1741761657000
NMEA,$BDGSV,3,2,9,209,25,216,27.0,226,25,311,32.0,235,25,263,45.5,236,28,181,37.4*5A,1741761657000
NMEA,$BDGSV,3,3,9,203,1,,31.7*4A,1741761657000
NMEA,$GAGSV,2,1,8,105,83,225,35.0,110,76,160,40.4,119,74,296,40.7,104,65,44,41.2*6C,1741761657000
NMEA,$GAGSV,2,2,8,118,48,143,39.7,106,40,44,37.2,99,3,320,0.0,121,51,183,0.0*64,1741761657000
NMEA,$GPVTG,142.610,T,,M,0.000,N,0.000,K,A*0D,1741761657000
NMEA,$RD_RSSI, 700, 742, 0, 0,1741761657000
NMEA,$GPGGA,064058.000,3959.891651,N,11628.837892,E,1,22,0.813,22.774,M,0,M,,*44,1741761657000
NMEA,$GPRMC,064058.000,A,3959.891651,N,11628.837892,E,0.000,142.610,120325,,E,A*24,1741761658000
NMEA,$GPGLL,3959.891651,N,11628.837892,E,064058.000,A,A*51,1741761658000
NMEA,$GPGSA,A,3,14,22,17,194,1,3,19,2,195,,,,1.372,0.813,1.105*00,1741761658000
NMEA,$BDGSA,A,3,207,229,240,245,209,226,235,,,,,,1.372,0.813,1.105*1B,1741761658000
NMEA,$GAGSA,A,3,105,110,119,104,118,106,,,,,,,1.372,0.813,1.105*2C,1741761658000
NMEA,$GPGSV,4,1,16,14,79,215,42.2,22,67,300,38.0,17,63,320,45.4,194,54,133,35.5*43,1741761658000
NMEA,$GPGSV,4,2,16,1,44,48,46.2,3,43,103,42.0,19,36,289,37.0,2,25,50,40.0*4B,1741761658000
NMEA,$GPGSV,4,3,16,195,70,96,33.5,6,18,229,0.0,8,2,94,0.0,24,4,322,0.0*79,1741761658000
NMEA,$GPGSV,4,4,16,30,15,209,0.0,193,1,,0.0,196,1,,0.0,47,1,,0.0*75,1741761658000
NMEA,$BDGSV,3,1,9,207,80,341,38.7,229,73,337,31.7,240,71,29,41.4,245,54,242,47.0*64,1741761658000
NMEA,$BDGSV,3,2,9,209,25,216,26.1,226,25,311,32.2,235,25,263,45.4,236,28,181,37.4*59,1741761658000
NMEA,$BDGSV,3,3,9,203,1,,32.0*4E,1741761658000
NMEA,$GAGSV,2,1,8,105,83,225,35.0,110,76,160,39.5,119,74,296,40.5,104,65,44,40.2*60,1741761658000
NMEA,$GAGSV,2,2,8,118,48,143,39.7,106,40,44,36.9,99,3,320,0.0,121,51,183,0.0*6E,1741761658000
NMEA,$GPVTG,142.610,T,,M,0.000,N,0.000,K,A*0D,1741761658000
NMEA,$RD_RSSI, 703, 727, 0, 0,1741761658000
NMEA,$GPGGA,064059.000,3959.891651,N,11628.837892,E,1,22,0.813,22.774,M,0,M,,*45,1741761659000
NMEA,$GPRMC,064059.000,A,3959.891651,N,11628.837892,E,0.272,142.610,120325,,E,A*22,1741761659000
NMEA,$GPGLL,3959.891651,N,11628.837892,E,064059.000,A,A*50,1741761659000
NMEA,$GPGSA,A,3,14,22,17,194,1,3,19,2,195,,,,1.372,0.813,1.105*00,1741761659000
NMEA,$BDGSA,A,3,207,229,240,245,209,226,235,,,,,,1.372,0.813,1.105*1B,1741761659000
NMEA,$GAGSA,A,3,105,110,119,104,118,106,,,,,,,1.372,0.813,1.105*2C,1741761659000
NMEA,$GPGSV,4,1,16,14,79,215,41.4,22,67,300,38.7,17,63,320,45.0,194,54,133,35.0*40,1741761659000
NMEA,$GPGSV,4,2,16,1,44,48,45.7,3,43,103,41.7,19,36,289,38.7,2,25,50,39.7*48,1741761659000
NMEA,$GPGSV,4,3,16,195,70,96,33.0,6,18,229,0.0,8,2,94,0.0,24,4,322,0.0*7C,1741761659000
NMEA,$GPGSV,4,4,16,30,15,209,0.0,193,1,,0.0,196,1,,0.0,47,1,,0.0*75,1741761659000
NMEA,$BDGSV,3,1,9,207,80,341,38.2,229,73,337,33.0,240,71,29,41.4,245,54,242,46.5*60,1741761659000
NMEA,$BDGSV,3,2,9,209,25,216,25.7,226,25,311,31.6,235,25,263,45.5,236,28,181,37.9*57,1741761659000
NMEA,$BDGSV,3,3,9,203,1,,32.5*4B,1741761659000
NMEA,$GAGSV,2,1,8,105,83,225,34.5,110,76,160,39.2,119,74,296,40.5,104,65,44,40.0*61,1741761659000
NMEA,$GAGSV,2,2,8,118,48,143,39.5,106,40,44,36.5,99,3,320,0.0,121,51,183,0.0*60,1741761659000
NMEA,$GPVTG,142.610,T,,M,0.272,N,0.504,K,A*0B,1741761659000
NMEA,$RD_RSSI, 733, 756, 0, 0,1741761659000
NMEA,$GPGGA,064100.000,3959.891651,N,11628.837892,E,1,22,0.813,22.774,M,0,M,,*48,1741761660000
NMEA,$GPRMC,064100.000,A,3959.891651,N,11628.837892,E,0.000,142.610,120325,,E,A*28,1741761660000
NMEA,$GPGLL,3959.891651,N,11628.837892,E,064100.000,A,A*5D,1741761660000
NMEA,$GPGSA,A,3,14,22,17,194,1,3,19,2,195,,,,1.372,0.813,1.105*00,1741761660000
NMEA,$BDGSA,A,3,207,229,240,245,209,226,235,,,,,,1.372,0.813,1.105*1B,1741761660000
NMEA,$GAGSA,A,3,105,110,119,104,118,106,,,,,,,1.372,0.813,1.105*2C,1741761660000
NMEA,$GPGSV,4,1,16,14,79,215,41.2,22,67,300,39.4,17,63,320,44.2,194,54,133,34.7*41,1741761660000
NMEA,$GPGSV,4,2,16,1,44,48,46.0,3,43,103,41.4,19,36,289,39.2,2,25,50,39.5*49,1741761660000
NMEA,$GPGSV,4,3,16,195,70,96,31.8,6,19,229,0.0,8,2,94,0.0,24,4,322,0.0*77,1741761660000
NMEA,$GPGSV,4,4,16,30,15,209,0.0,193,1,,0.0,196,1,,0.0,47,1,,0.0*75,1741761660000
NMEA,$BDGSV,3,1,9,207,80,341,39.2,229,73,337,33.7,240,71,29,41.5,245,54,242,46.7*65,1741761660000
NMEA,$BDGSV,3,2,9,209,25,216,26.1,226,25,311,30.5,235,25,263,45.4,236,28,181,38.2*55,1741761660000
NMEA,$BDGSV,3,3,9,203,1,,32.5*4B,1741761660000
NMEA,$GAGSV,2,1,8,105,83,225,34.7,110,76,160,38.4,119,74,296,40.2,104,65,44,40.5*66,1741761660000
NMEA,$GAGSV,2,2,8,118,48,143,39.9,106,40,44,37.7,99,3,320,0.0,121,51,183,0.0*6F,1741761660000
NMEA,$GPVTG,142.610,T,,M,0.000,N,0.000,K,A*0D,1741761660000
NMEA,$RD_RSSI, 715, 758, 0, 0,1741761660000
NMEA,$GPGGA,064101.000,3959.891651,N,11628.837892,E,1,22,0.813,22.774,M,0,M,,*49,1741761661000
NMEA,$GPRMC,064101.000,A,3959.891651,N,11628.837892,E,0.000,142.610,120325,,E,A*29,1741761661000
NMEA,$GPGLL,3959.891651,N,11628.837892,E,064101.000,A,A*5C,1741761661000
NMEA,$GPGSA,A,3,14,22,17,194,1,3,19,2,195,,,,1.372,0.813,1.105*00,1741761661000
NMEA,$BDGSA,A,3,207,229,240,245,209,226,235,,,,,,1.372,0.813,1.105*1B,1741761661000
NMEA,$GAGSA,A,3,105,110,119,104,118,106,,,,,,,1.372,0.813,1.105*2C,1741761661000
NMEA,$GPGSV,4,1,16,14,79,215,41.2,22,67,300,40.9,17,63,320,44.2,194,54,133,35.9*4D,1741761661000
NMEA,$GPGSV,4,2,16,1,44,48,45.7,3,43,103,40.2,19,36,289,37.9,2,25,50,40.0*44,1741761661000
NMEA,$GPGSV,4,3,16,195,70,96,34.7,6,19,229,0.0,8,2,94,0.0,24,4,322,0.0*7D,1741761661000
NMEA,$GPGSV,4,4,16,30,15,209,0.0,193,1,,0.0,196,1,,0.0,47,1,,0.0*75,1741761661000
