     3.04           OBSERVATION DATA    M: Mixed            RINEX VERSION / TYPE
RTKCONV demo5 b34k                      20250324 025910 UTC PGM / RUN BY / DATE 
format: RINEX                                               COMMENT             
log: E:\Proj-Enhanced\RTKLIB-py\data\unisoc\20250312\data01\COMMENT             
  rinex\rover.obs                                           COMMENT             
Geo++                                                       MARKER NAME         
                                                            MARKER NUMBER       
                                                            MARKER TYPE         
                                                            OBSERVER / AGENCY   
unknown             UNISOC              uis7865_6h10_go_a32bREC # / TYPE / VERS 
unknown             uis7865_6h10_go_a32b                    ANT # / TYPE        
 -2181701.4845  4379525.0390  4077849.8171                  APPROX POSITION XYZ 
        0.0000        0.0000        0.0000                  ANTENNA: DELTA H/E/N
G    4 C1C L1C D1C S1C                                      SYS / # / OBS TYPES 
E    4 C1C L1C D1C S1C                                      SYS / # / OBS TYPES 
J    4 C1C L1C D1C S1C                                      SYS / # / OBS TYPES 
C    4 C2I L2I D2I S2I                                      SYS / # / OBS TYPES 
  2025    03    12    06    41   07.9999099     GPS         TIME OF FIRST OBS   
  2025    03    12    07    02   06.0000750     GPS         TIME OF LAST OBS    
G L1C                                                       SYS / PHASE SHIFT   
E L1C  0.00000                                              SYS / PHASE SHIFT   
J L1C                                                       SYS / PHASE SHIFT   
C L2I                                                       SYS / PHASE SHIFT   
 24 R01  1 R02 -4 R03  5 R04  6 R05  1 R06 -4 R07  5 R08  6 GLONASS SLOT / FRQ #
    R09 -2 R10 -5 R11  0 R12 -1 R13 -2 R14 -7 R15  0 R16 -1 GLONASS SLOT / FRQ #
    R17  4 R18 -3 R19  3 R20  2 R21  4 R22 -3 R23  3 R24  2 GLONASS SLOT / FRQ #
 C1C    0.000 C1P    0.000 C2C    0.000 C2P    0.000        GLONASS COD/PHS/BIS 
                                                            END OF HEADER       
> 2025 03 12 06 41 07.9999099  0 22                     
C07  35825372.573   186551972.622         197.807          37.000  
C09  38811252.392   202100242.705       -1843.048          25.000  
C26  24709431.279   128668313.794        1974.529          32.000  
C29  21610774.035   112532773.508         -37.472          34.000  
C35  24556298.191   127870948.972        2276.958          42.000  
C40  36077720.776   187865993.596         121.199          41.000  
C45  22552384.671   117435970.631       -1044.905          46.000  
E10  23878402.389   125481668.863       -1135.669          42.000  
E11  23709361.413   124593383.332         349.045          37.000  
E12  25269950.540   132794276.938       -2134.527          36.000  
E16  23375158.477   122837100.708        -734.551          38.000  
E24  24927874.754   130996687.791       -1969.374          39.000  
E25  23411742.151   123029390.274         619.019          42.000  
G01  21665986.212   113855335.310       -2471.519          46.000  
G02  23708911.425   124590996.128       -3017.709          41.000  
G03  21428496.023   112607405.869        1307.140          33.000  
G14  20014969.787   105179242.313        -284.795          42.000  
G17  20909568.469   109880371.949         790.491          45.000  
G19  22183178.867   116573220.652        2405.698          38.000  
G22  20933139.052   110004241.870        1120.046          36.000  
J02  38016214.185   199776553.380         618.482          36.000  
J03  38903875.070   204441118.564        -413.528          31.000  
> 2025 03 12 06 41 08.9998488  0 22                     
C07  35825333.713   186551762.301         192.663          37.000  
C09  38811605.360   202102068.213       -1842.899          25.000  
C26  24709050.355   128666325.892        1969.091          33.000  
C29  21610781.342   112532795.489         -41.185          35.000  
C35  24555859.407   127868658.371        2273.095          42.000  
C40  36077694.207   187865858.887         117.708          41.000  
C45  22552583.546   117437000.211       -1048.511          46.000  
E10  23878616.253   125482792.212       -1140.456          42.000  
E11  23709295.571   124593022.606         344.296          37.000  
E12  25270353.873   132796397.630       -2139.653          36.000  
E16  23375297.693   122837823.177        -739.432          39.000  
E24  24928252.005   130998644.939       -1974.639          39.000  
E25  23411623.245   123028759.884         614.108          42.000  
G01  21666455.200   113857790.049       -2474.542          46.000  
G02  23709484.740   124593998.428       -3021.419          41.000  
G03  21428250.006   112606088.218        1299.887          37.000  
G14  20015024.162   105179510.992        -289.204          42.000  
G17  20909416.587   109879566.658         787.747          45.000  
G19  22182715.201   116570801.254        2401.335          38.000  
G22  20932925.712   110003108.177        1115.381          36.000  
J02  38016095.580   199775920.703         614.539          35.000  
J03  38903949.531   204441519.238        -420.849          30.000  
> 2025 03 12 06 41 09.9997878  0 22                     
C07  35825325.094   186551711.436         192.637          37.000  
C09  38811987.370   202104052.199       -1845.598          26.000  
C26  24708702.671   128664499.540        1969.081          33.000  
C29  21610819.791   112532977.770         -42.467          34.000  
C35  24555452.064   127866527.202        2272.535          43.000  
C40  36077699.978   187865883.080         117.901          41.000  
C45  22552812.663   117438189.383       -1050.460          47.000  
E10  23878860.659   125484075.362       -1141.472          41.000  
E11  23709257.273   124592824.362         342.566          37.000  
E12  25270792.844   132798681.311       -2140.509          36.000  
E16  23375466.551   122838706.348        -741.282          39.000  
E24  24928656.500   131000763.621       -1976.038          39.000  
E25  23411535.481   123028291.288         612.651          42.000  
G01  21666954.729   113860408.216       -2476.382          46.000  
G02  23710089.197   124597162.020       -3023.067          41.000  
G03  21428035.430   112604934.330        1296.097          38.000  
G14  20015109.978   105179944.277        -289.892          42.000  
G17  20909294.647   109878922.719         786.497          45.000  
G19  22182286.273   116568544.016        2399.928          38.000  
G22  20932741.714   110002137.482        1114.070          38.000  
J02  38016006.616   199775449.695         614.364          35.000  
J03  38904057.531   204442083.935        -423.376          31.000  
> 2025 03 12 06 41 10.9997267  0 22                     
C07  35825285.858   186551504.532         194.577          38.000  
C09  38812339.364   202105883.399       -1843.267          26.000  
C26  24708326.169   128662516.830        1969.731          32.000  
C29  21610823.726   112533006.441         -41.737          33.000  
C35  24555014.705   127864241.056        2275.043          44.000  
C40  36077676.632   187865752.078         119.368          41.000  
C45  22553012.962   117439226.066       -1047.844          47.000  
E10  23879078.645   125485204.900       -1142.918          41.000  
E11  23709191.356   124592470.021         340.750          36.000  
E12  25271195.503   132800807.178       -2140.709          37.000  
E16  23375607.491   122839436.040        -742.763          39.000  
E24  24929032.178   131002725.765       -1976.301          40.000  
E25  23411414.702   123027666.072         611.572          42.000  
G01  21667424.542   113862867.602       -2472.642          46.000  
G02  23710663.337   124600168.711       -3019.357          41.000  
G03  21427789.038   112603624.041        1298.509          39.000  
G14  20015165.177   105180218.149        -287.083          43.000  
G17  20909142.389   109878121.221         790.087          45.000  
G19  22181828.227   116566130.010        2401.796          37.000  
G22  20932528.899   110001007.965        1117.254          39.000  
J02  38015888.536   199774820.565         617.354          36.000  
J03  38904135.815   204442489.703        -418.248          34.000  
> 2025 03 12 06 41 11.9996656  0 22                     
C07  35825246.885   186551295.249         197.283          38.000  
C09  38812692.520   202107713.060       -1841.758          26.000  
C26  24707946.932   128660533.663        1972.145          30.000  
C29  21610829.122   112533031.718         -37.404          32.000  
C35  24554575.808   127861952.320        2275.630          45.000  
C40  36077651.749   187865618.024         121.607          41.000  
C45  22553210.825   117440257.929       -1047.324          47.000  
E10  23879295.395   125486329.758       -1140.035          41.000  
E11  23709125.701   124592113.920         343.793          36.000  
E12  25271604.120   132802933.374       -2138.420          37.000  
E16  23375746.595   122840160.828        -739.725          40.000  
E24  24929406.319   131004684.666       -1973.856          40.000  
E25  23411298.683   123027038.716         614.194          41.000  
G01  21667893.417   113865327.770       -2473.251          47.000  
G02  23711236.240   124603173.872       -3017.846          41.000  
G03  21427540.810   112602312.512        1298.677          41.000  
G14  20015219.140   105180492.900        -288.029          42.000  
G17  20908989.795   109877318.525         789.744          45.000  
G19  22181371.943   116563713.599        2404.458          36.000  
G22  20932316.646   109999878.372        1116.911          39.000  
J02  38015768.019   199774189.573         618.346          35.000  
J03  38904214.960   204442893.112        -416.775          35.000  
> 2025 03 12 06 41 12.9996045  0 22                     
C07  35825206.750   186551081.110         200.379          38.000  
C09  38813043.914   202109538.496       -1843.168          26.000  
C26  24707568.032   128658544.394        1976.176          31.000  
C29  21610830.358   112533052.444         -35.115          32.000  
C35  24554137.849   127859658.918        2280.552          44.000  
C40  36077626.304   187865479.404         125.620          41.000  
C45  22553408.125   117441287.476       -1042.916          47.000  
E10  23879508.885   125487451.480       -1137.205          41.000  
E11  23709057.986   124591752.145         346.771          36.000  
E12  25272007.378   132805052.407       -2136.027          38.000  
E16  23375885.436   122840882.201        -737.429          40.000  
E24  24929782.895   131006641.620       -1972.015          40.000  
E25  23411178.204   123026407.348         616.643          41.000  
G01  21668362.330   113867781.965       -2468.329          47.000  
G02  23711808.282   124606173.320       -3013.846          41.000  
G03  21427292.019   112600996.620        1303.668          42.000  
G14  20015273.140   105180762.302        -283.472          42.000  
G17  20908836.938   109876511.517         794.315          45.000  
G19  22180915.996   116561292.734        2408.770          37.000  
G22  20932102.632   109998744.102        1121.700          40.000  
J02  38015647.540   199773554.888         621.803          35.000  
J03  38904292.344   204443291.395        -412.541          35.000  
> 2025 03 12 06 41 13.9995434  0 22                     
C07  35825166.353   186550865.024         201.155          39.000  
C09  38813401.941   202111363.814       -1838.749          26.000  
C26  24707186.171   128656553.159        1976.195          32.000  
C29  21610832.232   112533068.831         -32.184          30.000  
C35  24553698.428   127857363.488        2279.744          45.000  
C40  36077600.297   187865338.535         125.211          41.000  
C45  22553606.063   117442316.057       -1044.101          47.000  
E10  23879720.314   125488571.232       -1136.025          41.000  
E11  23708988.209   124591389.187         347.461          36.000  
E12  25272410.075   132807169.937       -2134.363          37.000  
E16  23376019.518   122841602.387        -735.965          39.000  
E24  24930153.214   131008595.205       -1970.529          39.000  
E25  23411060.160   123025774.071         617.788          41.000  
G01  21668830.381   113870233.806       -2468.716          47.000  
G02  23712379.761   124609169.917       -3013.631          41.000  
G03  21427044.466   112599678.039        1302.183          41.000  
G14  20015326.578   105181029.756        -285.054          43.000  
G17  20908684.119   109875702.476         794.007          44.000  
G19  22180456.190   116558868.666        2409.674          36.000  
G22  20931888.955   109997607.461        1120.575          39.000  
J02  38015525.899   199772916.997         622.946          36.000  
J03  38904368.566   204443687.118        -412.287          36.000  
> 2025 03 12 06 41 14.9994824  0 22                     
C07  35825155.786   186550806.671         202.555          38.000  
C09  38813782.303   202113346.372       -1837.950          27.000  
C26  24706835.938   128654720.883        1976.315          32.000  
C29  21610865.734   112533244.650         -34.437          30.000  
C35  24553289.137   127855226.730        2281.301          45.000  
C40  36077603.220   187865355.895         126.303          41.000  
C45  22553834.131   117443500.420       -1043.105          47.000  
E10  23879966.968   125489851.098       -1135.528          41.000  
E11  23708950.660   124591185.853         347.665          35.000  
E12  25272843.799   132809446.266       -2133.338          37.000  
E16  23376190.925   122842480.334        -735.508          40.000  
E24  24930559.058   131010971.910       -1969.991          39.000  
E25  23410970.447   123025300.186         618.565          40.000  
G01  21669328.561   113872845.690       -2468.112          46.000  
G02  23712981.070   124612328.044       -3012.699          41.000  
G03  21426827.041   112598519.565        1302.505          42.000  
G14  20015410.445   105181455.642        -284.126          42.000  
G17  20908561.429   109875051.498         794.881          45.000  
G19  22180021.715   116556603.919        2409.426          35.000  
G22  20931704.807   109996629.988        1121.633          39.000  
J02  38015434.987   199772437.434         625.086          35.000  
J03  38904474.618   204444240.358        -409.450          35.000  
> 2025 03 12 06 41 16.0004212  0 22                     
C07  35825103.285   186550531.476         203.533          38.000  
C09  38814120.431   202115112.114       -1837.079          26.000  
C26  24706442.273   128652670.676        1976.082          32.000  
C29  21610865.397   112533206.939         -35.064          31.000  
C35  24552838.211   127852870.903        2282.073          45.000  
C40  36077566.608   187865156.519         127.785          41.000  
C45  22554021.463   117444471.371       -1043.577          47.000  
E10  23880169.290   125490911.620       -1134.713          40.000  
E11  23708870.878   124590764.110         349.117          35.000  
E12  25273235.591   132811507.906       -2132.537          36.000  
E16  23376314.402   122843142.642        -735.062          39.000  
E24  24930923.568   131012868.875       -1969.290          39.000  
E25  23410839.700   123024607.970         619.133          40.000  
G01  21669785.707   113875243.423       -2467.958          46.000  
G02  23713541.045   124615267.583       -3011.670          40.000  
G03  21426567.084   112597143.352        1302.513          42.000  
G14  20015451.479   105181667.467        -283.707          42.000  
G17  20908397.405   109874183.337         795.527          45.000  
G19  22179545.308   116554119.031        2409.731          37.000  
G22  20931478.427   109995434.459        1122.014          38.000  
J02  38015303.640   199771739.708         624.547          35.000  
J03  38904538.436   204444577.508        -410.860          33.000  
> 2025 03 12 06 41 17.0003601  0 22                     
C07  35825061.126   186550312.433         200.257          38.000  
C09  38814470.701   202116931.710       -1837.405          25.000  
C26  24706064.048   128650958.484        1974.346          31.000  
C29  21610872.105   112533222.623         -35.988          33.000  
C35  24552397.629   127850573.560        2277.981          45.000  
C40  36077540.339   187865013.259         124.750          41.000  
C45  22554219.739   117445497.824       -1045.839          46.000  
E10  23880381.956   125492030.098       -1136.003          40.000  
E11  23708801.139   124590399.317         347.307          34.000  
E12  25273639.224   132813624.131       -2134.817          36.000  
E16  23376450.920   122843860.985        -735.891          39.000  
E24  24931294.824   131014821.116       -1970.502          39.000  
E25  23410720.196   123023972.655         618.417          40.000  
G01  21670253.496   113877692.960       -2470.740          45.000  
G02  23714112.262   124618263.408       -3015.573          39.000  
G03  21426318.368   112595825.449        1298.500          41.000  
G14  20015504.055   105181934.423        -288.882          41.000  
G17  20908243.724   109873372.185         791.451          45.000  
G19  22179083.440   116551693.657        2407.446          38.000  
G22  20931262.688   109994297.574        1116.997          38.000  
J02  38015182.637   199771099.714         621.073          35.000  
J03  38904615.595   204444972.639        -413.280          33.000  
> 2025 03 12 06 41 18.0002991  0 22                     
C07  35825050.071   186550255.001         201.439          39.000  
C09  38814850.276   202118912.664       -1838.276          26.000  
C26  24705711.230   128649128.144        1973.706          30.000  
C29  21610913.813   112533698.668         -35.222          33.000  
C35  24551989.349   127848437.776        2279.946          45.000  
C40  36077546.072   187865031.117         125.474          41.000  
C45  22554450.916   117446686.825       -1045.952          46.000  
E10  23880628.422   125493309.837       -1136.208          40.000  
E11  23708765.501   124590198.087         347.010          34.000  
E12  25274075.159   132815903.082       -2134.771          37.000  
E16  23376623.638   122844742.323        -736.788          38.000  
E24  24931697.782   131016937.762       -1971.051          39.000  
E25  23410631.495   123023500.673         617.603          40.000  
G01  21670752.088   113880308.690       -2470.107          46.000  
G02  23714712.783   124621421.431       -3013.918          39.000  
G03  21426100.157   112594671.796        1299.893          41.000  
G14  20015588.334   105182367.122        -286.664          41.000  
G17  20908121.746   109872725.133         793.344          44.000  
G19  22178655.973   116549431.739        2407.598          39.000  
G22  20931078.054   109993324.284        1119.861          39.000  
J02  38015093.636   199770623.726         622.422          34.000  
J03  38904723.258   204445530.625        -413.756          31.000  
> 2025 03 12 06 41 19.0002380  0 22                     
C07  35825011.586   186550040.546         198.965          38.000  
C09  38815200.321   202120733.591       -1839.328          26.000  
C26  24705326.783   128647141.242        1971.116          32.000  
C29  21610922.695   112533718.573         -36.979          32.000  
C35  24551551.839   127846145.029        2277.585          45.000  
C40  36077520.777   187864892.135         124.530          40.000  
C45  22554650.465   117447983.677       -1047.758          46.000  
E10  23880846.559   125494434.980       -1138.844          40.000  
E11  23708699.134   124589838.984         344.991          35.000  
E12  25274477.069   132818023.598       -2135.777          36.000  
E16  23376760.530   122845465.512        -738.580          39.000  
E24  24932073.610   131018893.650       -1972.366          40.000  
E25  23410513.863   123022871.483         614.924          40.000  
G01  21671220.851   113883033.946       -2471.878          45.000  
G02  23715284.375   124624420.483       -3015.653          40.000  
G03  21425852.416   112593358.137        1297.783          40.000  
G14  20015640.685   105182901.144        -289.667          41.000  
G17  20907969.339   109871917.496         792.029          44.000  
G19  22178199.577   116547010.651        2406.154          37.000  
G22  20930862.990   109992190.932        1116.696          40.000  
J02  38014973.906   199769986.665         621.691          35.000  
J03  38904801.691   204445929.016        -413.575          34.000  
> 2025 03 12 06 41 20.0001769  0 22                     
C07  35824969.465   186549827.301         201.107          38.000  
C09  38815558.723   202122559.636       -1840.210          26.000  
C26  24704940.501   128645157.244        1971.795          32.000  
C29  21610931.838   112533742.824         -38.376          30.000  
C35  24551112.493   127843853.311        2279.727          45.000  
C40  36077495.145   187864753.982         125.396          40.000  
C45  22554851.776   117449018.029       -1048.595          46.000  
E10  23881058.662   125495558.068       -1138.491          39.000  
E11  23708628.833   124589480.554         345.165          35.000  
E12  25274882.538   132820145.034       -2135.434          36.000  
E16  23376897.086   122846188.773        -738.559          39.000  
E24  24932449.999   131020850.732       -1972.223          39.000  
E25  23410394.396   123022242.291         615.608          41.000  
G01  21671689.576   113885489.873       -2472.914          45.000  
G02  23715855.630   124627421.146       -3013.911          40.000  
G03  21425604.638   112592311.354        1296.705          39.000  
G14  20015693.299   105183175.239        -288.326          41.000  
G17  20907817.494   109871111.887         791.508          44.000  
G19  22177743.443   116544590.725        2405.702          37.000  
G22  20930649.088   109991061.250        1116.839          41.000  
J02  38014853.839   199769351.656         622.320          35.000  
J03  38904879.188   204446327.281        -413.964          35.000  
> 2025 03 12 06 41 21.0001158  0 22                     
C07  35824928.843   186549610.920         202.740          37.000  
C09  38815915.026   202124655.129       -1840.283          26.000  
C26  24704558.115   128643170.525        1973.651          34.000  
C29  21610929.590   112533762.866         -35.849          35.000  
C35  24550672.848   127841559.445        2279.974          43.000  
C40  36077467.714   187864613.467         126.192          40.000  
C45  22555051.288   117450049.573       -1048.191          46.000  
E10  23881276.461   125496954.833       -1137.409          39.000  
E11  23708561.829   124589120.468         345.193          36.000  
E12  25275291.005   132822550.219       -2135.020          38.000  
E16  23377037.539   122846912.035        -738.896          40.000  
E24  24932817.095   131022808.204       -1973.000          39.000  
E25  23410277.627   123021611.960         615.642          41.000  
G01  21672157.702   113887943.909       -2469.271          45.000  
G02  23716428.383   124630417.997       -3012.899          41.000  
G03  21425356.260   112590998.149        1300.257          35.000  
G14  20015745.912   105183447.219        -288.385          43.000  
G17  20907665.349   109870303.357         794.264          44.000  
G19  22177286.709   116542168.667        2408.162          38.000  
G22  20930435.786   109989927.711        1118.256          42.000  
J02  38014731.374   199768714.298         621.896          36.000  
J03  38904960.581   204446724.477        -412.958          41.000  
> 2025 03 12 06 41 22.0000548  0 22                     
C07  35824922.585   186549550.831         201.610          36.000  
C09  38816295.800   202126636.064       -1840.325          25.000  
C26  24704212.192   128641338.574        1972.439          38.000  
C29  21610959.606   112533938.807         -34.871          39.000  
C35  24550268.166   127839688.466        2280.742          41.000  
C40  36077472.848   187864629.157         125.081          39.000  
C45  22555281.266   117451238.868       -1048.078          46.000  
E10  23881520.230   125498234.334       -1137.407          38.000  
E11  23708524.992   124588918.958         344.864          37.000  
E12  25275724.543   132824828.225       -2135.118          38.000  
E16  23377207.858   122847794.835        -739.332          39.000  
E24  24933218.854   131024924.631       -1974.452          39.000  
E25  23410189.226   123021139.407         616.050          41.000  
G01  21672656.595   113890557.105       -2470.061          42.000  
G02  23717030.404   124633835.520       -3014.286          39.000  
G03  21425137.448   112589841.033        1300.676          33.000  
G14  20015828.992   105183880.221        -291.040          42.000  
G17  20907544.271   109869652.379         794.554          43.000  
G19  22176858.043   116540174.823        2410.089          38.000  
G22  20930250.552   109988952.989        1118.531          44.000  
J02  38014639.675   199768236.702         620.275          33.000  
J03  38905072.142   204447279.204        -410.652          42.000  
> 2025 03 12 06 41 22.9999937  0 22                     
C07  35824882.937   186549336.178         201.431          36.000  
C09  38816650.080   202128463.424       -1841.424          24.000  
C26  24703830.781   128639353.652        1973.407          37.000  
C29  21610962.230   112533962.299         -37.194          41.000  
C35  24549830.993   127837395.325        2280.436          41.000  
C40  36077446.991   187864491.297         125.003          37.000  
C45  22555482.652   117452272.843       -1049.317          44.000  
E10  23881737.804   125499360.261       -1137.798          38.000  
E11  23708458.363   124588561.677         344.589          38.000  
E12  25276129.487   132826948.510       -2135.287          38.000  
E16  23377347.786   122848792.044        -739.630          40.000  
E24  24933593.220   131026885.356       -1974.780          39.000  
E25  23410070.133   123020511.262         615.539          42.000  
G01  21673125.095   113893014.067       -2471.763          42.000  
G02  23717603.532   124636834.029       -3013.707          41.000  
G03  21424886.147   112588530.881        1294.439          35.000  
G14  20015882.880   105184156.801        -291.392          42.000  
G17  20907392.201   109868846.733         792.158          43.000  
G19  22176400.485   116537752.724        2408.239          40.000  
G22  20930036.725   109987823.194        1116.530          45.000  
J02  38014517.285   199767604.562         619.265          36.000  
J03  38905151.811   204447952.619        -413.162          42.000  
> 2025 03 12 06 41 23.9999326  0 22                     
C07  35824843.140   186549118.269         204.200          38.000  
C09  38817004.809   202130287.956       -1840.723          23.000  
C26  24703450.420   128637363.324        1976.490          36.000  
C29  21610968.300   112533981.225         -30.708          41.000  
C35  24549391.572   127835098.022        2284.163          40.000  
C40  36077420.984   187864347.231         131.250          36.000  
C45  22555682.988   117453305.010       -1044.507          43.000  
E10  23881947.734   125500479.633       -1135.509          37.000  
E11  23708388.886   124588200.710         346.430          37.000  
E12  25276533.383   132829066.177       -2133.576          36.000  
E16  23377485.466   122849513.385        -737.457          40.000  
E24  24933972.832   131028843.875       -1972.949          38.000  
E25  23409950.591   123019878.812         617.788          42.000  
G01  21673592.846   113895467.859       -2465.804          42.000  
G02  23718174.712   124639830.176       -3008.417          42.000  
G03  21424634.996   112587219.771        1300.030          35.000  
G14  20015936.018   105184429.454        -287.152          42.000  
G17  20907239.682   109868037.144         797.681          42.000  
G19  22175938.580   116535327.551        2413.410          43.000  
G22  20929822.448   109986959.245        1121.753          44.000  
J02  38014394.145   199766966.963         624.751          37.000  
J03  38905228.633   204448346.035        -405.961          40.000  
> 2025 03 12 06 41 24.9998715  0 22                     
C07  35824802.630   186548901.399         204.621          39.000  
C09  38817359.426   202132113.999       -1839.944          22.000  
C26  24703070.545   128635374.674        1975.608          34.000  
C29  21610973.659   112534001.486         -35.283          41.000  
C35  24548955.936   127832800.938        2285.224          39.000  
C40  36077395.764   187864466.516         130.588          35.000  
C45  22555882.313   117454338.140       -1049.845          43.000  
E10  23882163.247   125501601.894       -1135.936          38.000  
E11  23708324.693   124587841.124         346.672          38.000  
E12  25276937.166   132831184.520       -2131.766          38.000  
E16  23377624.832   122850237.803        -738.122          40.000  
E24  24934339.441   131030801.316       -1972.261          35.000  
E25  23409830.936   123019248.492         617.258          41.000  
G01  21674060.785   113897920.776       -2469.036          42.000  
G02  23718745.479   124642823.811       -3007.575          42.000  
G03  21424385.232   112585906.876        1299.334          36.000  
G14  20015989.944   105184706.291        -290.054          43.000  
G17  20907086.450   109867228.218         794.639          43.000  
G19  22175481.059   116532904.350        2409.018          44.000  
G22  20929608.059   109985827.245        1117.755          44.000  
J02  38014272.692   199766330.870         622.245          38.000  
J03  38905306.242   204448741.944        -410.526          39.000  
> 2025 03 12 06 41 25.9998104  0 22                     
C07  35824763.882   186548946.425         203.272          39.000  
C09  38817713.106   202133940.199       -1840.851          21.000  
C26  24702689.434   128633384.570        1975.976          35.000  
C29  21610977.482   112534019.566         -34.145          40.000  
C35  24548513.967   127830500.818        2285.819          39.000  
C40  36077369.607   187864321.509         130.310          35.000  
C45  22556081.300   117455372.293       -1052.208          43.000  
E10  23882379.922   125502720.007       -1134.711          38.000  
E11  23708256.865   124587481.148         344.999          38.000  
E12  25277341.810   132833297.846       -2129.075          36.000  
E16  23377765.959   122850960.912        -739.744          39.000  
E24  24934716.805   131032760.082       -1974.228          36.000  
E25  23409713.043   123018617.523         616.220          41.000  
G01  21674528.686   113900371.530       -2465.357          41.000  
G02  23719316.509   124645814.198       -3005.961          42.000  
G03  21424133.631   112584595.433        1295.197          35.000  
G14  20016043.531   105184981.726        -291.339          43.000  
G17  20906932.882   109866419.327         795.781          43.000  
G19  22175020.503   116530481.009        2408.443          44.000  
G22  20929393.932   109984694.465        1118.287          44.000  
J02  38014150.301   199765694.685         621.670          38.000  
J03  38905383.513   204449136.146        -408.760          41.000  
> 2025 03 12 06 41 26.9997494  0 22                     
C07  35824752.940   186548882.461         206.637          38.000  
C09  38818098.789   202135920.9911      -1841.977          19.000  
C26  24702336.728   128631550.512        1974.392          38.000  
C29  21611012.108   112534194.075         -30.959          35.000  
C35  24548104.001   127828354.773        2287.391          39.000  
C40  36077371.256   187864330.414         135.057          39.000  
C45  22556312.590   117456565.449       -1056.059          45.000  
E10  23882622.604   125503994.052       -1131.526          39.000  
E11  23708219.841   124587278.824         345.254          38.000  
E12  25277772.162   132835566.073       -2124.827          38.000  
E16  23377934.593   122851841.757        -738.704          39.000  
E24  24935121.075   131034877.326       -1975.188          38.000  
E25  23409625.054   123018409.739         616.673          41.000  
G01  21675024.992   113902972.925       -2459.162          43.000  
G02  23719916.244   124648958.578       -2996.353          42.000  
G03  21423912.534   112583440.389        1301.539          35.000  
G14  20016127.623   105185414.877        -292.728          42.000  
G17  20906810.117   109866027.997         795.910          44.000  
G19  22174590.750   116528214.689        2407.619          41.000  
G22  20929208.810   109983718.515        1117.504          44.000  
J02  38014061.413   199765215.164         622.981          36.000  
J03  38905489.190   204449684.734        -406.704          42.000  
> 2025 03 12 06 41 27.9996883  0 22                     
C07  35824711.531   186548667.086         202.123          39.000  
C09  38818453.107   202137750.340       -1843.959          20.000  
C26  24701959.552   128629568.222        1966.389          35.000  
C29  21611015.668   112534210.278         -32.708          30.000  
C35  24547663.868   127826064.380        2266.224          34.000  
C40  36077343.637   187864186.088         131.808          42.000  
C45  22556515.812   117457613.485       -1062.081          42.000  
E10  23882834.820   125505112.972       -1132.948          42.000  
E11  23708151.751   124586925.021         340.927          37.000  
E12  25278178.044   132837673.669       -2123.690          35.000  
E16  23378078.755   122852569.779        -741.640          39.000  
E24  24935505.072   131036837.677       -1973.852          35.000  
E25  23409506.898   123017785.109         612.456          42.000  
G01  21675491.732   113905418.839       -2458.329          41.000  
G02  23720486.112   124651942.262       -3000.501          40.000  
G03  21423663.669   112582125.389        1303.761          39.000  
G14  20016182.448   105185696.313        -294.344          42.000  
G17  20906657.784   109865222.339         794.647          47.000  
G19  22174132.330   116525799.448        2400.689          40.000  
G22  20928996.220   109982592.084        1112.724          41.000  
J02  38013943.557   199764578.138         626.847          34.000  
J03  38905565.000   204450077.811        -403.954          41.000  
> 2025 03 12 06 41 28.9996272  0 22                     
C07  35824671.134   186548448.667         204.265          36.000  
C09  38818807.836   202139584.2821      -1850.920          16.000  
C26  24701580.689   128627586.201        1967.419          33.000  
C29  21611020.839   112534227.947         -34.959          26.000  
C35  24547226.846   127823785.023        2284.666          30.000  
C40  36077315.831   187864038.053         133.321          43.000  
C45  22556718.846   117458658.689       -1063.033          40.000  
E10  23883048.047   125506227.277       -1131.616          42.000  
E11  23708087.970   124586842.830         340.839          35.000  
E12  25278580.440   132839778.319       -2120.769          33.000  
E16  23378219.433   122853293.032        -740.769          37.000  
E24  24935882.585   131038792.008       -1971.907          31.000  
E25  23409387.056   123017158.390         611.261          43.000  
G01  21675957.984   113907861.286       -2455.661          37.000  
G02  23721056.692   124654924.473       -2996.791          35.000  
G03  21423415.216   112580807.823        1302.991          41.000  
G14  20016237.385   105185976.077        -297.185          41.000  
G17  20906504.965   109864414.780         791.800          47.000  
G19  22173674.922   116523385.770        2397.988          39.000  
G22  20928782.243   109981464.620        1112.052          41.000  
J02  38013824.914   199763936.104         627.255          32.000  
J03  38905639.124   204450468.917        -406.496          41.000  
> 2025 03 12 06 41 29.9995661  0 22                     
C07  35824631.711   186548233.262         203.596          31.000  
C09  38819162.940   202141427.4921      -1857.174          15.000  
C26  24701201.901   128625607.058        1966.627          32.000  
C29  21611028.484   112534251.454         -36.257          24.000  
C35  24546787.200   127821491.297        2280.525          27.000  
C40  36077289.300   187863893.059         134.796          44.000  
C45  22556921.356   117459710.218       -1063.990          41.000  
E10  23883262.849   125507345.470       -1130.758          42.000  
E11  23708022.465   124586490.369         340.803          36.000  
E12  25278982.012   132841886.066       -2119.997          31.000  
E16  23378353.890   122854023.539        -742.380          39.000  
E24  24936258.075   131040751.128       -1971.274          30.000  
E25  23409269.687   123016535.979         610.880          43.000  
G01  21676424.311   113910301.705       -2453.872          34.000  
G02  23721624.349   124657904.808       -2989.773          32.000  
G03  21423167.138   112579491.712        1306.473          38.000  
G14  20016293.296   105186259.854        -296.450          41.000  
G17  20906353.120   109863611.092         792.671          44.000  
G19  22173218.188   116520974.916        2399.947          39.000  
G22  20928568.041   109980340.653        1112.909          41.000  
J02  38013706.646   199763298.615         624.968          32.000  
J03  38905714.222   204450859.399        -402.622          41.000  
> 2025 03 12 06 41 30.9995051  0 22                     
C07  35824621.106   186548169.548         204.289          28.000  
C09  38819546.262   202143424.2091      -1859.047          15.000  
C26  24700853.430   128623781.425        1964.401          31.000  
C29  21611061.948   112534428.432         -38.046          21.000  
C35  24546377.871   127819351.293        2280.106          25.000  
C40  36077290.387   187863898.689         136.827          44.000  
C45  22557154.782   117460915.085       -1065.333          40.000  
E10  23883507.067   125508616.176       -1129.348          41.000  
E11  23707984.279   124586291.746         340.010          36.000  
E12  25279414.201   132844145.298       -2117.729          28.000  
E16  23378524.359   122854905.675        -741.913          40.000  
E24  24936663.882   131042861.995       -1972.926          31.000  
E25  23409183.534   123016067.231         610.341          43.000  
G01  21676920.655   113912897.595       -2453.256          33.000  
G02  23722221.123   124661034.425       -2985.998          33.000  
G03  21422952.074   112578328.651        1302.242          36.000  
G14  20016378.624   105186698.557        -299.508          40.000  
G17  20906230.693   109862960.716         790.817          38.000  
G19  22172789.972   116518717.971        2397.407          37.000  
G22  20928384.156   109979370.201        1109.555          42.000  
J02  38013619.594   199762813.651         626.781          33.000  
J03  38905819.337   204451404.541        -405.848          40.000  
> 2025 03 12 06 41 31.9994440  0 21                     
C07  35824582.882   186547953.962         203.624          26.000  
C09  38819901.367   202145272.8371      -1862.277          15.000  
C26  24700477.940   128621808.159        1958.840          27.000  
C29  21611070.492   112534453.5401        -37.996          19.000  
C35  24545947.819   127817060.030        2279.651          23.000  
C40  36077263.255   187863751.724         135.564          43.000  
C45  22557360.289   117461971.199       -1072.746          39.000  
E10  23883719.170   125509731.919       -1129.888          41.000  
E11  23707920.273   124585942.512         337.238          36.000  
E12  25279814.873   132846246.723       -2114.935          29.000  
E16  23378664.512   122855636.994        -744.234          41.000  
E24  24937037.273   131044824.948       -1976.324          31.000  
E25  23409065.866   123015447.036         608.069          43.000  
G01  21677387.882   113915337.889       -2452.982          34.000  
G02  23722788.480   124664007.565       -2985.792          34.000  
G03  21422707.893   112577015.176        1302.759          39.000  
G14  20016435.735   105186987.420        -300.621          40.000  
G17  20906080.047   109862159.429         789.020          31.000  
G19  22172333.538   116516311.940        2391.174          38.000  
G22  20928172.053   109978250.012        1108.317          41.000  
J03  38905895.934   204451796.231        -403.874          42.000  
> 2025 03 12 06 41 33.0003828  0 22                     
C07  35824526.821   186547674.881         208.998          26.000  
C09  38820242.830   202147064.5501      -1867.016          18.000  
C26  24700095.705   128619771.231        1959.054          23.000  
C29  21611062.098   112534413.3791         14.356          16.000  
C35  24545506.225   127814701.6301       2280.154          20.000  
C40  36077223.083   187863538.416         137.338          42.000  
C45  22557551.857   117462965.796       -1068.994          39.000  
E10  23883920.631   125510781.807       -1126.802          41.000  
E11  23707842.927   124585526.672         338.389          36.000  
E12  25280200.107   132848283.495       -2113.247          29.000  
E16  23378794.922   122856301.407        -742.915          42.000  
E24  24937414.712   131046999.140       -1973.791          29.000  
E25  23408936.955   123014760.111         609.741          39.000  
G01  21677841.468   113917712.612       -2450.401          35.000  
G02  23723341.897   124666918.154       -2983.839          34.000  
G03  21422447.073   112575632.053        1303.763          38.000  
G14  20016479.205   105187207.609        -299.659          41.000  
G17  20905917.559   109861292.926         788.658          25.000  
G19  22171863.763   116513838.254        2395.233          38.000  
G22  20927947.508   109977060.846        1112.017          35.000  
J02  38013373.614   199761474.9931        624.599          38.000  
J03  38905959.190   204452121.291        -403.453          41.000  
> 2025 03 12 06 41 34.0003218  0 22                     
C07  35824521.987   186547611.485         204.187          27.000  
C09  38820627.127   202149074.158       -1866.439          24.000  
C26  24699764.396   128617955.5801       1959.961          19.000  
C29  21611092.040   112534541.7801         14.295          14.000  
C35  24545102.367   127812565.114        2280.060          23.000  
C40  36077226.044   187863543.399         137.409          42.000  
C45  22557786.857   117464178.014       -1072.165          38.000  
E10  23884164.624   125512051.224       -1126.141          41.000  
E11  23707805.715   124585332.683         338.834          36.000  
E12  25280635.068   132850541.054       -2111.583          29.000  
E16  23378963.668   122857190.842        -743.515          40.000  
E24  24937827.489   131049117.679       -1976.177          35.000  
E25  23408853.276   123014294.412         612.086          33.000  
G01  21678336.687   113920304.957       -2448.385          35.000  
G02  23723937.847   124670043.806       -2981.190          34.000  
G03  21422227.888   112574474.120        1303.934          39.000  
G14  20016565.208   105187653.000        -300.080          41.000  
G17  20905792.509   109860648.3621        790.022          20.000  
G19  22171440.419   116511585.983        2399.776          32.000  
G22  20927766.696   109976092.721        1114.967          29.000  
J02  38013285.138   199760995.084         624.945          38.000  
J03  38906064.679   204452668.889        -402.546          42.000  
> 2025 03 12 06 41 35.0002607  0 21                     
C07  35824479.829   186547391.190         203.887          27.000  
C09  38820983.392   202150920.707       -1864.890          23.000  
C26  24699391.867   128615978.8331       1960.761          18.000  
C35  24544659.985   127810271.575        2258.683          28.000  
C40  36077197.376   187863387.450         139.003          42.000  
C45  22557990.828   117465231.040       -1070.637          37.000  
E10  23884376.990   125513158.712       -1124.641          41.000  
E11  23707739.573   124584976.207         340.060          37.000  
E12  25281032.106   132852632.534       -2111.193          31.000  
E16  23379103.783   122857915.556        -743.519          44.000  
E24  24938198.744   131051075.608       -1976.627          36.000  
E25  23408738.268   123013665.052         613.779          26.000  
G01  21678801.778   113922736.384       -2450.007          33.000  
G02  23724502.768   124673005.979       -2980.338          35.000  
G03  21421977.374   112573155.417        1301.692          40.000  
G14  20016619.583   105187935.945        -301.324          40.000  
G17  20905634.031   109859841.7271        790.544          15.000  
G19  22170986.945   116509169.079        2400.275          30.000  
G22  20927553.356   109974959.340        1117.475          24.000  
J02  38013165.633   199760354.421         623.349          37.000  
J03  38906140.639   204453056.193        -404.032          43.000  
> 2025 03 12 06 41 36.0001996  0 21                     
C07  35824435.722   186547174.256         204.518          28.000  
C09  38821340.108   202152772.030       -1865.481          25.000  
C26  24699019.787   128614276.7111       1936.514          17.000  
C35  24544212.957   127808007.137        2252.479          33.000  
C40  36077169.758   187863237.939         137.147          42.000  
C45  22558196.148   117466289.274       -1072.413          37.000  
E10  23884588.606   125514273.074       -1127.319          40.000  
E11  23707672.682   124584626.433         337.274          37.000  
E12  25281426.895   132854730.974       -2111.839          30.000  
E16  23379244.948   122858647.531        -745.808          45.000  
E24  24938569.550   131053042.059       -1979.436          34.000  
E25  23408623.110   123013037.791         615.564          22.000  
G01  21679267.318   113925172.349       -2451.322          33.000  
G02  23725067.840   124675974.811       -2986.569          33.000  
G03  21421728.209   112571844.881        1295.996          41.000  
G14  20016676.805   105188224.907        -303.599          40.000  
G17  20905479.600   109859037.8731        791.463          13.000  
G19  22170534.521   116506759.935        2393.447          29.000  
G22  20927342.565   109973828.5301       1124.295          18.000  
J02  38013045.079   199759719.705         619.774          38.000  
J03  38906216.749   204453448.934        -405.349          42.000  
> 2025 03 12 06 41 37.0001385  0 20                     
C07  35824395.175   186546955.861         204.693          31.000  
C09  38821696.486   202154624.230       -1867.903          26.000  
C26  24698652.166   128612326.3541       1935.847          16.000  
C35  24543783.280   127805740.725        2254.529          27.000  
C40  36077142.402   187863086.051         140.741          42.000  
C45  22558400.232   117467348.480       -1073.253          37.000  
E10  23884802.883   125515385.630       -1127.546          39.000  
E11  23707610.250   124584275.333         337.142          37.000  
E12  25281831.240   132856827.759       -2110.760          30.000  
E16  23379385.476   122859379.718        -745.960          44.000  
E24  24938937.320   131055005.336       -1978.620          34.000  
E25  23408504.017   123012408.2761        615.057          19.000  
G01  21679731.022   113927609.223       -2449.504          34.000  
G02  23725636.171   124678945.394       -2983.459          33.000  
G14  20016733.092   105188512.351        -302.879          41.000  
G17  20905333.826   109858231.5901        793.054          13.000  
G19  22170082.958   116504351.220        2396.018          26.000  
G22  20927135.933   109972689.1811       1130.555          15.000  
J02  38012924.487   199759084.679         620.172          37.000  
J03  38906291.622   204453836.943        -406.351          42.000  
> 2025 03 12 06 41 38.0000774  0 20                     
C07  35824352.005   186546738.746         205.029          37.000  
C09  38822053.539   202156478.238       -1868.714          24.000  
C26  24698287.619   128610378.2271       1936.227          16.000  
C35  24543353.677   127803472.475        2263.826          22.000  
C40  36077113.322   187862933.827         140.423          41.000  
C45  22558604.690   117468409.044       -1075.570          37.000  
E10  23885014.836   125516497.518       -1126.722          40.000  
E11  23707542.198   124583925.373         337.135          37.000  
E12  25282232.062   132858925.075       -2111.753          27.000  
E16  23379526.678   122860111.067        -745.855          42.000  
E24  24939315.059   131056970.506       -1979.784          33.000  
E25  23408387.098   123011781.1701        613.914          14.000  
G01  21680193.902   113930043.415       -2449.664          36.000  
G02  23726202.779   124681913.956       -2978.768          34.000  
G03  21421233.476   112569226.9491       1286.824          36.000  
G14  20016789.153   105188801.656        -303.994          40.000  
G17  20905187.827   109857416.1411        803.236          16.000  
G19  22169629.672   116501942.981        2395.881          22.000  
G22  20926928.776   109971546.7141       1130.222          15.000  
J02  38012804.570   199758451.697         623.009          36.000  
> 2025 03 12 06 41 39.0000164  0 22                     
C07  35824341.737   186546677.133         200.450          38.000  
C09  38822439.297   202158489.724       -1868.192          24.000  
C26  24697946.980   128608583.4781       1937.233          16.000  
C29  21611149.225   112534924.3771         16.056          29.000  
C35  24542953.679   127801349.965        2264.093          24.000  
C40  36077113.547   187862938.091         134.085          40.000  
C45  22558839.353   117469624.761       -1079.818          37.000  
E10  23885259.092   125517768.556       -1129.182          40.000  
E11  23707509.145   124583733.246         334.671          37.000  
E12  25282663.689   132861179.114       -2112.069          30.000  
E16  23379696.585   122861000.415        -748.809          41.000  
E24  24939724.800   131059096.814       -1984.842          33.000  
E25  23408298.285   123011311.2461        611.717          14.000  
G01  21680688.184   113932637.788       -2453.955          37.000  
G02  23726796.893   124685036.742       -2983.578          34.000  
G03  21421022.947   112568091.368        1272.204          32.000  
G14  20016875.118   105189251.277        -309.099          40.000  
G17  20905066.936   109856763.475         793.082          32.000  
G19  22169211.387   116499992.1171       2397.383          18.000  
G22  20926750.025   109970558.9961       1131.239          15.000  
J02  38012712.759   199757971.388         621.273          34.000  
J03  38906472.622   204454775.5531       -408.183          38.000  
> 2025 03 12 06 41 39.9999553  0 22                     
C07  35824300.965   186546462.287         201.919          38.000  
C09  38822798.748   202160342.259       -1868.446          24.000  
C26  24697563.245   128606630.6341       1972.812          17.000  
C29  21611148.925   112534892.658          19.659          29.000  
C35  24542525.276   127799368.777        2254.319          23.000  
C40  36077088.664   187862789.448         136.587          41.000  
C45  22559045.910   117470690.222       -1076.809          38.000  
E10  23885474.043   125518884.306       -1130.173          40.000  
E11  23707441.392   124583386.140         334.099          36.000  
E12  25283063.312   132863275.514       -2111.806          29.000  
E16  23379838.387   122861736.991        -749.482          41.000  
E24  24940100.440   131061069.924       -1986.949          34.000  
E25  23408183.165   123010686.3461        609.344          14.000  
G01  21681154.362   113935077.128       -2449.923          38.000  
G02  23727364.400   124688005.976       -2983.063          34.000  
G03  21420782.813   112566806.347        1283.470          29.000  
G14  20016932.079   105189544.115        -305.774          40.000  
G17  20904914.042   109855960.781         789.351          45.000  
G19  22168758.101   116497579.0841       2411.152          16.000  
G22  20926544.367   109969732.3051       1130.370          11.000  
J02  38012592.842   199757339.070         616.330          33.000  
J03  38906550.268   204455176.610        -421.577          34.000  
> 2025 03 12 06 41 40.9998942  0 22                     
C07  35824258.732   186546242.205         205.875          39.000  
C09  38823160.036   202162194.831       -1869.193          24.000  
C26  24697029.652   128603914.181        1956.615          29.000  
C29  21611151.961   112534857.176          21.817          30.000  
C35  24542097.509   127797098.470        2255.651          21.000  
C40  36077061.720   187862634.584         139.678          42.000  
C45  22559248.607   117471750.004       -1075.614          38.000  
E10  23885684.834   125519994.666       -1127.161          40.000  
E11  23707376.974   124583035.531         335.549          37.000  
E12  25283465.071   132865370.514       -2109.746          31.000  
E16  23379978.428   122862467.053        -747.469          40.000  
E24  24940480.914   131063038.138       -1984.423          29.000  
E25  23408061.786   123010063.492         606.065          32.000  
G01  21681617.878   113937508.354       -2445.043          38.000  
G02  23727929.546   124690970.210       -2980.475          34.000  
G03  21420544.516   112565506.314        1288.528          29.000  
G14  20016988.477   105189832.272        -304.838          40.000  
G17  20904760.585   109855154.713         792.193          46.000  
G19  22168292.261   116495151.5331       2413.713          16.000  
G22  20926333.351   109968587.2141       1129.147          17.000  
J02  38012471.464   199756704.271         623.995          32.000  
J03  38906630.650   204455582.402        -411.108          32.000  
> 2025 03 12 06 41 41.9998331  0 22                     
C07  35824219.159   186546024.907         198.321          39.000  
C09  38823513.191   202164049.839       -1871.636          24.000  
C26  24696701.679   128602206.096        1956.018          30.000  
C29  21611160.955   112534824.775          10.274          32.000  
C35  24541668.806   127794828.371        2255.495          23.000  
C40  36077033.539   187862483.145         132.563          43.000  
C45  22559455.164   117472816.089       -1086.583          38.000  
E10  23885898.886   125521108.909       -1129.600          40.000  
E11  23707313.718   124582687.871         332.062          36.000  
E12  25283858.999   132867464.146       -2110.402          28.000  
E16  23380117.831   122863202.136        -750.711          40.000  
E24  24940852.057   131065005.700       -1983.521          27.000  
E25  23407924.181   123009471.539         682.748          30.000  
G01  21682081.357   113939940.230       -2451.693          36.000  
G02  23728494.055   124693933.553       -2981.026          34.000  
G03  21420307.680   112564476.477        1288.535          30.000  
G14  20017045.438   105190125.092        -314.558          40.000  
G17  20904607.991   109854351.153         783.311          46.000  
G19  22167834.178   116492722.564        2429.160          20.000  
G22  20926118.400   109967444.926        1103.661          24.000  
J02  38012348.549   199756064.540         624.665          29.000  
J03  38906709.196   204455983.175        -423.140          33.000  
> 2025 03 12 06 41 42.9997721  0 21                     
C07  35824208.966   186545971.016         200.943          39.000  
C09  38823901.722   202166065.154       -1885.566          23.000  
C26  24696365.012   128600397.513        1954.351          28.000  
C29  21611194.531   112534960.005          10.850          30.000  
C35  24541269.483   127792720.963        2239.242          26.000  
C40  36077036.238   187862494.250         136.103          44.000  
C45  22559694.698   117474046.515       -1086.870          36.000  
E10  23886143.517   125522386.688       -1132.468          40.000  
E11  23707278.643   124582505.827         328.464          36.000  
E12  25284292.798   132869720.769       -2110.905          25.000  
E16  23380290.811   122864102.047        -754.471          40.000  
E24  24941245.685   131067134.108       -1982.073          28.000  
E25  23407843.537   123008943.260         689.343          33.000  
G01  21682578.114   113942537.468       -2452.951          35.000  
G02  23729091.242   124697060.936       -2980.927          34.000  
G03  21420099.024   112563335.495        1285.290          30.000  
G14  20017134.176   105190584.982        -312.983          39.000  
G17  20904487.474   109853713.840         785.874          46.000  
G19  22167414.768   116490438.480        2430.466          27.000  
J02  38012259.211   199755588.496         618.716          27.000  
J03  38906821.618   204456556.115        -431.694          30.000  
> 2025 03 12 06 41 43.9997110  0 22                     
C07  35824167.145   186545753.119         203.506          38.000  
C09  38824262.223   202167934.458       -1879.447          24.000  
C26  24695999.116   128598429.059        1955.104          29.000  
C29  21611197.679   112534930.229          18.844          29.000  
C35  24540836.432   127790467.634        2239.107          27.000  
C40  36077007.308   187862341.317         139.629          42.000  
C45  22559901.105   117475114.278       -1082.305          33.000  
E10  23886355.620   125523500.359       -1128.971          39.000  
E11  23707213.438   124582160.401         331.145          36.000  
E12  25284692.272   132871814.623       -2109.424          28.000  
E16  23380430.964   122864836.457        -752.043          40.000  
E24  24941615.179   131069097.719       -1978.778          28.000  
E25  23407729.166   123008249.790         669.592          34.000  
G01  21683042.642   113944970.652       -2446.628          35.000  
G02  23729656.501   124700022.702       -2976.624          33.000  
G03  21419856.642   112562035.758        1285.402          26.000  
G14  20017191.587   105190880.307        -310.172          38.000  
G17  20904335.330   109852910.649         789.027          46.000  
G19  22166959.533   116487993.043        2431.382          26.000  
G22  20925716.528   109965372.9841       1101.571          39.000  
J02  38012138.844   199754955.779         618.533          27.000  
J03  38906903.012   204456973.748        -419.872          26.000  
> 2025 03 12 06 41 44.9996499  0 22                     
C07  35824127.610   186545537.289         203.323          38.000  
C09  38824622.910   202169800.620       -1877.999          24.000  
C26  24695630.708   128596462.435        1953.644          25.000  
C29  21611198.316   112535180.639          24.237          28.000  
C35  24540394.276   127788215.493        2247.678          25.000  
C40  36076979.464   187862189.954         139.129          42.000  
C45  22560107.400   117476181.445       -1076.466          30.000  
E10  23886569.709   125524612.990       -1127.971          40.000  
E11  23707147.521   124581815.784         331.931          36.000  
E12  25285090.434   132873910.848       -2107.938          29.000  
E16  23380573.703   122865574.297        -750.755          41.000  
