$GPRMC,063715.00,A,3959.89023018,N,11628.84035012,E,0.003,24.3,120325,7.3,W,R,S*69
$GPGGA,063715.00,3959.89023018,N,11628.84035012,E,4,30,0.6,35.4091,M,-8.1143,M,1.0,1828*7A
$GPGSV,2,1,07,01,45,048,45,02,26,049,40,03,42,106,42,14,80,224,44,1*6F
$GPGSV,2,2,07,19,34,288,36,17,62,317,45,22,66,303,43,1*5A
$GPGSV,2,1,07,01,45,048,37,02,26,049,31,03,42,106,28,14,80,224,44,4*65
$GPGSV,2,2,07,19,34,288,30,17,62,317,38,22,66,303,35,4*52
$GPGSV,1,1,03,01,45,048,35,03,42,106,35,14,80,224,41,8*5C
$GLGSV,2,1,06,82,16,046,39,73,66,225,46,74,44,316,39,84,43,262,31,1*79
$GLGSV,2,2,06,67,13,062,34,80,21,169,34,1*7C
$GLGSV,1,1,03,82,16,046,38,73,66,225,40,84,43,262,40,3*41
$GBGSV,3,1,12,07,80,339,41,29,73,332,42,10,68,305,40,30,33,060,31,1*75
$GBGSV,3,2,12,40,71,028,44,45,55,245,44,09,26,216,28,01,35,140,35,1*78
$GBGSV,3,3,12,35,23,262,39,03,42,189,37,26,24,312,33,59,35,147,32,1*74
$GBGSV,3,1,12,07,80,339,35,29,73,332,37,10,68,305,33,30,33,060,25,8*7C
$GBGSV,3,2,12,40,71,028,38,45,55,245,42,09,26,216,20,01,35,140,32,8*73
$GBGSV,3,3,12,35,23,262,31,03,42,189,31,26,24,312,38,59,35,147,33,8*79
$GBGSV,2,1,05,07,80,339,38,10,68,305,38,09,26,216,23,01,35,140,36,B*02
$GBGSV,2,2,05,03,42,189,35,B*33
$GAGSV,2,1,07,10,67,045,38,11,81,219,34,12,41,044,35,16,77,159,38,1*7E
$GAGSV,2,2,07,24,49,142,37,25,73,299,35,02,20,314,35,1*4D
$GAGSV,2,1,07,10,67,045,40,11,81,219,34,12,41,044,31,16,77,159,39,2*77
$GAGSV,2,2,07,24,49,142,38,25,73,299,36,02,20,314,38,2*4F
$GAGSV,2,1,07,10,67,045,46,11,81,219,39,12,41,044,36,16,77,159,46,7*76
$GAGSV,2,2,07,24,49,142,40,25,73,299,43,02,20,314,33,7*4C
$GNGGA,063716.00,3959.89022990,N,11628.84034861,E,4,31,0.6,35.3913,M,-8.1143,M,1.0,1828*79
$GNRMC,063716.00,D,3959.89022990,N,11628.84034861,E,0.007,72.9,120325,7.3,W,R,S*62
$GPGSV,2,1,07,01,45,048,45,02,26,049,40,03,42,106,42,14,80,224,44,1*6F
$GPGSV,2,2,07,19,34,288,36,17,62,317,45,22,66,303,43,1*5A
$GPGSV,2,1,07,01,45,048,37,02,26,049,31,03,42,106,27,14,80,224,43,4*6D
$GPGSV,2,2,07,19,34,288,29,17,62,317,38,22,66,303,34,4*5B
$GPGSV,1,1,03,01,45,048,35,03,42,106,35,14,80,224,41,8*5C
$GLGSV,2,1,06,82,16,046,39,73,66,225,46,74,44,316,40,84,43,262,32,1*74
$GLGSV,2,2,06,67,13,062,34,80,21,169,32,1*7A
$GLGSV,1,1,03,82,16,046,38,73,66,225,40,84,43,262,40,3*41
$GBGSV,3,1,12,07,80,339,41,29,73,332,42,10,68,305,40,30,33,060,31,1*75
$GBGSV,3,2,12,40,71,028,44,45,55,245,44,09,26,216,28,01,35,140,35,1*78
$GBGSV,3,3,12,35,23,262,39,03,42,189,37,26,24,312,33,59,35,147,32,1*74
$GBGSV,3,1,12,07,80,339,35,29,73,332,37,10,68,305,33,30,33,060,25,8*7C
$GBGSV,3,2,12,40,71,028,38,45,55,245,42,09,26,216,20,01,35,140,32,8*73
$GBGSV,3,3,12,35,23,262,32,03,42,189,30,26,24,312,38,59,35,147,33,8*7B
$GBGSV,2,1,05,07,80,339,38,10,68,305,37,09,26,216,23,01,35,140,36,B*0D
$GBGSV,2,2,05,03,42,189,35,B*33
$GAGSV,2,1,07,10,67,045,38,11,81,219,34,12,41,044,36,16,77,159,38,1*7D
$GAGSV,2,2,07,24,49,142,37,25,73,299,35,02,20,314,35,1*4D
$GAGSV,2,1,07,10,67,045,40,11,81,219,35,12,41,044,32,16,77,159,39,2*75
$GAGSV,2,2,07,24,49,142,38,25,73,299,36,02,20,314,38,2*4F
$GAGSV,2,1,07,10,67,045,46,11,81,219,39,12,41,044,37,16,77,159,46,7*77
$GAGSV,2,2,07,24,49,142,41,25,73,299,43,02,20,314,33,7*4D
$GNGGA,063717.00,3959.89023077,N,11628.84035035,E,4,31,0.6,35.3953,M,-8.1143,M,1.0,1828*75
$GNRMC,063717.00,D,3959.89023077,N,11628.84035035,E,0.009,57.2,120325,7.3,W,R,S*68
$GPGSV,2,1,07,01,45,048,45,02,26,049,40,03,42,106,42,14,80,224,44,1*6F
$GPGSV,2,2,07,19,34,288,36,17,62,317,45,22,66,303,43,1*5A
$GPGSV,2,1,07,01,45,048,37,02,26,049,32,03,42,106,26,14,80,224,43,4*6F
$GPGSV,2,2,07,19,34,288,30,17,62,317,38,22,66,303,35,4*52
$GPGSV,1,1,03,01,45,048,35,03,42,106,34,14,80,224,41,8*5D
$GLGSV,2,1,06,82,16,046,40,73,66,225,46,74,44,316,40,84,43,262,33,1*7B
$GLGSV,2,2,06,67,13,062,33,80,21,169,33,1*7C
$GLGSV,1,1,03,82,16,046,37,73,66,225,40,84,43,262,39,3*40
$GBGSV,3,1,12,07,80,339,41,29,73,332,42,10,68,305,40,30,33,060,32,1*76
$GBGSV,3,2,12,40,71,028,44,45,55,245,45,09,26,216,28,01,35,140,35,1*79
$GBGSV,3,3,12,35,23,262,39,03,42,189,37,26,24,312,34,59,35,147,32,1*73
$GBGSV,3,1,12,07,80,339,35,29,73,332,37,10,68,305,33,30,33,060,25,8*7C
$GBGSV,3,2,12,40,71,028,38,45,55,245,42,09,26,216,20,01,35,140,32,8*73
$GBGSV,3,3,12,35,23,262,31,03,42,189,31,26,24,312,38,59,35,147,33,8*79
$GBGSV,2,1,05,07,80,339,38,10,68,305,37,09,26,216,23,01,35,140,36,B*0D
$GBGSV,2,2,05,03,42,189,35,B*33
$GAGSV,2,1,07,10,67,045,38,11,81,219,34,12,41,044,36,16,77,159,38,1*7D
$GAGSV,2,2,07,24,49,142,36,25,73,299,35,02,20,314,35,1*4C
$GAGSV,2,1,07,10,67,045,40,11,81,219,34,12,41,044,31,16,77,159,39,2*77
$GAGSV,2,2,07,24,49,142,38,25,73,299,36,02,20,314,38,2*4F
$GAGSV,2,1,07,10,67,045,46,11,81,219,39,12,41,044,36,16,77,159,45,7*75
$GAGSV,2,2,07,24,49,142,41,25,73,299,43,02,20,314,33,7*4D
$GNGGA,063718.00,3959.89022938,N,11628.84034907,E,4,30,0.6,35.4066,M,-8.1143,M,1.0,1828*79
$GNRMC,063718.00,D,3959.89022938,N,11628.84034907,E,0.005,115.8,120325,7.3,W,R,S*5C
$GPGSV,2,1,07,01,45,048,45,02,26,049,40,03,42,106,42,14,80,224,44,1*6F
$GPGSV,2,2,07,19,34,288,36,17,62,317,45,22,66,303,43,1*5A
$GPGSV,2,1,07,01,45,048,37,02,26,049,31,03,42,106,22,14,80,224,43,4*68
$GPGSV,2,2,07,19,34,288,29,17,62,317,38,22,66,303,35,4*5A
$GPGSV,1,1,03,01,45,048,35,03,42,106,34,14,80,224,41,8*5D
$GLGSV,2,1,06,82,16,046,40,73,66,225,46,74,44,316,40,84,43,262,34,1*7C
$GLGSV,2,2,06,67,13,062,31,80,21,169,34,1*79
$GLGSV,1,1,03,82,16,046,37,73,66,225,41,84,43,262,39,3*41
$GBGSV,3,1,12,07,80,339,41,29,73,332,42,10,68,305,40,30,33,060,32,1*76
$GBGSV,3,2,12,40,71,028,44,45,55,245,45,09,26,216,29,01,35,140,35,1*78
$GBGSV,3,3,12,35,23,262,39,03,42,189,37,26,24,312,34,59,35,147,32,1*73
$GBGSV,3,1,11,07,80,339,35,29,73,332,37,10,68,305,33,30,33,060,25,8*7F
$GBGSV,3,2,11,40,71,028,38,45,55,245,42,09,26,216,20,01,35,140,32,8*70
$GBGSV,3,3,11,35,23,262,31,26,24,312,38,59,35,147,33,8*4D
$GBGSV,2,1,05,07,80,339,37,10,68,305,37,09,26,216,23,01,35,140,35,B*01
$GBGSV,2,2,05,03,42,189,35,B*33
$GAGSV,2,1,07,10,67,045,38,11,81,219,34,12,41,044,35,16,77,159,38,1*7E
$GAGSV,2,2,07,24,49,142,36,25,73,299,35,02,20,314,35,1*4C
$GAGSV,2,1,07,10,67,045,40,11,81,219,34,12,41,044,32,16,77,159,39,2*74
$GAGSV,2,2,07,24,49,142,38,25,73,299,35,02,20,314,37,2*43
$GAGSV,2,1,07,10,67,045,46,11,81,219,39,12,41,044,37,16,77,159,45,7*74
$GAGSV,2,2,07,24,49,142,41,25,73,299,43,02,20,314,33,7*4D
$GNGGA,063719.00,3959.89023017,N,11628.84034718,E,4,30,0.6,35.4021,M,-8.1143,M,1.0,1828*7E
$GNRMC,063719.00,D,3959.89023017,N,11628.84034718,E,0.004,123.7,120325,7.3,W,R,S*53
$GPGSV,2,1,07,01,45,048,45,02,26,049,40,03,42,106,42,14,80,224,44,1*6F
$GPGSV,2,2,07,19,34,288,37,17,62,317,45,22,66,303,43,1*5B
$GPGSV,2,1,07,01,45,048,37,02,26,049,31,03,42,106,22,14,80,224,43,4*68
$GPGSV,2,2,07,19,34,288,29,17,62,317,38,22,66,303,35,4*5A
$GPGSV,1,1,03,01,45,048,35,03,42,106,34,14,80,224,41,8*5D
$GLGSV,2,1,06,82,16,046,40,73,66,225,46,74,44,316,41,84,43,262,34,1*7D
$GLGSV,2,2,06,67,13,062,31,80,21,169,34,1*79
$GLGSV,1,1,03,82,16,046,36,73,66,225,42,84,43,262,39,3*43
$GBGSV,3,1,12,07,80,339,42,29,73,332,42,10,68,305,40,30,33,060,32,1*75
$GBGSV,3,2,12,40,71,028,44,45,55,245,45,09,26,216,28,01,35,140,35,1*79
$GBGSV,3,3,12,35,23,262,40,03,42,189,37,26,24,312,35,59,35,147,32,1*7C
$GBGSV,3,1,11,07,80,339,35,29,73,332,37,10,68,305,33,30,33,060,25,8*7F
$GBGSV,3,2,11,40,71,028,38,45,55,245,42,09,26,216,20,01,35,140,32,8*70
$GBGSV,3,3,11,35,23,262,31,26,24,312,38,59,35,147,33,8*4D
$GBGSV,2,1,05,07,80,339,37,10,68,305,37,09,26,216,22,01,35,140,36,B*03
$GBGSV,2,2,05,03,42,189,36,B*30
$GAGSV,2,1,07,10,67,045,38,11,81,219,33,12,41,044,35,16,77,159,38,1*79
$GAGSV,2,2,07,24,49,142,37,25,73,299,35,02,20,314,35,1*4D
$GAGSV,2,1,07,10,67,045,40,11,81,219,34,12,41,044,32,16,77,159,39,2*74
$GAGSV,2,2,07,24,49,142,38,25,73,299,35,02,20,314,38,2*4C
$GAGSV,2,1,07,10,67,045,46,11,81,219,39,12,41,044,37,16,77,159,45,7*74
$GAGSV,2,2,07,24,49,142,41,25,73,299,43,02,20,314,33,7*4D
$GNGGA,063720.00,3959.89023003,N,11628.84035214,E,4,30,0.6,35.4045,M,-8.1143,M,1.0,1828*7B
$GNRMC,063720.00,D,3959.89023003,N,11628.84035214,E,0.003,87.7,120325,7.3,W,R,S*6C
$GPGSV,2,1,07,01,45,048,46,02,26,049,40,03,42,106,42,14,80,224,44,1*6C
$GPGSV,2,2,07,19,34,288,37,17,62,317,45,22,66,303,43,1*5B
$GPGSV,2,1,07,01,45,048,37,02,26,049,31,03,42,106,22,14,80,224,42,4*69
$GPGSV,2,2,07,19,34,288,30,17,62,317,38,22,66,303,35,4*52
$GPGSV,1,1,03,01,45,048,35,03,42,106,34,14,80,224,40,8*5C
$GLGSV,2,1,06,82,16,046,41,73,66,225,47,74,44,316,41,84,43,262,34,1*7D
$GLGSV,2,2,06,67,13,062,32,80,21,169,33,1*7D
$GLGSV,1,1,03,82,16,046,36,73,66,225,42,84,43,262,38,3*42
$GBGSV,3,1,12,07,80,339,41,29,73,332,42,10,68,305,40,30,33,060,32,1*76
$GBGSV,3,2,12,40,71,028,44,45,55,245,45,09,26,216,28,01,35,140,35,1*79
$GBGSV,3,3,12,35,23,262,40,03,42,189,37,26,24,312,34,59,35,147,32,1*7D
$GBGSV,3,1,11,07,80,339,35,29,73,332,37,10,68,305,33,30,33,060,24,8*7E
$GBGSV,3,2,11,40,71,028,38,45,55,245,42,09,26,216,20,01,35,140,32,8*70
$GBGSV,3,3,11,35,23,262,32,26,24,312,38,59,35,147,33,8*4E
$GBGSV,2,1,05,07,80,339,37,10,68,305,37,09,26,216,22,01,35,140,35,B*00
$GBGSV,2,2,05,03,42,189,35,B*33
$GAGSV,2,1,07,10,67,045,38,11,81,219,34,12,41,044,35,16,77,159,38,1*7E
$GAGSV,2,2,07,24,49,142,37,25,73,299,35,02,20,314,35,1*4D
$GAGSV,2,1,07,10,67,045,40,11,81,219,34,12,41,044,31,16,77,159,39,2*77
$GAGSV,2,2,07,24,49,142,38,25,73,299,35,02,20,314,38,2*4C
$GAGSV,2,1,07,10,67,045,46,11,81,219,40,12,41,044,37,16,77,159,45,7*7A
$GAGSV,2,2,07,24,49,142,42,25,73,299,43,02,20,314,33,7*4E
$GNGGA,063721.00,3959.89023338,N,11628.84035032,E,4,30,0.6,35.4042,M,-8.1143,M,1.0,1828*70
$GNRMC,063721.00,D,3959.89023338,N,11628.84035032,E,0.005,78.4,120325,7.3,W,R,S*65
$GPGSV,2,1,07,01,45,048,46,02,26,049,40,03,42,106,42,14,80,224,44,1*6C
$GPGSV,2,2,07,19,34,288,38,17,62,317,45,22,66,303,43,1*54
$GPGSV,2,1,07,01,45,048,37,02,26,049,31,03,42,106,22,14,80,224,43,4*68
$GPGSV,2,2,07,19,34,288,31,17,62,317,38,22,66,303,35,4*53
$GPGSV,1,1,03,01,45,048,35,03,42,106,34,14,80,224,40,8*5C
$GLGSV,2,1,06,82,16,046,40,73,66,225,47,74,44,316,41,84,43,262,34,1*7C
$GLGSV,2,2,06,67,13,062,33,80,21,169,34,1*7B
$GLGSV,1,1,03,82,16,046,36,73,66,225,43,84,43,262,39,3*42
$GBGSV,3,1,12,07,80,339,41,29,73,332,42,10,68,305,39,30,33,060,32,1*78
$GBGSV,3,2,12,40,71,028,44,45,55,245,45,09,26,216,28,01,35,140,35,1*79
$GBGSV,3,3,12,35,23,262,40,03,42,189,37,26,24,312,34,59,35,147,32,1*7D
$GBGSV,3,1,11,07,80,339,35,29,73,332,37,10,68,305,33,30,33,060,26,8*7C
$GBGSV,3,2,11,40,71,028,38,45,55,245,42,09,26,216,20,01,35,140,32,8*70
$GBGSV,3,3,11,35,23,262,32,26,24,312,38,59,35,147,33,8*4E
$GBGSV,2,1,05,07,80,339,37,10,68,305,37,09,26,216,22,01,35,140,36,B*03
$GBGSV,2,2,05,03,42,189,35,B*33
$GAGSV,2,1,07,10,67,045,38,11,82,219,34,12,41,044,36,16,77,159,38,1*7E
$GAGSV,2,2,07,24,49,142,37,25,73,299,35,02,20,314,35,1*4D
$GAGSV,2,1,07,10,67,045,40,11,82,219,35,12,41,044,31,16,77,159,39,2*75
$GAGSV,2,2,07,24,49,142,39,25,73,299,36,02,20,314,38,2*4E
$GAGSV,2,1,07,10,67,045,46,11,82,219,40,12,41,044,37,16,77,159,45,7*79
$GAGSV,2,2,07,24,49,142,42,25,73,299,43,02,20,314,33,7*4E
$GNGGA,063722.00,3959.89022954,N,11628.84034937,E,4,30,0.6,35.4068,M,-8.1143,M,1.0,1828*77
$GNRMC,063722.00,D,3959.89022954,N,11628.84034937,E,0.005,75.1,120325,7.3,W,R,S*62
$GPGSV,2,1,07,01,45,048,46,02,26,049,41,03,42,106,42,14,80,224,45,1*6C
$GPGSV,2,2,07,19,35,288,38,17,62,317,45,22,66,303,43,1*55
$GPGSV,2,1,07,01,45,048,37,02,26,049,31,03,42,106,22,14,80,224,42,4*69
$GPGSV,2,2,07,19,35,288,30,17,62,317,38,22,66,303,35,4*53
$GPGSV,1,1,03,01,45,048,35,03,42,106,35,14,80,224,41,8*5C
$GLGSV,2,1,06,82,16,046,39,73,66,225,46,74,45,316,41,84,43,262,34,1*72
$GLGSV,2,2,06,67,13,062,31,80,21,169,35,1*78
$GLGSV,1,1,03,82,16,046,35,73,66,225,44,84,43,262,39,3*46
$GBGSV,3,1,12,07,80,339,41,29,73,332,42,10,68,305,40,30,33,060,33,1*77
$GBGSV,3,2,12,40,71,028,44,45,55,245,45,09,26,216,28,01,35,140,36,1*7A
$GBGSV,3,3,12,35,23,262,40,03,42,189,37,26,24,312,35,59,35,147,33,1*7D
$GBGSV,3,1,11,07,80,339,35,29,73,332,37,10,68,305,33,30,33,060,25,8*7F
$GBGSV,3,2,11,40,71,028,38,45,55,245,42,09,26,216,20,01,35,140,32,8*70
$GBGSV,3,3,11,35,23,262,32,26,24,312,38,59,35,147,33,8*4E
$GBGSV,2,1,05,07,80,339,37,10,68,305,37,09,26,216,22,01,35,140,35,B*00
$GBGSV,2,2,05,03,42,189,35,B*33
$GAGSV,2,1,07,10,67,045,38,11,82,219,34,12,41,044,36,16,77,159,38,1*7E
$GAGSV,2,2,07,24,49,142,37,25,73,299,35,02,20,314,35,1*4D
$GAGSV,2,1,07,10,67,045,40,11,82,219,35,12,41,044,31,16,77,159,39,2*75
$GAGSV,2,2,07,24,49,142,38,25,73,299,36,02,20,314,38,2*4F
$GAGSV,2,1,07,10,67,045,46,11,82,219,40,12,41,044,37,16,77,159,45,7*79
$GAGSV,2,2,07,24,49,142,42,25,73,299,43,02,20,314,33,7*4E
$GNGGA,063723.00,3959.89022912,N,11628.84034919,E,4,31,0.6,35.3998,M,-8.1143,M,1.0,1828*78
$GNRMC,063723.00,D,3959.89022912,N,11628.84034919,E,0.004,132.2,120325,7.3,W,R,S*5D
$GPGSV,2,1,07,01,45,048,45,02,26,049,41,03,42,106,42,14,80,224,45,1*6F
$GPGSV,2,2,07,19,35,288,38,17,62,317,45,22,66,303,43,1*55
$GPGSV,2,1,07,01,45,048,37,02,26,049,31,03,42,106,22,14,80,224,43,4*68
$GPGSV,2,2,07,19,35,288,30,17,62,317,39,22,66,303,35,4*52
$GPGSV,1,1,03,01,45,048,35,03,42,106,35,14,80,224,41,8*5C
$GLGSV,2,1,06,82,16,046,38,73,66,225,46,74,45,316,40,84,43,262,34,1*72
$GLGSV,2,2,06,67,13,062,30,80,21,169,35,1*79
$GLGSV,1,1,03,82,16,046,35,73,66,225,44,84,43,262,38,3*47
$GBGSV,3,1,12,07,80,339,41,29,73,332,42,10,68,305,40,30,33,060,32,1*76
$GBGSV,3,2,12,40,71,028,44,45,55,245,45,09,26,216,27,01,35,140,36,1*75
$GBGSV,3,3,12,35,23,262,40,03,42,189,37,26,24,312,35,59,35,147,33,1*7D
$GBGSV,3,1,11,07,80,339,35,29,73,332,37,10,68,305,34,30,33,060,25,8*78
$GBGSV,3,2,11,40,71,028,38,45,55,245,41,09,26,216,21,01,35,140,32,8*72
$GBGSV,3,3,11,35,23,262,31,26,24,312,38,59,35,147,33,8*4D
$GBGSV,2,1,05,07,80,339,37,10,68,305,37,09,26,216,22,01,35,140,35,B*00
$GBGSV,2,2,05,03,42,189,35,B*33
$GAGSV,2,1,07,10,67,045,38,11,82,220,34,12,41,044,36,16,77,159,38,1*74
$GAGSV,2,2,07,24,49,142,36,25,73,299,35,02,20,314,35,1*4C
$GAGSV,2,1,07,10,67,045,40,11,82,220,35,12,41,044,31,16,77,159,39,2*7F
$GAGSV,2,2,07,24,49,142,38,25,73,299,36,02,20,314,38,2*4F
$GAGSV,2,1,07,10,67,045,46,11,82,220,40,12,41,044,37,16,77,159,45,7*73
$GAGSV,2,2,07,24,49,142,43,25,73,299,43,02,20,314,33,7*4F
$GNGGA,063724.00,3959.89023116,N,11628.84034657,E,4,29,0.6,35.3993,M,-8.1143,M,1.0,1828*75
$GNRMC,063724.00,D,3959.89023116,N,11628.84034657,E,0.001,128.6,120325,7.3,W,R,S*58
$GPGSV,2,1,07,01,45,048,45,02,26,049,41,03,42,106,42,14,80,224,45,1*6F
$GPGSV,2,2,07,19,35,288,38,17,62,317,45,22,66,303,43,1*55
$GPGSV,2,1,07,01,45,048,37,02,26,049,32,03,42,106,25,14,80,224,42,4*6D
$GPGSV,2,2,07,19,35,288,30,17,62,317,39,22,66,303,35,4*52
$GPGSV,1,1,03,01,45,048,35,03,42,106,35,14,80,224,40,8*5D
$GLGSV,2,1,06,82,16,046,39,73,66,225,46,74,45,316,40,84,43,262,34,1*73
$GLGSV,2,2,06,67,13,062,28,80,21,169,35,1*70
$GLGSV,1,1,03,82,16,046,35,73,66,225,44,84,43,262,38,3*47
$GBGSV,3,1,12,07,80,339,41,29,73,332,42,10,68,305,39,30,33,060,32,1*78
$GBGSV,3,2,12,40,71,028,44,45,55,245,45,09,26,216,27,01,35,140,36,1*75
$GBGSV,3,3,12,35,23,262,40,03,42,189,37,26,24,312,36,59,35,147,33,1*7E
$GBGSV,3,1,11,07,80,339,35,29,73,332,38,10,68,305,34,30,33,060,25,8*77
$GBGSV,3,2,11,40,71,028,38,45,55,245,41,09,26,216,21,01,35,140,32,8*72
$GBGSV,3,3,11,35,23,262,31,26,24,312,38,59,35,147,33,8*4D
$GBGSV,2,1,05,07,80,339,37,10,68,305,37,09,26,216,22,01,35,140,35,B*00
$GBGSV,2,2,05,03,42,189,35,B*33
$GAGSV,2,1,07,10,67,045,38,11,82,220,34,12,41,044,36,16,77,159,38,1*74
$GAGSV,2,2,07,24,49,142,36,25,73,299,35,02,20,314,35,1*4C
$GAGSV,2,1,07,10,67,045,40,11,82,220,35,12,41,044,32,16,77,159,39,2*7C
$GAGSV,2,2,07,24,49,142,38,25,73,299,36,02,20,314,38,2*4F
$GAGSV,2,1,07,10,67,045,46,11,82,220,40,12,41,044,37,16,77,159,45,7*73
$GAGSV,2,2,07,24,49,142,43,25,73,299,43,02,20,314,33,7*4F
$GNGGA,063725.00,3959.89023173,N,11628.84035013,E,4,30,0.6,35.3967,M,-8.1143,M,1.0,1828*73
$GNRMC,063725.00,D,3959.89023173,N,11628.84035013,E,0.002,69.7,120325,7.3,W,R,S*6B
$GPGSV,2,1,07,01,45,048,45,02,26,049,41,03,42,106,42,14,80,224,45,1*6F
$GPGSV,2,2,07,19,35,288,37,17,62,317,45,22,66,302,43,1*5B
$GPGSV,2,1,07,01,45,048,37,02,26,049,32,03,42,106,26,14,80,224,42,4*6E
$GPGSV,2,2,07,19,35,288,29,17,62,317,39,22,66,302,35,4*5B
$GPGSV,1,1,03,01,45,048,34,03,42,106,34,14,80,224,40,8*5D
$GLGSV,2,1,06,82,16,046,39,73,66,225,46,74,45,316,40,84,43,262,34,1*73
$GLGSV,2,2,06,67,13,062,26,80,21,169,33,1*78
$GLGSV,1,1,03,82,16,046,35,73,66,225,44,84,43,262,39,3*46
$GBGSV,3,1,12,07,80,339,42,29,73,332,42,10,68,305,40,30,33,060,32,1*75
$GBGSV,3,2,12,40,71,028,44,45,55,245,45,09,26,216,27,01,35,140,36,1*75
$GBGSV,3,3,12,35,23,262,41,03,42,189,37,26,24,312,35,59,35,147,33,1*7C
$GBGSV,3,1,11,07,80,339,35,29,73,332,37,10,68,305,33,30,33,060,25,8*7F
$GBGSV,3,2,11,40,71,028,38,45,55,245,41,09,26,216,21,01,35,140,32,8*72
$GBGSV,3,3,11,35,23,262,32,26,24,312,38,59,35,147,33,8*4E
$GBGSV,2,1,05,07,80,339,37,10,68,305,37,09,26,216,22,01,35,140,36,B*03
$GBGSV,2,2,05,03,42,189,35,B*33
$GAGSV,2,1,07,10,67,045,38,11,82,220,33,12,41,044,35,16,77,159,38,1*70
$GAGSV,2,2,07,24,49,142,36,25,73,299,35,02,20,314,35,1*4C
$GAGSV,2,1,07,10,67,045,40,11,82,220,35,12,41,044,32,16,77,159,39,2*7C
$GAGSV,2,2,07,24,49,142,38,25,73,299,36,02,20,314,38,2*4F
$GAGSV,2,1,07,10,67,045,46,11,82,220,41,12,41,044,37,16,77,159,45,7*72
$GAGSV,2,2,07,24,49,142,43,25,73,299,43,02,20,314,33,7*4F
$GNGGA,063726.00,3959.89023007,N,11628.84034737,E,4,30,0.6,35.4047,M,-8.1143,M,1.0,1828*7E
$GNRMC,063726.00,D,3959.89023007,N,11628.84034737,E,0.001,320.1,120325,7.3,W,R,S*51
$GPGSV,2,1,07,01,45,048,45,02,26,049,41,03,42,106,43,14,80,224,45,1*6E
$GPGSV,2,2,07,19,35,288,37,17,62,317,46,22,66,302,43,1*58
$GPGSV,2,1,07,01,45,048,36,02,26,049,31,03,42,106,25,14,80,224,42,4*6F
$GPGSV,2,2,07,19,35,288,30,17,62,317,38,22,66,302,35,4*52
$GPGSV,1,1,03,01,45,048,34,03,42,106,34,14,80,224,40,8*5D
$GLGSV,2,1,06,82,16,046,39,73,66,225,46,74,45,316,40,84,43,262,33,1*74
$GLGSV,2,2,06,67,13,062,28,80,21,169,34,1*71
$GLGSV,1,1,03,82,16,046,36,73,66,225,43,84,43,262,39,3*42
$GBGSV,3,1,12,07,80,339,42,29,73,332,42,10,68,305,40,30,33,060,32,1*75
$GBGSV,3,2,12,40,71,028,44,45,55,245,45,09,26,216,27,01,35,140,36,1*75
$GBGSV,3,3,12,35,24,262,41,03,42,189,37,26,24,312,35,59,35,147,33,1*7B
$GBGSV,3,1,11,07,80,339,35,29,73,332,37,10,68,305,33,30,33,060,25,8*7F
$GBGSV,3,2,11,40,71,028,38,45,55,245,41,09,26,216,21,01,35,140,33,8*73
$GBGSV,3,3,11,35,24,262,32,26,24,312,38,59,35,147,33,8*49
$GBGSV,2,1,05,07,80,339,37,10,68,305,37,09,26,216,23,01,35,140,35,B*01
$GBGSV,2,2,05,03,42,189,35,B*33
$GAGSV,2,1,07,10,67,045,38,11,82,220,33,12,41,044,35,16,77,159,38,1*70
$GAGSV,2,2,07,24,49,142,36,25,73,299,35,02,20,314,35,1*4C
$GAGSV,2,1,07,10,67,045,40,11,82,220,35,12,41,044,31,16,77,159,39,2*7F
$GAGSV,2,2,07,24,49,142,38,25,73,299,36,02,20,314,38,2*4F
$GAGSV,2,1,07,10,67,045,47,11,82,220,41,12,41,044,37,16,77,159,45,7*73
$GAGSV,2,2,07,24,49,142,43,25,73,299,44,02,20,314,32,7*49
$GNGGA,063727.00,3959.89022942,N,11628.84034907,E,4,30,0.6,35.3967,M,-8.1143,M,1.0,1828*77
$GNRMC,063727.00,D,3959.89022942,N,11628.84034907,E,0.001,27.2,120325,7.3,W,R,S*63
$GPGSV,2,1,07,01,45,048,45,02,26,049,41,03,42,106,43,14,80,224,45,1*6E
$GPGSV,2,2,07,19,35,288,37,17,62,317,46,22,66,302,43,1*58
$GPGSV,2,1,07,01,45,048,37,02,26,049,31,03,42,106,27,14,80,224,42,4*6C
$GPGSV,2,2,07,19,35,288,30,17,62,317,39,22,66,302,35,4*53
$GPGSV,1,1,03,01,45,048,34,03,42,106,34,14,80,224,40,8*5D
$GLGSV,2,1,06,82,16,046,39,73,66,225,47,74,45,316,40,84,43,262,34,1*72
$GLGSV,2,2,06,67,13,062,31,80,21,169,36,1*7B
$GLGSV,1,1,03,82,16,046,36,73,66,225,43,84,43,262,40,3*4C
$GBGSV,3,1,12,07,80,339,42,29,73,332,42,10,68,305,40,30,33,060,33,1*74
$GBGSV,3,2,12,40,71,028,44,45,55,245,45,09,26,216,27,01,35,140,36,1*75
$GBGSV,3,3,12,35,24,262,41,03,42,189,37,26,24,312,35,59,35,147,33,1*7B
$GBGSV,3,1,11,07,80,339,35,29,73,332,37,10,68,305,33,30,33,060,24,8*7E
$GBGSV,3,2,11,40,71,028,39,45,55,245,41,09,26,216,21,01,35,140,33,8*72
$GBGSV,3,3,11,35,24,262,32,26,24,312,38,59,35,147,33,8*49
$GBGSV,2,1,05,07,80,339,38,10,68,305,37,09,26,216,23,01,35,140,36,B*0D
$GBGSV,2,2,05,03,42,189,35,B*33
$GAGSV,2,1,07,10,67,045,38,11,82,220,33,12,41,044,36,16,77,159,38,1*73
$GAGSV,2,2,07,24,49,142,36,25,73,299,35,02,20,314,35,1*4C
$GAGSV,2,1,07,10,67,045,40,11,82,220,35,12,41,044,32,16,77,159,39,2*7C
$GAGSV,2,2,07,24,49,142,38,25,73,299,36,02,20,314,38,2*4F
$GAGSV,2,1,07,10,67,045,47,11,82,220,41,12,41,044,37,16,77,159,45,7*73
$GAGSV,2,2,07,24,49,142,43,25,73,299,44,02,20,314,33,7*48
$GNGGA,063728.00,3959.89023094,N,11628.84035021,E,4,31,0.6,35.4040,M,-8.1143,M,1.0,1828*7D
$GNRMC,063728.00,D,3959.89023094,N,11628.84035021,E,0.002,273.9,120325,7.3,W,R,S*58
$GPGSV,2,1,07,01,45,048,45,02,26,049,41,03,42,106,43,14,80,224,45,1*6E
$GPGSV,2,2,07,19,35,288,37,17,62,317,46,22,66,302,43,1*58
$GPGSV,2,1,07,01,45,048,36,02,26,049,31,03,42,106,27,14,80,224,42,4*6D
$GPGSV,2,2,07,19,35,288,28,17,62,317,39,22,66,302,34,4*5B
$GPGSV,1,1,03,01,45,048,35,03,42,106,34,14,80,224,40,8*5C
$GLGSV,2,1,06,82,16,046,40,73,66,225,48,74,45,316,40,84,43,262,34,1*73
$GLGSV,2,2,06,67,13,062,32,80,21,169,38,1*76
$GLGSV,1,1,03,82,16,046,37,73,66,225,42,84,43,262,40,3*4C
$GBGSV,3,1,12,07,80,339,42,29,73,332,42,10,68,305,40,30,33,060,32,1*75
$GBGSV,3,2,12,40,71,028,44,45,55,245,46,09,26,216,28,01,35,140,36,1*79
$GBGSV,3,3,12,35,24,262,41,03,42,189,37,26,24,312,35,59,35,147,34,1*7C
$GBGSV,3,1,12,07,80,339,35,29,73,332,37,10,68,305,34,30,33,060,25,8*7B
$GBGSV,3,2,12,40,71,028,39,45,55,245,41,09,26,216,20,01,35,140,33,8*70
$GBGSV,3,3,12,35,24,262,32,03,42,189,30,26,24,312,38,59,35,147,33,8*7C
$GBGSV,2,1,05,07,80,339,38,10,68,305,37,09,26,216,22,01,35,140,36,B*0C
$GBGSV,2,2,05,03,42,189,35,B*33
$GAGSV,2,1,07,10,67,045,38,11,82,220,33,12,41,044,36,16,77,159,38,1*73
$GAGSV,2,2,07,24,49,142,36,25,73,299,36,02,20,314,36,1*4C
$GAGSV,2,1,07,10,67,045,40,11,82,220,34,12,41,044,32,16,77,159,39,2*7D
$GAGSV,2,2,07,24,49,142,38,25,73,299,36,02,20,314,38,2*4F
$GAGSV,2,1,07,10,67,045,46,11,82,220,41,12,41,044,38,16,77,159,45,7*7D
$GAGSV,2,2,07,24,49,142,43,25,73,299,44,02,20,314,32,7*49
$GNGGA,063729.00,3959.89022878,N,11628.84034712,E,4,31,0.6,35.3998,M,-8.1143,M,2.0,1828*79
$GNRMC,063729.00,D,3959.89022878,N,11628.84034712,E,0.001,149.4,120325,7.3,W,R,S*50
$GPGSV,2,1,07,01,45,048,45,02,26,049,41,03,42,106,43,14,80,224,45,1*6E
$GPGSV,2,2,07,19,35,288,36,17,62,317,46,22,66,302,43,1*59
$GPGSV,2,1,07,01,45,048,37,02,26,049,32,03,42,106,27,14,80,224,42,4*6F
$GPGSV,2,2,07,19,35,288,29,17,62,317,39,22,66,302,35,4*5B
$GPGSV,1,1,03,01,45,048,34,03,42,106,34,14,80,224,40,8*5D
$GLGSV,2,1,06,82,16,046,40,73,66,225,48,74,45,316,40,84,43,262,34,1*73
$GLGSV,2,2,06,67,13,062,31,80,21,169,38,1*75
$GLGSV,1,1,03,82,16,046,37,73,66,225,41,84,43,262,40,3*4F
$GBGSV,3,1,12,07,80,339,42,29,73,332,42,10,68,305,40,30,33,060,32,1*75
$GBGSV,3,2,12,40,71,028,44,45,55,245,46,09,26,216,27,01,35,140,37,1*77
$GBGSV,3,3,12,35,24,262,41,03,42,189,37,26,24,312,34,59,35,147,34,1*7D
$GBGSV,3,1,12,07,80,339,35,29,73,332,37,10,68,305,34,30,33,060,25,8*7B
$GBGSV,3,2,12,40,71,028,38,45,55,245,41,09,26,216,20,01,35,140,33,8*71
$GBGSV,3,3,12,35,24,262,32,03,42,189,30,26,24,312,38,59,35,147,33,8*7C
$GBGSV,2,1,05,07,80,339,38,10,68,305,37,09,26,216,22,01,35,140,35,B*0F
$GBGSV,2,2,05,03,42,189,35,B*33
$GAGSV,2,1,07,10,67,045,38,11,82,220,33,12,41,044,36,16,77,159,38,1*73
$GAGSV,2,2,07,24,49,142,36,25,73,299,36,02,20,314,36,1*4C
$GAGSV,2,1,07,10,67,045,40,11,82,220,35,12,41,044,31,16,77,159,39,2*7F
$GAGSV,2,2,07,24,49,142,38,25,73,299,36,02,20,314,37,2*40
$GAGSV,2,1,07,10,67,045,46,11,82,220,41,12,41,044,38,16,77,159,46,7*7E
$GAGSV,2,2,07,24,49,142,43,25,73,299,44,02,20,314,32,7*49
$GNGGA,063730.00,3959.89023050,N,11628.84035089,E,4,31,0.6,35.4044,M,-8.1143,M,1.0,1828*7A
$GNRMC,063730.00,D,3959.89023050,N,11628.84035089,E,0.001,91.4,120325,7.3,W,R,S*6B
$GPGSV,2,1,07,01,45,048,46,02,26,049,41,03,42,106,43,14,80,224,45,1*6D
$GPGSV,2,2,07,19,35,288,36,17,62,317,45,22,66,302,43,1*5A
$GPGSV,2,1,07,01,45,048,37,02,26,049,31,03,42,106,27,14,80,224,42,4*6C
$GPGSV,2,2,07,19,35,288,30,17,62,317,39,22,66,302,34,4*52
$GPGSV,1,1,03,01,45,048,34,03,42,106,34,14,80,224,40,8*5D
$GLGSV,2,1,06,82,16,046,40,73,66,225,48,74,45,316,40,84,43,262,34,1*73
$GLGSV,2,2,06,67,13,062,31,80,21,169,38,1*75
$GLGSV,1,1,03,82,16,046,37,73,66,225,40,84,43,262,40,3*4E
$GBGSV,3,1,12,07,80,339,42,29,73,332,41,10,68,305,39,30,33,060,32,1*78
$GBGSV,3,2,12,40,71,028,44,45,55,245,46,09,26,216,27,01,35,140,36,1*76
$GBGSV,3,3,12,35,24,262,41,03,42,189,37,26,24,312,33,59,35,147,34,1*7A
$GBGSV,3,1,12,07,80,339,35,29,73,332,37,10,68,305,33,30,33,060,25,8*7C
$GBGSV,3,2,12,40,71,028,38,45,55,245,40,09,26,216,20,01,35,140,33,8*70
$GBGSV,3,3,12,35,24,262,32,03,42,189,30,26,24,312,38,59,35,147,33,8*7C
$GBGSV,2,1,05,07,80,339,37,10,68,305,37,09,26,216,21,01,35,140,35,B*03
$GBGSV,2,2,05,03,42,189,35,B*33
$GAGSV,2,1,07,10,67,045,38,11,82,220,33,12,41,044,36,16,77,159,38,1*73
$GAGSV,2,2,07,24,49,142,36,25,73,299,36,02,20,314,36,1*4C
$GAGSV,2,1,07,10,67,045,40,11,82,220,34,12,41,044,31,16,77,159,38,2*7F
$GAGSV,2,2,07,24,49,142,37,25,73,299,35,02,20,314,37,2*4C
$GAGSV,2,1,07,10,67,045,46,11,82,220,40,12,41,044,38,16,77,159,46,7*7F
$GAGSV,2,2,07,24,49,142,43,25,73,299,44,02,20,314,33,7*48
$GNGGA,063731.00,3959.89023108,N,11628.84034853,E,4,30,0.6,35.3888,M,-8.1143,M,1.0,1828*77
$GNRMC,063731.00,D,3959.89023108,N,11628.84034853,E,0.004,92.3,120325,7.3,W,R,S*69
$GPGSV,2,1,07,01,45,048,45,02,26,049,41,03,42,105,43,14,80,224,45,1*6D
$GPGSV,2,2,07,19,35,288,35,17,62,317,45,22,66,302,43,1*59
$GPGSV,2,1,07,01,45,048,37,02,26,049,31,03,42,105,27,14,80,224,43,4*6E
$GPGSV,2,2,07,19,35,288,29,17,62,317,39,22,66,302,34,4*5A
$GPGSV,1,1,03,01,45,048,34,03,42,105,35,14,80,224,40,8*5F
$GLGSV,2,1,06,82,16,046,41,73,66,225,48,74,45,316,40,84,43,262,33,1*75
$GLGSV,2,2,06,67,13,062,31,80,21,169,38,1*75
$GLGSV,1,1,03,82,16,046,37,73,66,225,39,84,43,262,40,3*40
$GBGSV,3,1,12,07,80,339,41,29,73,332,41,10,68,305,39,30,33,060,32,1*7B
$GBGSV,3,2,12,40,71,028,44,45,55,245,46,09,26,216,27,01,35,140,36,1*76
$GBGSV,3,3,12,35,24,262,41,03,42,189,38,26,24,312,33,59,35,147,34,1*75
$GBGSV,3,1,12,07,80,339,35,29,73,332,37,10,68,305,33,30,33,060,25,8*7C
$GBGSV,3,2,12,40,71,028,38,45,55,245,41,09,26,216,20,01,35,140,33,8*71
$GBGSV,3,3,12,35,24,262,32,03,42,189,30,26,24,312,38,59,35,147,33,8*7C
$GBGSV,2,1,05,07,80,339,37,10,68,305,37,09,26,216,20,01,35,140,35,B*02
$GBGSV,2,2,05,03,42,189,35,B*33
$GAGSV,2,1,07,10,67,045,38,11,82,220,33,12,41,044,35,16,77,160,38,1*7A
$GAGSV,2,2,07,24,49,142,36,25,73,299,35,02,20,314,36,1*4F
$GAGSV,2,1,07,10,67,045,40,11,82,220,35,12,41,044,31,16,77,160,39,2*75
$GAGSV,2,2,07,24,49,142,38,25,73,299,36,02,20,314,37,2*40
$GAGSV,2,1,07,10,67,045,46,11,82,220,40,12,41,044,38,16,77,160,46,7*75
$GAGSV,2,2,07,24,49,142,42,25,73,299,44,02,20,314,33,7*49
$GNGGA,063732.00,3959.89023104,N,11628.84035012,E,4,30,0.6,35.4054,M,-8.1143,M,1.0,1828*7A
$GNRMC,063732.00,D,3959.89023104,N,11628.84035012,E,0.005,60.6,120325,7.3,W,R,S*63
$GPGSV,2,1,07,01,45,048,45,02,26,049,40,03,42,105,44,14,80,224,45,1*6B
$GPGSV,2,2,07,19,35,288,34,17,62,317,44,22,66,302,42,1*58
$GPGSV,2,1,07,01,45,048,37,02,26,049,31,03,42,105,27,14,80,224,42,4*6F
$GPGSV,2,2,07,19,35,288,28,17,62,317,39,22,66,302,34,4*5B
$GPGSV,1,1,03,01,45,048,34,03,42,105,34,14,80,224,40,8*5E
$GLGSV,2,1,06,82,16,046,41,73,66,225,47,74,45,316,40,84,43,262,33,1*7A
$GLGSV,2,2,06,67,13,062,31,80,21,169,38,1*75
$GLGSV,1,1,03,82,16,046,37,73,66,225,39,84,43,262,39,3*4E
$GBGSV,3,1,12,07,80,339,41,29,73,332,41,10,68,305,39,30,33,060,32,1*7B
$GBGSV,3,2,12,40,71,028,44,45,55,245,46,09,26,216,27,01,35,140,36,1*76
$GBGSV,3,3,12,35,24,262,40,03,42,189,37,26,24,312,33,59,35,147,33,1*7C
$GBGSV,3,1,12,07,80,339,35,29,73,332,37,10,68,305,33,30,33,060,25,8*7C
$GBGSV,3,2,12,40,71,028,38,45,55,245,41,09,26,216,20,01,35,140,33,8*71
$GBGSV,3,3,12,35,24,262,32,03,42,189,30,26,24,312,38,59,35,147,34,8*7B
$GBGSV,2,1,05,07,80,339,37,10,68,305,37,09,26,216,20,01,35,140,36,B*01
$GBGSV,2,2,05,03,42,189,36,B*30
$GAGSV,2,1,07,10,67,045,38,11,82,220,33,12,41,044,35,16,77,160,38,1*7A
$GAGSV,2,2,07,24,49,142,36,25,73,299,35,02,20,314,36,1*4F
$GAGSV,2,1,07,10,67,045,40,11,82,220,35,12,41,044,31,16,77,160,39,2*75
$GAGSV,2,2,07,24,49,142,38,25,73,299,35,02,20,314,37,2*43
$GAGSV,2,1,07,10,67,045,46,11,82,220,40,12,41,044,37,16,77,160,46,7*7A
$GAGSV,2,2,07,24,49,142,42,25,73,299,43,02,20,314,32,7*4F
$GNGGA,063733.00,3959.89022748,N,11628.84034963,E,4,31,0.6,35.4069,M,-8.1143,M,1.0,1828*75
$GNRMC,063733.00,D,3959.89022748,N,11628.84034963,E,0.005,77.4,120325,7.3,W,R,S*67
$GPGSV,2,1,07,01,45,048,45,02,26,049,40,03,42,105,43,14,80,224,45,1*6C
$GPGSV,2,2,07,19,35,288,33,17,62,318,45,22,66,302,42,1*51
$GPGSV,2,1,07,01,45,048,37,02,26,049,31,03,42,105,29,14,80,224,43,4*60
$GPGSV,2,2,07,19,35,288,29,17,62,318,39,22,66,302,35,4*54
$GPGSV,1,1,03,01,45,048,34,03,42,105,35,14,80,224,40,8*5F
$GLGSV,2,1,06,82,16,046,42,73,66,225,47,74,45,316,41,84,43,262,32,1*79
$GLGSV,2,2,06,67,13,062,32,80,21,169,37,1*79
$GLGSV,1,1,03,82,16,046,37,73,66,225,40,84,43,262,39,3*40
$GBGSV,3,1,12,07,80,339,41,29,73,332,41,10,68,305,39,30,33,060,32,1*7B
$GBGSV,3,2,12,40,71,028,44,45,55,245,46,09,26,216,27,01,35,140,36,1*76
$GBGSV,3,3,12,35,24,262,40,03,42,189,37,26,24,312,32,59,35,147,34,1*7A
$GBGSV,3,1,12,07,80,339,35,29,73,332,38,10,68,305,34,30,33,060,24,8*75
$GBGSV,3,2,12,40,71,028,38,45,55,245,41,09,26,216,20,01,35,140,33,8*71
$GBGSV,3,3,12,35,24,262,32,03,42,189,30,26,24,312,38,59,35,147,34,8*7B
$GBGSV,2,1,05,07,80,339,38,10,68,305,37,09,26,216,20,01,35,140,36,B*0E
$GBGSV,2,2,05,03,42,189,36,B*30
$GAGSV,2,1,07,10,67,045,38,11,82,220,33,12,41,044,35,16,77,160,38,1*7A
$GAGSV,2,2,07,24,49,142,36,25,73,299,35,02,20,314,36,1*4F
$GAGSV,2,1,07,10,67,045,40,11,82,220,35,12,41,044,32,16,77,160,39,2*76
$GAGSV,2,2,07,24,49,142,38,25,73,299,35,02,20,314,38,2*4C
$GAGSV,2,1,07,10,67,045,46,11,82,220,40,12,41,044,38,16,77,160,46,7*75
$GAGSV,2,2,07,24,49,142,42,25,73,299,43,02,20,314,32,7*4F
$GNGGA,063734.00,3959.89022909,N,11628.84035178,E,4,31,0.6,35.4010,M,-8.1143,M,1.0,1828*74
$GNRMC,063734.00,D,3959.89022909,N,11628.84035178,E,0.004,66.4,120325,7.3,W,R,S*69
$GPGSV,2,1,07,01,45,048,45,02,26,049,40,03,42,105,43,14,80,223,45,1*6B
$GPGSV,2,2,07,19,35,288,31,17,62,318,45,22,66,302,43,1*52
$GPGSV,2,1,07,01,45,048,37,02,26,049,31,03,42,105,29,14,80,223,43,4*67
$GPGSV,2,2,07,19,35,288,29,17,62,318,40,22,66,302,35,4*5A
$GPGSV,1,1,03,01,45,048,34,03,42,105,35,14,80,223,40,8*58
$GLGSV,2,1,06,82,16,046,42,73,66,225,46,74,45,316,41,84,43,262,32,1*78
$GLGSV,2,2,06,67,13,062,33,80,21,169,36,1*79
$GLGSV,1,1,03,82,16,046,36,73,66,225,40,84,43,262,39,3*41
$GBGSV,3,1,12,07,80,339,42,29,73,332,41,10,68,305,39,30,33,060,31,1*7B
$GBGSV,3,2,12,40,71,028,44,45,55,245,46,09,26,216,27,01,35,140,37,1*77
$GBGSV,3,3,12,35,24,262,40,03,42,189,37,26,24,312,34,59,35,147,34,1*7C
$GBGSV,3,1,12,07,80,339,35,29,73,332,38,10,68,305,34,30,33,060,24,8*75
$GBGSV,3,2,12,40,71,028,38,45,55,245,41,09,26,216,19,01,35,140,33,8*7B
$GBGSV,3,3,12,35,24,262,32,03,42,189,30,26,24,312,38,59,35,147,33,8*7C
$GBGSV,2,1,05,07,80,339,38,10,68,305,37,09,26,216,20,01,35,140,36,B*0E
$GBGSV,2,2,05,03,42,189,36,B*30
$GAGSV,2,1,07,10,67,045,38,11,82,220,34,12,41,044,35,16,77,160,38,1*7D
$GAGSV,2,2,07,24,49,142,36,25,73,299,35,02,20,314,36,1*4F
$GAGSV,2,1,07,10,67,045,40,11,82,220,35,12,41,044,32,16,77,160,39,2*76
$GAGSV,2,2,07,24,49,142,38,25,73,299,36,02,20,314,37,2*40
$GAGSV,2,1,07,10,67,045,46,11,82,220,40,12,41,044,38,16,77,160,46,7*75
$GAGSV,2,2,07,24,49,142,42,25,73,299,43,02,20,314,32,7*4F
$GNGGA,063735.00,3959.89023140,N,11628.84034884,E,4,31,0.6,35.3902,M,-8.1143,M,1.0,1828*77
$GNRMC,063735.00,D,3959.89023140,N,11628.84034884,E,0.002,70.2,120325,7.3,W,R,S*60
$GPGSV,2,1,07,01,45,048,45,02,26,049,40,03,42,105,43,14,80,223,45,1*6B
$GPGSV,2,2,07,19,35,288,30,17,62,318,45,22,66,302,43,1*53
$GPGSV,2,1,07,01,45,048,37,02,26,049,31,03,42,105,29,14,80,223,43,4*67
$GPGSV,2,2,07,19,35,288,29,17,62,318,40,22,66,302,34,4*5B
$GPGSV,1,1,03,01,45,048,34,03,42,105,35,14,80,223,40,8*58
$GLGSV,2,1,06,82,16,046,42,73,66,225,46,74,45,316,42,84,43,262,32,1*7B
$GLGSV,2,2,06,67,13,062,34,80,21,169,37,1*7F
$GLGSV,1,1,03,82,16,046,36,73,66,225,41,84,43,262,39,3*40
$GBGSV,3,1,12,07,80,339,41,29,73,332,40,10,68,305,39,30,33,060,31,1*79
$GBGSV,3,2,12,40,71,028,44,45,55,245,46,09,26,216,26,01,35,140,35,1*74
$GBGSV,3,3,12,35,24,262,40,03,42,189,37,26,24,312,33,59,35,147,34,1*7B
$GBGSV,3,1,12,07,80,339,35,29,73,332,38,10,68,305,33,30,33,060,25,8*73
$GBGSV,3,2,12,40,71,028,38,45,55,245,41,09,26,216,20,01,35,140,33,8*71
$GBGSV,3,3,12,35,24,262,32,03,42,189,30,26,24,312,38,59,35,147,33,8*7C
$GBGSV,2,1,05,07,80,339,38,10,68,305,37,09,26,216,19,01,35,140,35,B*07
$GBGSV,2,2,05,03,42,189,36,B*30
$GAGSV,2,1,07,10,67,045,38,11,82,220,33,12,41,044,35,16,77,160,38,1*7A
$GAGSV,2,2,07,24,49,142,36,25,73,299,35,02,20,314,35,1*4C
$GAGSV,2,1,07,10,67,045,40,11,82,220,35,12,41,044,31,16,77,160,39,2*75
$GAGSV,2,2,07,24,49,142,38,25,73,299,35,02,20,314,37,2*43
$GAGSV,2,1,07,10,67,045,46,11,82,220,40,12,41,044,38,16,77,160,46,7*75
$GAGSV,2,2,07,24,49,142,41,25,73,299,44,02,20,314,33,7*4A
$GNGGA,063736.00,3959.89023133,N,11628.84034929,E,4,31,0.6,35.4044,M,-8.1143,M,1.0,1828*7A
$GNRMC,063736.00,D,3959.89023133,N,11628.84034929,E,0.002,29.7,120325,7.3,W,R,S*68
$GPGSV,2,1,07,01,45,048,44,02,26,049,40,03,42,105,42,14,80,223,45,1*6B
$GPGSV,2,2,07,19,35,288,30,17,62,318,45,22,66,302,43,1*53
$GPGSV,2,1,07,01,45,048,37,02,26,049,31,03,42,105,28,14,80,223,43,4*66
$GPGSV,2,2,07,19,35,288,30,17,62,318,39,22,66,302,34,4*5D
$GPGSV,1,1,03,01,45,048,34,03,42,105,34,14,80,223,40,8*59
$GLGSV,2,1,06,82,16,046,42,73,66,225,46,74,45,316,42,84,43,262,32,1*7B
$GLGSV,2,2,06,67,13,062,33,80,21,169,37,1*78
$GLGSV,1,1,03,82,16,046,36,73,66,225,41,84,43,262,40,3*4E
$GBGSV,3,1,12,07,80,339,41,29,73,332,41,10,68,305,39,30,33,060,31,1*78
$GBGSV,3,2,12,40,71,028,44,45,55,245,46,09,26,216,26,01,35,140,35,1*74
$GBGSV,3,3,12,35,24,262,40,03,42,189,37,26,24,312,32,59,35,147,33,1*7D
$GBGSV,3,1,12,07,80,339,35,29,73,332,37,10,68,305,33,30,33,060,25,8*7C
$GBGSV,3,2,12,40,71,028,38,45,55,245,41,09,26,216,20,01,35,140,33,8*71
$GBGSV,3,3,12,35,24,262,32,03,42,189,28,26,24,312,38,59,35,147,33,8*75
$GBGSV,2,1,05,07,80,339,37,10,68,305,36,09,26,216,20,01,35,140,35,B*03
$GBGSV,2,2,05,03,42,189,35,B*33
$GAGSV,2,1,07,10,67,045,38,11,82,220,33,12,41,044,35,16,77,160,38,1*7A
$GAGSV,2,2,07,24,49,142,36,25,73,299,34,02,20,314,36,1*4E
$GAGSV,2,1,07,10,67,045,40,11,82,220,34,12,41,044,31,16,77,160,38,2*75
$GAGSV,2,2,07,24,49,142,38,25,73,299,34,02,20,314,37,2*42
$GAGSV,2,1,07,10,67,045,46,11,82,220,40,12,41,044,38,16,77,160,47,7*74
$GAGSV,2,2,07,24,49,142,41,25,73,299,44,02,20,314,33,7*4A
$GNGGA,063737.00,3959.89023047,N,11628.84035190,E,4,31,0.6,35.4089,M,-8.1143,M,1.0,1828*73
$GNRMC,063737.00,D,3959.89023047,N,11628.84035190,E,0.001,79.6,120325,7.3,W,R,S*67
$GPGSV,2,1,07,01,45,048,44,02,26,049,40,03,42,105,42,14,80,223,44,1*6A
$GPGSV,2,2,07,19,35,288,30,17,62,318,45,22,66,302,43,1*53
$GPGSV,2,1,07,01,45,048,37,02,26,049,31,03,42,105,29,14,80,223,43,4*67
$GPGSV,2,2,07,19,35,288,30,17,62,318,39,22,66,302,34,4*5D
$GPGSV,1,1,03,01,45,048,34,03,42,105,34,14,80,223,40,8*59
$GLGSV,2,1,06,82,16,046,41,73,66,225,46,74,45,316,42,84,43,262,33,1*79
$GLGSV,2,2,06,67,13,062,31,80,21,169,37,1*7A
$GLGSV,1,1,03,82,16,046,36,73,66,225,42,84,43,262,40,3*4D
$GBGSV,3,1,12,07,80,339,41,29,73,332,41,10,68,305,39,30,33,060,31,1*78
$GBGSV,3,2,12,40,71,028,44,45,55,245,45,09,26,216,25,01,35,140,35,1*74
$GBGSV,3,3,12,35,24,262,39,03,42,189,37,26,24,312,32,59,35,147,33,1*73
$GBGSV,3,1,12,07,80,339,35,29,73,332,38,10,68,305,33,30,33,060,25,8*73
$GBGSV,3,2,12,40,71,028,38,45,55,245,41,09,26,216,20,01,35,140,33,8*71
$GBGSV,3,3,12,35,24,262,32,03,42,189,30,26,24,312,38,59,35,147,33,8*7C
$GBGSV,2,1,05,07,80,339,37,10,68,305,36,09,26,216,19,01,35,140,35,B*09
$GBGSV,2,2,05,03,42,189,35,B*33
$GAGSV,2,1,07,10,67,045,38,11,82,220,34,12,41,044,35,16,77,160,38,1*7D
$GAGSV,2,2,07,24,49,142,36,25,73,299,34,02,20,314,36,1*4E
$GAGSV,2,1,07,10,67,045,40,11,82,220,34,12,41,044,31,16,77,160,38,2*75
$GAGSV,2,2,07,24,49,142,38,25,73,299,34,02,20,314,37,2*42
$GAGSV,2,1,07,10,67,045,46,11,82,220,40,12,41,044,38,16,77,160,47,7*74
$GAGSV,2,2,07,24,49,142,41,25,73,299,44,02,20,314,33,7*4A
$GNGGA,063738.00,3959.89022864,N,11628.84034840,E,4,31,0.6,35.3994,M,-8.1143,M,1.0,1828*73
$GNRMC,063738.00,D,3959.89022864,N,11628.84034840,E,0.002,191.4,120325,7.3,W,R,S*53
$GPGSV,2,1,07,01,45,048,44,02,26,049,40,03,42,105,42,14,80,223,44,1*6A
$GPGSV,2,2,07,19,35,288,30,17,62,318,45,22,66,302,42,1*52
$GPGSV,2,1,07,01,45,048,37,02,26,049,31,03,42,105,29,14,80,223,44,4*60
$GPGSV,2,2,07,19,35,288,29,17,62,318,39,22,66,302,34,4*55
$GPGSV,1,1,03,01,45,048,34,03,42,105,34,14,80,223,40,8*59
$GLGSV,2,1,06,82,15,046,41,73,66,225,46,74,45,316,41,84,43,262,32,1*78
$GLGSV,2,2,06,67,13,062,31,80,21,169,36,1*7B
$GLGSV,1,1,03,82,15,046,36,73,66,225,43,84,43,262,40,3*4F
$GBGSV,3,1,12,07,80,339,41,29,73,332,41,10,68,305,39,30,33,060,31,1*78
$GBGSV,3,2,12,40,71,028,44,45,55,245,46,09,26,216,26,01,35,140,36,1*77
$GBGSV,3,3,12,35,24,262,40,03,42,189,37,26,24,312,33,59,35,147,34,1*7B
$GBGSV,3,1,12,07,80,339,35,29,73,332,38,10,68,305,33,30,33,060,25,8*73
$GBGSV,3,2,12,40,71,028,39,45,55,245,41,09,26,216,20,01,35,140,33,8*70
$GBGSV,3,3,12,35,24,262,33,03,42,189,30,26,24,312,38,59,35,147,34,8*7A
$GBGSV,2,1,05,07,80,339,37,10,68,305,37,09,26,216,19,01,35,140,36,B*0B
$GBGSV,2,2,05,03,42,189,35,B*33
$GAGSV,2,1,07,10,67,045,38,11,82,220,34,12,41,044,35,16,77,160,38,1*7D
$GAGSV,2,2,07,24,49,142,36,25,73,299,35,02,20,314,36,1*4F
$GAGSV,2,1,07,10,67,045,40,11,82,220,35,12,41,044,31,16,77,160,39,2*75
$GAGSV,2,2,07,24,49,142,38,25,73,299,35,02,20,314,37,2*43
$GAGSV,2,1,07,10,67,045,46,11,82,220,40,12,41,044,38,16,77,160,47,7*74
$GAGSV,2,2,07,24,49,142,42,25,73,299,43,02,20,314,33,7*4E
$GNGGA,063739.00,3959.89023021,N,11628.84035088,E,4,30,0.6,35.3970,M,-8.1143,M,1.0,1828*7C
$GNRMC,063739.00,D,3959.89023021,N,11628.84035088,E,0.004,174.5,120325,7.3,W,R,S*5B
$GPGSV,2,1,07,01,45,048,44,02,26,049,39,03,42,105,42,14,80,223,44,1*64
$GPGSV,2,2,07,19,35,288,29,17,62,318,45,22,66,302,42,1*5A
$GPGSV,2,1,07,01,45,048,37,02,26,049,30,03,42,105,29,14,80,223,44,4*61
$GPGSV,2,2,07,19,35,288,29,17,62,318,39,22,66,302,35,4*54
$GPGSV,1,1,03,01,45,048,34,03,42,105,34,14,80,223,40,8*59
$GLGSV,2,1,06,82,15,046,40,73,66,225,46,74,45,316,41,84,43,262,31,1*7A
$GLGSV,2,2,06,67,13,062,31,80,21,169,36,1*7B
$GLGSV,1,1,03,82,15,046,36,73,66,225,44,84,43,262,40,3*48
$GBGSV,3,1,12,07,80,339,41,29,73,332,41,10,68,305,39,30,33,060,31,1*78
$GBGSV,3,2,12,40,71,028,44,45,55,245,46,09,26,216,25,01,35,140,36,1*74
$GBGSV,3,3,12,35,24,262,40,03,42,189,37,26,24,312,34,59,35,147,34,1*7C
$GBGSV,3,1,12,07,80,339,36,29,73,332,38,10,68,305,34,30,33,060,25,8*77
$GBGSV,3,2,12,40,71,028,39,45,55,245,41,09,26,216,20,01,35,140,33,8*70
$GBGSV,3,3,12,35,24,262,33,03,42,189,30,26,24,312,38,59,35,147,34,8*7A
$GBGSV,2,1,05,07,80,339,37,10,68,305,37,09,26,216,19,01,35,140,36,B*0B
$GBGSV,2,2,05,03,42,189,35,B*33
$GAGSV,2,1,07,10,67,045,38,11,82,220,34,12,41,044,35,16,77,160,38,1*7D
$GAGSV,2,2,07,24,49,142,36,25,73,299,35,02,20,314,36,1*4F
$GAGSV,2,1,07,10,67,045,40,11,82,220,35,12,41,044,31,16,77,160,39,2*75
$GAGSV,2,2,07,24,49,142,38,25,73,299,36,02,20,314,37,2*40
$GAGSV,2,1,07,10,67,045,46,11,82,220,40,12,41,044,38,16,77,160,47,7*74
$GAGSV,2,2,07,24,49,142,42,25,73,299,44,02,20,314,34,7*4E
$GNGGA,063740.00,3959.89023209,N,11628.84035290,E,4,30,0.6,35.3982,M,-8.1143,M,1.0,1828*7C
$GNRMC,063740.00,D,3959.89023209,N,11628.84035290,E,0.002,140.1,120325,7.3,W,R,S*53
$GPGSV,2,1,07,01,45,048,44,02,26,049,40,03,42,105,41,14,80,223,44,1*69
$GPGSV,2,2,07,19,35,288,28,17,62,318,45,22,66,302,42,1*5B
$GPGSV,2,1,07,01,45,048,37,02,26,049,31,03,42,105,27,14,80,223,44,4*6E
$GPGSV,2,2,07,19,35,288,28,17,62,318,39,22,66,302,35,4*55
$GPGSV,1,1,03,01,45,048,34,03,42,105,34,14,80,223,40,8*59
$GLGSV,2,1,06,82,15,046,41,73,66,225,46,74,45,316,41,84,43,262,29,1*72
$GLGSV,2,2,06,67,13,062,32,80,21,169,36,1*78
$GLGSV,1,1,03,82,15,046,37,73,66,225,44,84,43,262,40,3*49
$GBGSV,3,1,12,07,80,339,41,29,73,332,41,10,68,305,40,30,33,060,32,1*75
$GBGSV,3,2,12,40,71,028,44,45,55,245,46,09,26,216,25,01,35,140,36,1*74
$GBGSV,3,3,12,35,24,262,39,03,42,189,38,26,24,312,34,59,35,147,34,1*7D
$GBGSV,3,1,12,07,80,339,35,29,73,332,38,10,68,305,34,30,33,060,25,8*74
$GBGSV,3,2,12,40,71,028,39,45,55,245,41,09,26,216,20,01,35,140,33,8*70
$GBGSV,3,3,12,35,24,262,33,03,42,189,30,26,24,312,38,59,35,147,34,8*7A
$GBGSV,2,1,05,07,80,339,37,10,68,305,37,09,26,216,19,01,35,140,36,B*0B
$GBGSV,2,2,05,03,42,189,35,B*33
$GAGSV,2,1,07,10,67,045,38,11,82,220,34,12,41,044,35,16,77,160,38,1*7D
$GAGSV,2,2,07,24,49,142,36,25,73,299,35,02,20,314,36,1*4F
$GAGSV,2,1,07,10,67,045,40,11,82,220,35,12,41,044,32,16,77,160,39,2*76
$GAGSV,2,2,07,24,49,142,38,25,73,299,36,02,20,314,37,2*40
$GAGSV,2,1,07,10,67,045,46,11,82,220,40,12,41,044,38,16,77,160,47,7*74
$GAGSV,2,2,07,24,49,142,42,25,73,299,44,02,20,314,35,7*4F
$GNGGA,063741.00,3959.89022965,N,11628.84034884,E,4,30,0.6,35.3923,M,-8.1143,M,1.0,1828*78
$GNRMC,063741.00,D,3959.89022965,N,11628.84034884,E,0.002,157.4,120325,7.3,W,R,S*5F
$GPGSV,2,1,07,01,45,048,44,02,26,049,40,03,42,105,40,14,80,223,44,1*68
$GPGSV,2,2,07,19,35,288,28,17,62,318,45,22,66,302,42,1*5B
$GPGSV,2,1,07,01,45,048,37,02,26,049,31,03,42,105,27,14,80,223,44,4*6E
$GPGSV,2,2,07,19,35,288,28,17,62,318,39,22,66,302,34,4*54
$GPGSV,1,1,03,01,45,048,34,03,42,105,35,14,80,223,40,8*58
$GLGSV,2,1,06,82,15,046,40,73,66,225,46,74,45,316,41,84,43,262,28,1*72
$GLGSV,2,2,06,67,13,062,33,80,21,169,37,1*78
$GLGSV,1,1,03,82,15,046,37,73,66,225,45,84,43,262,40,3*48
$GBGSV,3,1,12,07,80,339,41,29,73,332,41,10,68,305,39,30,33,060,31,1*78
$GBGSV,3,2,12,40,71,028,44,45,55,244,46,09,26,216,25,01,35,140,35,1*76
$GBGSV,3,3,12,35,24,262,39,03,42,189,37,26,24,312,34,59,35,147,33,1*75
$GBGSV,3,1,12,07,80,339,36,29,73,332,38,10,68,305,34,30,33,060,26,8*74
$GBGSV,3,2,12,40,71,028,39,45,55,244,41,09,26,216,21,01,35,140,33,8*70
$GBGSV,3,3,12,35,24,262,33,03,42,189,30,26,24,312,38,59,35,147,34,8*7A
$GBGSV,2,1,05,07,80,339,38,10,68,305,37,09,26,216,19,01,35,140,37,B*05
$GBGSV,2,2,05,03,42,189,35,B*33
$GAGSV,2,1,07,10,67,045,38,11,82,220,34,12,41,044,35,16,77,160,38,1*7D
$GAGSV,2,2,07,24,49,142,36,25,73,299,35,02,20,314,36,1*4F
$GAGSV,2,1,07,10,67,045,41,11,82,220,35,12,41,044,32,16,77,160,40,2*79
$GAGSV,2,2,07,24,49,142,39,25,73,299,37,02,20,314,38,2*4F
$GAGSV,2,1,07,10,67,045,46,11,82,220,40,12,41,044,37,16,77,160,46,7*7A
$GAGSV,2,2,07,24,49,142,42,25,73,299,43,02,20,314,34,7*49
$GNGGA,063742.00,3959.89022988,N,11628.84035059,E,4,29,0.6,35.4074,M,-8.1143,M,1.0,1828*75
$GNRMC,063742.00,D,3959.89022988,N,11628.84035059,E,0.001,180.1,120325,7.3,W,R,S*5A
$GPGSV,2,1,07,01,45,048,44,02,26,049,39,03,42,105,39,14,80,223,44,1*68
$GPGSV,2,2,07,19,35,288,30,17,62,318,45,22,66,302,42,1*52
$GPGSV,2,1,07,01,45,048,37,02,26,049,31,03,42,105,26,14,80,223,44,4*6F
$GPGSV,2,2,07,19,35,288,29,17,62,318,40,22,66,302,35,4*5A
$GPGSV,1,1,03,01,45,048,34,03,42,105,34,14,80,223,40,8*59
$GLGSV,2,1,06,82,15,046,41,73,66,225,46,74,45,316,40,84,43,262,28,1*72
$GLGSV,2,2,06,67,13,062,34,80,21,169,37,1*7F
$GLGSV,1,1,03,82,15,046,38,73,66,225,46,84,43,262,40,3*44
$GBGSV,3,1,12,07,80,339,41,29,73,332,41,10,68,305,39,30,33,060,29,1*71
$GBGSV,3,2,12,40,71,028,44,45,55,244,45,09,26,216,25,01,35,140,35,1*75
$GBGSV,3,3,12,35,24,262,40,03,42,189,37,26,24,312,34,59,35,147,34,1*7C
$GBGSV,3,1,12,07,80,339,36,29,73,332,38,10,68,305,35,30,33,060,26,8*75
$GBGSV,3,2,12,40,71,028,39,45,55,244,41,09,26,216,21,01,35,140,34,8*77
$GBGSV,3,3,12,35,24,262,33,03,42,189,30,26,24,312,39,59,35,147,35,8*7A
$GBGSV,2,1,05,07,80,339,38,10,68,305,38,09,26,216,19,01,35,140,37,B*0A
$GBGSV,2,2,05,03,42,189,36,B*30
$GAGSV,2,1,07,10,67,045,38,11,82,220,34,12,41,044,35,16,77,160,38,1*7D
$GAGSV,2,2,07,24,49,142,36,25,73,299,35,02,20,314,36,1*4F
$GAGSV,2,1,07,10,67,045,41,11,82,220,35,12,41,044,33,16,77,160,40,2*78
$GAGSV,2,2,07,24,49,142,39,25,73,299,37,02,20,314,39,2*4E
$GAGSV,2,1,07,10,67,045,47,11,82,220,40,12,41,044,37,16,77,160,46,7*7B
$GAGSV,2,2,07,24,49,142,42,25,73,299,43,02,20,314,34,7*49
$GNGGA,063743.00,3959.89023144,N,11628.84035015,E,4,30,0.6,35.3967,M,-8.1143,M,1.0,1828*71
$GNRMC,063743.00,D,3959.89023144,N,11628.84035015,E,0.002,320.1,120325,7.3,W,R,S*51
$GPGSV,2,1,07,01,45,048,44,02,26,049,40,03,42,105,39,14,80,223,44,1*66
$GPGSV,2,2,07,19,35,288,30,17,62,318,45,22,66,302,42,1*52
$GPGSV,2,1,07,01,45,048,38,02,26,049,31,03,42,105,26,14,80,223,45,4*61
$GPGSV,2,2,07,19,35,288,31,17,62,318,40,22,66,302,35,4*53
$GPGSV,1,1,03,01,45,048,34,03,42,105,34,14,80,223,40,8*59
$GLGSV,2,1,06,82,15,046,41,73,66,225,46,74,45,316,39,84,43,262,29,1*7D
$GLGSV,2,2,06,67,13,062,33,80,21,169,37,1*78
$GLGSV,1,1,03,82,15,046,38,73,66,225,46,84,43,262,40,3*44
$GBGSV,3,1,12,07,80,339,41,29,73,332,41,10,68,305,39,30,33,060,28,1*70
$GBGSV,3,2,12,40,71,028,44,45,55,244,45,09,26,216,25,01,35,140,35,1*75
$GBGSV,3,3,12,35,24,262,39,03,42,189,37,26,24,312,34,59,35,147,33,1*75
$GBGSV,3,1,12,07,80,339,36,29,73,332,38,10,68,305,35,30,33,060,26,8*75
$GBGSV,3,2,12,40,71,028,39,45,55,244,41,09,26,216,21,01,35,140,33,8*70
$GBGSV,3,3,12,35,24,262,33,03,42,189,30,26,24,312,39,59,35,147,35,8*7A
$GBGSV,2,1,05,07,80,339,39,10,68,305,38,09,26,216,19,01,35,140,37,B*0B
$GBGSV,2,2,05,03,42,189,36,B*30
$GAGSV,2,1,07,10,67,045,38,11,82,220,34,12,41,044,35,16,77,160,38,1*7D
$GAGSV,2,2,07,24,49,142,36,25,73,299,35,02,20,314,36,1*4F
$GAGSV,2,1,07,10,67,045,41,11,82,220,35,12,41,044,33,16,77,160,40,2*78
$GAGSV,2,2,07,24,49,142,38,25,73,299,37,02,20,314,39,2*4F
$GAGSV,2,1,07,10,67,045,46,11,82,220,40,12,41,044,37,16,77,160,46,7*7A
$GAGSV,2,2,07,24,49,142,42,25,73,299,43,02,20,314,34,7*49
$GNGGA,063744.00,3959.89023244,N,11628.84035238,E,4,30,0.6,35.3980,M,-8.1143,M,1.0,1828*71
$GNRMC,063744.00,D,3959.89023244,N,11628.84035238,E,0.002,292.7,120325,7.3,W,R,S*56
$GPGSV,2,1,07,01,45,048,44,02,26,049,40,03,42,105,39,14,80,223,44,1*66
$GPGSV,2,2,07,19,35,288,29,17,62,318,45,22,66,302,42,1*5A
$GPGSV,2,1,07,01,45,048,37,02,26,049,31,03,42,105,26,14,80,223,44,4*6F
$GPGSV,2,2,07,19,35,288,30,17,62,318,39,22,66,302,34,4*5D
$GPGSV,1,1,03,01,45,048,33,03,42,105,34,14,80,223,40,8*5E
$GLGSV,2,1,06,82,15,046,41,73,66,225,46,74,45,316,39,84,43,262,31,1*74
$GLGSV,2,2,06,67,13,062,30,80,21,169,37,1*7B
$GLGSV,1,1,03,82,15,046,38,73,66,225,45,84,43,262,40,3*47
$GBGSV,3,1,12,07,80,339,41,29,73,332,41,10,68,305,39,30,33,060,28,1*70
$GBGSV,3,2,12,40,71,028,44,45,55,244,44,09,26,216,25,01,35,140,35,1*74
$GBGSV,3,3,12,35,24,262,39,03,42,189,37,26,24,312,34,59,35,147,33,1*75
$GBGSV,3,1,12,07,80,339,36,29,73,332,38,10,68,305,35,30,33,060,27,8*74
$GBGSV,3,2,12,40,71,028,39,45,55,244,41,09,26,216,21,01,35,140,33,8*70
$GBGSV,3,3,12,35,24,262,33,03,42,189,30,26,24,312,39,59,35,147,35,8*7A
$GBGSV,2,1,05,07,80,339,39,10,68,305,38,09,26,216,19,01,35,140,37,B*0B
$GBGSV,2,2,05,03,42,189,36,B*30
$GAGSV,2,1,07,10,67,045,38,11,82,220,35,12,41,044,35,16,77,160,38,1*7C
$GAGSV,2,2,07,24,49,142,36,25,73,299,36,02,20,314,36,1*4C
$GAGSV,2,1,07,10,67,045,41,11,82,220,35,12,41,044,33,16,77,160,40,2*78
$GAGSV,2,2,07,24,49,142,38,25,73,299,37,02,20,314,39,2*4F
$GAGSV,2,1,07,10,67,045,46,11,82,220,40,12,41,044,36,16,77,160,46,7*7B
$GAGSV,2,2,07,24,49,142,42,25,73,299,43,02,20,314,34,7*49
$GNGGA,063745.00,3959.89023152,N,11628.84035125,E,4,29,0.6,35.3955,M,-8.1143,M,1.0,1828*7B
$GNRMC,063745.00,D,3959.89023152,N,11628.84035125,E,0.002,14.8,120325,7.3,W,R,S*6F
$GPGSV,2,1,08,01,45,048,44,02,26,049,40,03,42,105,39,14,80,223,44,1*69
$GPGSV,2,2,08,19,35,288,27,30,16,210,31,17,62,318,45,22,66,302,42,1*6E
$GPGSV,2,1,07,01,45,048,37,02,26,049,31,03,42,105,27,14,80,223,44,4*6E
$GPGSV,2,2,07,19,35,288,29,17,62,318,39,22,66,302,34,4*55
$GPGSV,1,1,03,01,45,048,34,03,42,105,35,14,80,223,40,8*58
$GLGSV,2,1,06,82,15,046,41,73,66,225,46,74,45,316,39,84,43,262,31,1*74
$GLGSV,2,2,06,67,13,062,30,80,21,169,39,1*75
$GLGSV,1,1,03,82,15,046,38,73,66,225,45,84,43,262,40,3*47
$GBGSV,3,1,12,07,80,339,41,29,73,332,41,10,68,305,39,30,33,060,29,1*71
$GBGSV,3,2,12,40,71,028,44,45,55,244,44,09,26,216,25,01,35,140,35,1*74
$GBGSV,3,3,12,35,24,262,39,03,42,189,37,26,24,312,34,59,35,147,33,1*75
$GBGSV,3,1,12,07,80,339,36,29,73,332,38,10,68,305,34,30,33,060,26,8*74
$GBGSV,3,2,12,40,71,028,39,45,55,244,41,09,26,216,21,01,35,140,34,8*77
$GBGSV,3,3,12,35,24,262,33,03,42,189,31,26,24,312,39,59,35,147,35,8*7B
$GBGSV,2,1,05,07,80,339,39,10,68,305,38,09,26,216,19,01,35,140,37,B*0B
$GBGSV,2,2,05,03,42,189,36,B*30
$GAGSV,2,1,07,10,66,045,38,11,82,220,35,12,41,044,35,16,77,160,38,1*7D
$GAGSV,2,2,07,24,49,142,36,25,73,299,36,02,20,314,36,1*4C
$GAGSV,2,1,07,10,66,045,41,11,82,220,35,12,41,044,33,16,77,160,40,2*79
$GAGSV,2,2,07,24,49,142,38,25,73,299,37,02,20,314,39,2*4F
$GAGSV,2,1,07,10,66,045,46,11,82,220,40,12,41,044,37,16,77,160,45,7*78
$GAGSV,2,2,07,24,49,142,42,25,73,299,43,02,20,314,34,7*49
$GNGGA,063746.00,3959.89023050,N,11628.84035047,E,4,29,0.6,35.3919,M,-8.1143,M,1.0,1828*76
$GNRMC,063746.00,D,3959.89023050,N,11628.84035047,E,0.003,303.7,120325,7.3,W,R,S*51
$GPGSV,2,1,07,01,45,048,44,02,26,049,40,03,42,105,39,14,80,223,44,1*66
$GPGSV,2,2,07,19,35,288,28,17,62,318,45,22,66,302,42,1*5B
$GPGSV,2,1,07,01,45,048,38,02,26,049,31,03,42,105,27,14,80,223,44,4*61
$GPGSV,2,2,07,19,35,288,29,17,62,318,40,22,66,302,34,4*5B
$GPGSV,1,1,03,01,45,048,33,03,42,105,35,14,80,223,40,8*5F
$GLGSV,2,1,06,82,15,046,41,73,66,225,46,74,45,316,39,84,43,262,31,1*74
$GLGSV,2,2,06,67,13,062,32,80,21,169,40,1*79
$GLGSV,1,1,03,82,15,046,38,73,66,225,44,84,43,262,40,3*46
$GBGSV,3,1,12,07,80,339,41,29,73,332,41,10,68,305,39,30,33,060,28,1*70
$GBGSV,3,2,12,40,71,028,44,45,55,244,44,09,26,216,25,01,35,140,35,1*74
$GBGSV,3,3,12,35,24,262,39,03,42,189,37,26,24,312,34,59,35,147,33,1*75
$GBGSV,3,1,12,07,80,339,36,29,73,332,38,10,68,305,35,30,33,060,27,8*74
$GBGSV,3,2,12,40,71,028,39,45,55,244,41,09,26,216,21,01,35,140,34,8*77
$GBGSV,3,3,12,35,24,262,33,03,42,189,31,26,24,312,39,59,35,147,35,8*7B
$GBGSV,2,1,05,07,80,339,39,10,68,305,37,09,26,216,19,01,35,140,37,B*04
$GBGSV,2,2,05,03,42,189,36,B*30
$GAGSV,2,1,07,10,66,045,38,11,82,220,35,12,41,044,35,16,77,160,38,1*7D
$GAGSV,2,2,07,24,49,142,36,25,73,299,35,02,20,314,36,1*4F
$GAGSV,2,1,07,10,66,045,41,11,82,220,35,12,41,044,33,16,77,160,40,2*79
$GAGSV,2,2,07,24,49,142,38,25,73,299,37,02,20,314,39,2*4F
$GAGSV,2,1,07,10,66,045,46,11,82,220,40,12,41,044,37,16,77,160,45,7*78
$GAGSV,2,2,07,24,49,142,42,25,73,299,43,02,20,314,34,7*49
$GNGGA,063747.00,3959.89023142,N,11628.84034932,E,4,29,0.6,35.3990,M,-8.1143,M,1.0,1828*7E
$GNRMC,063747.00,D,3959.89023142,N,11628.84034932,E,0.001,216.4,120325,7.3,W,R,S*5C
$GPGSV,2,1,07,01,45,048,44,02,26,049,40,03,43,105,39,14,80,223,44,1*67
$GPGSV,2,2,07,19,35,288,30,17,62,318,45,22,66,302,42,1*52
$GPGSV,2,1,07,01,45,048,37,02,26,049,31,03,43,105,27,14,80,223,44,4*6F
$GPGSV,2,2,07,19,35,288,30,17,62,318,39,22,66,302,34,4*5D
$GPGSV,1,1,03,01,45,048,33,03,43,105,35,14,80,223,41,8*5F
$GLGSV,2,1,06,82,15,046,42,73,66,225,46,74,45,316,40,84,43,262,31,1*79
$GLGSV,2,2,06,67,13,062,32,80,21,169,40,1*79
$GLGSV,1,1,03,82,15,046,38,73,66,225,43,84,43,262,41,3*40
$GBGSV,3,1,12,07,80,339,41,29,73,332,41,10,68,305,39,30,33,060,28,1*70
$GBGSV,3,2,12,40,71,028,44,45,55,244,44,09,26,216,25,01,35,140,35,1*74
$GBGSV,3,3,12,35,24,262,39,03,42,189,38,26,24,312,34,59,35,147,32,1*7B
$GBGSV,3,1,12,07,80,339,36,29,73,332,38,10,68,305,35,30,33,060,27,8*74
$GBGSV,3,2,12,40,71,028,39,45,55,244,41,09,26,216,21,01,35,140,34,8*77
$GBGSV,3,3,12,35,24,262,33,03,42,189,31,26,24,312,40,59,35,147,36,8*76
$GBGSV,2,1,05,07,80,339,39,10,68,305,38,09,26,216,18,01,35,140,38,B*05
$GBGSV,2,2,05,03,42,189,36,B*30
$GAGSV,2,1,07,10,66,045,38,11,82,220,35,12,41,044,35,16,77,160,38,1*7D
$GAGSV,2,2,07,24,49,142,36,25,73,299,35,02,20,314,36,1*4F
$GAGSV,2,1,07,10,66,045,41,11,82,220,35,12,41,044,33,16,77,160,40,2*79
$GAGSV,2,2,07,24,49,142,38,25,73,299,37,02,20,314,38,2*4E
$GAGSV,2,1,07,10,66,045,46,11,82,220,40,12,41,044,36,16,77,160,45,7*79
$GAGSV,2,2,07,24,49,142,42,25,73,299,43,02,20,314,34,7*49
$GNGGA,063748.00,3959.89023220,N,11628.84035119,E,4,30,0.6,35.3993,M,-8.1143,M,1.0,1828*7D
$GNRMC,063748.00,D,3959.89023220,N,11628.84035119,E,0.001,186.5,120325,7.3,W,R,S*5F
$GPGSV,2,1,07,01,45,048,44,02,26,049,40,03,43,105,39,14,80,223,44,1*67
$GPGSV,2,2,07,19,35,288,31,17,62,318,45,22,66,302,42,1*53
$GPGSV,2,1,07,01,45,048,37,02,26,049,31,03,43,105,26,14,80,223,44,4*6E
$GPGSV,2,2,07,19,35,288,29,17,62,318,39,22,66,302,34,4*55
$GPGSV,1,1,03,01,45,048,33,03,43,105,35,14,80,223,41,8*5F
$GLGSV,2,1,06,82,15,046,42,73,66,225,47,74,45,316,40,84,43,262,31,1*78
$GLGSV,2,2,06,67,13,062,32,80,21,169,39,1*77
$GLGSV,1,1,03,82,15,046,38,73,66,225,43,84,43,262,41,3*40
$GBGSV,3,1,12,07,80,339,41,29,73,332,41,10,68,305,39,30,33,060,28,1*70
$GBGSV,3,2,12,40,71,028,44,45,55,244,44,09,26,216,25,01,35,140,35,1*74
$GBGSV,3,3,12,35,24,262,39,03,42,189,37,26,24,312,34,59,35,147,32,1*74
$GBGSV,3,1,12,07,80,339,36,29,73,332,38,10,68,305,34,30,33,060,27,8*75
$GBGSV,3,2,12,40,71,028,39,45,55,244,41,09,26,216,21,01,35,140,34,8*77
$GBGSV,3,3,12,35,24,262,33,03,42,189,30,26,24,312,39,59,35,147,35,8*7A
$GBGSV,2,1,05,07,80,339,39,10,68,305,38,09,26,216,18,01,35,140,37,B*0A
$GBGSV,2,2,05,03,42,189,36,B*30
$GAGSV,2,1,07,10,66,045,38,11,82,220,35,12,41,044,34,16,77,160,38,1*7C
$GAGSV,2,2,07,24,49,142,36,25,73,299,35,02,20,314,36,1*4F
$GAGSV,2,1,07,10,66,045,41,11,82,220,35,12,41,044,33,16,77,160,40,2*79
$GAGSV,2,2,07,24,49,142,38,25,73,299,37,02,20,314,39,2*4F
$GAGSV,2,1,07,10,66,045,46,11,82,220,40,12,41,044,36,16,77,160,45,7*79
$GAGSV,2,2,07,24,49,142,42,25,73,299,42,02,20,314,34,7*48
$GNGGA,063749.00,3959.89023028,N,11628.84035154,E,4,29,0.6,35.4079,M,-8.1143,M,1.0,1828*7D
$GNRMC,063749.00,D,3959.89023028,N,11628.84035154,E,0.003,82.2,120325,7.3,W,R,S*6D
$GPGSV,2,1,07,01,45,048,44,02,26,049,40,03,43,105,40,14,80,223,45,1*68
$GPGSV,2,2,07,19,35,288,31,17,62,318,45,22,66,302,42,1*53
$GPGSV,2,1,07,01,45,048,37,02,26,049,31,03,43,105,26,14,80,223,44,4*6E
$GPGSV,2,2,07,19,35,288,30,17,62,318,39,22,66,302,34,4*5D
$GPGSV,1,1,03,01,45,048,33,03,43,105,35,14,80,223,40,8*5E
$GLGSV,2,1,06,82,15,046,42,73,66,225,47,74,45,316,40,84,43,262,31,1*78
$GLGSV,2,2,06,67,13,062,29,80,21,169,39,1*7D
$GLGSV,1,1,03,82,15,046,37,73,66,225,42,84,43,262,41,3*4E
$GBGSV,3,1,12,07,80,339,41,29,73,332,41,10,68,305,39,30,33,060,27,1*7F
$GBGSV,3,2,12,40,71,028,44,45,55,244,44,09,26,216,25,01,35,140,35,1*74
$GBGSV,3,3,12,35,24,262,40,03,42,189,37,26,24,312,34,59,35,147,33,1*7B
$GBGSV,3,1,12,07,80,339,36,29,73,332,38,10,68,305,34,30,33,060,27,8*75
$GBGSV,3,2,12,40,71,028,39,45,55,244,41,09,26,216,21,01,35,140,34,8*77
$GBGSV,3,3,12,35,24,262,33,03,42,189,31,26,24,312,39,59,35,147,35,8*7B
$GBGSV,2,1,05,07,80,339,39,10,68,305,37,09,26,216,18,01,35,140,37,B*05
$GBGSV,2,2,05,03,42,189,36,B*30
$GAGSV,2,1,07,10,66,045,38,11,82,220,34,12,41,044,35,16,77,160,38,1*7C
$GAGSV,2,2,07,24,49,142,36,25,73,299,35,02,20,314,37,1*4E
$GAGSV,2,1,07,10,66,045,41,11,82,220,35,12,41,044,33,16,77,160,40,2*79
$GAGSV,2,2,07,24,49,142,38,25,73,299,37,02,20,314,39,2*4F
$GAGSV,2,1,07,10,66,045,46,11,82,220,40,12,41,044,36,16,77,160,45,7*79
$GAGSV,2,2,07,24,49,142,42,25,73,299,42,02,20,314,34,7*48
$GNGGA,063750.00,3959.89023402,N,11628.84035157,E,4,29,0.6,35.3931,M,-8.1143,M,1.0,1828*78
$GNRMC,063750.00,D,3959.89023402,N,11628.84035157,E,0.004,109.0,120325,7.3,W,R,S*5D
$GPGSV,2,1,07,01,45,048,43,02,26,049,39,03,43,105,40,14,80,223,44,1*60
$GPGSV,2,2,07,19,35,288,31,17,62,318,45,22,66,302,42,1*53
$GPGSV,2,1,06,01,45,048,31,02,26,049,28,14,80,223,37,19,35,288,28,4*67
$GPGSV,2,2,06,17,62,318,32,22,66,302,32,4*6E
$GPGSV,1,1,03,01,45,048,31,03,43,105,33,14,80,223,39,8*54
$GLGSV,2,1,06,82,15,046,41,73,66,225,47,74,45,316,40,84,43,262,30,1*7A
$GLGSV,2,2,06,67,13,062,27,80,21,169,38,1*72
$GLGSV,1,1,03,82,15,046,35,73,66,225,40,84,43,262,39,3*41
$GBGSV,3,1,12,07,80,339,41,29,73,333,41,10,68,305,39,30,33,060,27,1*7E
$GBGSV,3,2,12,40,71,028,44,45,55,244,44,09,26,216,24,01,35,140,35,1*75
$GBGSV,3,3,12,35,24,262,39,03,42,189,37,26,24,312,33,59,35,147,32,1*73
$GBGSV,3,1,12,07,80,339,35,29,73,333,37,10,68,305,33,30,33,060,26,8*7E
$GBGSV,3,2,12,40,71,028,38,45,55,244,40,09,26,216,21,01,35,140,32,8*71
$GBGSV,3,3,12,35,24,262,31,03,42,189,28,26,24,312,37,59,35,147,34,8*7E
$GBGSV,2,1,05,07,80,339,38,10,68,305,36,09,26,216,18,01,35,140,36,B*04
$GBGSV,2,2,05,03,42,189,35,B*33
$GAGSV,2,1,07,10,66,045,37,11,82,220,33,12,41,044,34,16,77,160,37,1*7A
$GAGSV,2,2,07,24,49,142,35,25,73,299,34,02,20,314,36,1*4D
$GAGSV,2,1,07,10,66,045,40,11,82,220,34,12,41,044,32,16,77,160,39,2*76
$GAGSV,2,2,07,24,49,142,37,25,73,299,36,02,20,314,38,2*40
$GAGSV,2,1,07,10,66,045,45,11,82,220,40,12,41,044,36,16,77,160,44,7*7B
$GAGSV,2,2,07,24,49,142,41,25,73,299,42,02,20,314,34,7*4B
$GNGGA,063751.00,3959.89022793,N,11628.84035114,E,4,29,0.6,35.4011,M,-8.1143,M,1.0,1828*78
$GNRMC,063751.00,D,3959.89022793,N,11628.84035114,E,0.002,61.1,120325,7.3,W,R,S*69
$GPGSV,2,1,07,01,45,048,43,02,26,049,40,03,43,105,41,14,80,223,45,1*6E
$GPGSV,2,2,07,19,35,288,33,17,62,318,45,22,66,302,42,1*51
$GPGSV,2,1,07,01,45,048,35,02,26,049,30,03,43,105,22,14,80,223,41,4*6C
$GPGSV,2,2,07,19,35,288,30,17,62,318,36,22,66,302,33,4*55
$GPGSV,1,1,03,01,45,048,32,03,43,105,34,14,80,223,40,8*5E
$GLGSV,2,1,06,82,15,046,41,73,66,225,47,74,45,315,41,84,43,262,31,1*79
$GLGSV,2,2,06,67,13,062,27,80,21,169,38,1*72
$GLGSV,1,1,03,82,15,046,36,73,66,225,41,84,43,262,40,3*4D
$GBGSV,3,1,12,07,80,339,41,29,73,333,41,10,68,305,39,30,33,060,26,1*7F
$GBGSV,3,2,12,40,71,028,44,45,55,244,45,09,26,216,24,01,35,140,35,1*74
$GBGSV,3,3,12,35,24,262,40,03,42,189,37,26,24,312,34,59,35,147,33,1*7B
$GBGSV,3,1,12,07,80,339,35,29,73,333,37,10,68,305,34,30,33,060,26,8*79
$GBGSV,3,2,12,40,71,028,38,45,55,244,40,09,26,216,21,01,35,140,33,8*70
$GBGSV,3,3,12,35,24,262,32,03,42,189,31,26,24,312,38,59,35,147,34,8*7A
$GBGSV,2,1,05,07,80,339,38,10,68,305,37,09,26,216,18,01,35,140,37,B*04
$GBGSV,2,2,05,03,42,189,36,B*30
$GAGSV,2,1,07,10,66,045,38,11,82,220,33,12,41,044,34,16,77,160,38,1*7A
$GAGSV,2,2,07,24,49,142,36,25,73,299,35,02,20,314,36,1*4F
$GAGSV,2,1,07,10,66,045,40,11,82,220,34,12,41,044,32,16,77,160,40,2*78
$GAGSV,2,2,07,24,49,142,38,25,73,299,37,02,20,314,38,2*4E
$GAGSV,2,1,07,10,66,045,46,11,82,220,40,12,41,044,36,16,77,160,44,7*78
$GAGSV,2,2,07,24,49,142,42,25,73,299,42,02,20,314,34,7*48
$GNGGA,063752.00,3959.89023207,N,11628.84035070,E,4,29,0.6,35.4001,M,-8.1143,M,1.0,1828*70
$GNRMC,063752.00,D,3959.89023207,N,11628.84035070,E,0.004,89.2,120325,7.3,W,R,S*63
$GPGSV,2,1,07,01,45,048,43,02,26,049,40,03,43,105,41,14,80,223,45,1*6E
$GPGSV,2,2,07,19,35,288,34,17,62,318,45,22,66,302,42,1*56
$GPGSV,2,1,07,01,45,048,37,02,26,049,31,03,43,105,25,14,80,223,42,4*6B
$GPGSV,2,2,07,19,35,288,31,17,62,318,38,22,66,302,34,4*5D
$GPGSV,1,1,03,01,45,048,32,03,43,105,35,14,80,223,40,8*5F
$GLGSV,2,1,06,82,15,046,41,73,66,225,47,74,45,315,42,84,43,262,33,1*78
$GLGSV,2,2,06,67,13,062,29,80,21,169,39,1*7D
$GLGSV,1,1,03,82,15,046,37,73,66,225,42,84,43,262,40,3*4F
$GBGSV,3,1,12,07,80,339,41,29,73,333,41,10,68,305,39,30,33,060,28,1*71
$GBGSV,3,2,12,40,71,028,44,45,55,244,45,09,26,216,25,01,35,140,35,1*75
$GBGSV,3,3,12,35,24,262,40,03,42,189,37,26,24,312,34,59,35,147,33,1*7B
$GBGSV,3,1,12,07,80,339,36,29,73,333,38,10,68,305,35,30,33,060,27,8*75
$GBGSV,3,2,12,40,71,028,39,45,55,244,41,09,26,216,21,01,35,140,33,8*70
$GBGSV,3,3,12,35,24,262,33,03,42,189,30,26,24,312,39,59,35,147,35,8*7A
$GBGSV,2,1,05,07,80,339,39,10,68,305,38,09,26,216,18,01,35,140,37,B*0A
$GBGSV,2,2,05,03,42,189,36,B*30
$GAGSV,2,1,07,10,66,045,38,11,82,220,34,12,41,044,34,16,77,160,38,1*7D
$GAGSV,2,2,07,24,49,142,36,25,73,299,35,02,20,314,36,1*4F
$GAGSV,2,1,07,10,66,045,41,11,82,220,35,12,41,044,33,16,77,160,40,2*79
$GAGSV,2,2,07,24,49,142,38,25,73,299,37,02,20,314,39,2*4F
$GAGSV,2,1,07,10,66,045,46,11,82,220,40,12,41,044,36,16,77,160,45,7*79
$GAGSV,2,2,07,24,49,142,42,25,73,299,43,02,20,314,35,7*48
