     3.04           OBSERVATION DATA    M: Mixed            RINEX VERSION / TYPE
RTKCONV demo5 b34k                      20250422 061247 UTC PGM / RUN BY / DATE 
format: RINEX                                               COMMENT             
log: E:\Proj-ES\GNSS-SPP\RTKLIB-py\data\unisoc\20250317\DATACOMMENT             
  04-C\rover.obs                                            COMMENT             
Geo++                                                       MARKER NAME         
                                                            MARKER NUMBER       
                                                            MARKER TYPE         
                                                            OBSERVER / AGENCY   
unknown             UNISOC              uis7865_6h10_go_a32bREC # / TYPE / VERS 
unknown             uis7865_6h10_go_a32b                    ANT # / TYPE        
 -2181996.4924  4380826.0845  4076294.3985                  APPROX POSITION XYZ 
        0.0000        0.0000        0.0000                  ANTENNA: DELTA H/E/N
G    4 C1C L1C D1C S1C                                      SYS / # / OBS TYPES 
E    4 C1C L1C D1C S1C                                      SYS / # / OBS TYPES 
J    4 C1C L1C D1C S1C                                      SYS / # / OBS TYPES 
C    4 C2I L2I D2I S2I                                      SYS / # / OBS TYPES 
  2025    03    17    02    59   13.9944992     GPS         TIME OF FIRST OBS   
  2025    03    17    03    29   11.0003388     GPS         TIME OF LAST OBS    
G L1C                                                       SYS / PHASE SHIFT   
E L1C  0.00000                                              SYS / PHASE SHIFT   
J L1C                                                       SYS / PHASE SHIFT   
C L2I                                                       SYS / PHASE SHIFT   
 24 R01  1 R02 -4 R03  5 R04  6 R05  1 R06 -4 R07  5 R08  6 GLONASS SLOT / FRQ #
    R09 -2 R10 -5 R11  0 R12 -1 R13 -2 R14 -7 R15  0 R16 -1 GLONASS SLOT / FRQ #
    R17  4 R18 -3 R19  3 R20  2 R21  4 R22 -3 R23  3 R24  2 GLONASS SLOT / FRQ #
 C1C    0.000 C1P    0.000 C2C    0.000 C2P    0.000        GLONASS COD/PHS/BIS 
                                                            END OF HEADER       
> 2025 03 17 02 59 13.9944992  0 24                     
C01  38323191.404   199558913.7091         42.405          36.000  
C02  38361450.917   199758141.6691         -7.530          30.000  
C06  36181165.597   188404823.4971       -742.759          29.000  
C07  36169224.564   188342642.8541        231.770          28.000  
C09  36185289.842   188426299.3121       -146.595          26.000  
C10  37243753.283   193937996.6601        334.648          37.000  
C16  36548427.247   190317251.0621       -841.372          39.000  
C26  21889749.439   113985668.8021        975.098          40.000  
C35  21736050.043   113185316.1791       1131.049          33.000  
C40  36045162.950   187696622.3741         56.016          32.000  
C45  23022007.992   119881636.9811      -1979.247          37.000  
E15  25091326.633   131855811.1011       2484.640          40.000  
E27  24098612.475   126639062.8791       1019.596          42.000  
E30  24617841.920   129367632.5081      -1016.165          28.000  
E34  24974237.592   131240504.5191       -122.312          28.000  
G01  23179911.678   121811257.5281       3538.787          44.000  
G02  21429001.708   112610163.1831       2259.122          44.000  
G07  20852102.387   109578536.9151        979.887          32.000  
G08  20038106.804   105300961.1621      -1056.074          42.000  
G16  24053166.636   126400243.0001      -2872.229          30.000  
G27  22095608.825   116113207.2401      -2971.395          39.000  
G30  22647996.515   119016024.3171       2706.888          40.000  
J02  39252539.329   206273486.2541        298.057          36.000  
J03  38060850.518   200011118.7111        -64.728          39.000  
> 2025 03 17 02 59 14.9944381  0 24                     
C01  38323182.391   199558855.725          45.326          36.000  
C02  38361449.100   199758135.093         -13.176          31.000  
C06  36181306.181   188405549.253        -744.264          27.000  
C07  36169177.777   188342395.567         231.494          28.000  
C09  36185317.704   188426428.367        -143.916          25.000  
C10  37243687.910   193937645.855         334.509          37.000  
C16  36548587.018   190318077.203        -841.764          39.000  
C26  21889556.953   113984679.106         972.813          40.000  
C35  21735826.379   113184169.042        1131.401          33.000  
C40  36045154.837   187696550.320          57.221          31.000  
C45  23022383.014   119883602.226       -1981.606          37.000  
E15  25090854.141   131853311.825        2483.641          38.000  
E27  24098415.792   126638028.287        1018.790          41.000  
E30  24618038.265   129368631.349       -1016.152          28.000  
E34  24974251.364   131240610.082        -123.200          27.000  
G01  23179237.726   121807703.846        3537.249          42.000  
G02  21428571.487   112607889.663        2256.139          43.000  
G07  20851914.398   109577541.848         979.399          35.000  
G08  20038305.548   105302001.455       -1058.098          42.000  
G16  24053710.441   126403096.956       -2869.398          31.000  
G27  22096169.119   116116162.199       -2973.552          38.000  
G30  22647479.055   119013302.199        2706.275          40.000  
J02  39252481.151   206273172.716         296.909          35.000  
J03  38060861.292   200011165.406         -65.424          38.000  
> 2025 03 17 02 59 15.9943770  0 24                     
C01  38323172.376   199558801.303          41.433          36.000  
C02  38361440.284   199758137.369         -17.572          33.000  
C06  36181444.264   188406284.488        -748.203          28.000  
C07  36169127.890   188342154.832         228.231          28.000  
C09  36185344.863   188426562.165        -151.504          25.000  
C10  37243620.934   193937302.803         330.214          37.000  
C16  36548747.885   190318909.195        -846.437          39.000  
C26  21889369.761   113983698.080         967.935          37.000  
C35  21735614.004   113183030.395        1125.498          35.000  
C40  36045142.124   187696483.943          51.897          33.000  
C45  23022761.830   119885573.118       -1986.441          38.000  
E15  25090394.138   131850821.155        2478.506          34.000  
E27  24098217.208   126637002.115        1015.036          40.000  
E30  24618223.715   129369636.884       -1020.119          26.000  
E34  24974282.420   131240723.561        -127.617          26.000  
G01  23178563.671   121804157.641        3533.209          39.000  
G02  21428143.261   112605624.993        2250.937          42.000  
G07  20851727.206   109576555.106         972.034          35.000  
G08  20038504.788   105303050.631       -1063.616          43.000  
G16  24054255.642   126405955.931       -2874.667          32.000  
G27  22096730.808   116119125.344       -2978.143          38.000  
G30  22646964.789   119010588.131        2699.754          40.000  
J02  39252421.370   206272866.544         292.517          36.000  
J03  38060871.064   200011223.055         -72.210          36.000  
> 2025 03 17 02 59 16.9943160  0 24                     
C01  38323193.989   199558905.387          37.425          36.000  
C02  38361466.094   199758299.183         -24.732          32.000  
C06  36181610.077   188407173.758        -751.536          29.000  
C07  36169109.031   188342070.417         224.344          27.000  
C09  36185403.051   188426855.365        -152.319          26.000  
C10  37243587.086   193937116.519         328.333          37.000  
C16  36548939.180   190319899.927        -849.621          39.000  
C26  21889212.098   113982874.340         964.672          35.000  
C35  21735426.062   113182048.747        1122.395          37.000  
C40  36045165.536   187696576.788          47.192          33.000  
C45  23023171.374   119887703.691       -1990.461          38.000  
E15  25089952.871   131848489.743        2473.599          31.000  
E27  24098053.249   126636134.112        1011.255          41.000  
E30  24618453.983   129370801.299       -1024.647          26.000  
E34  24974350.801   131240995.806        -132.758          25.000  
G01  23177920.344   121800770.861        3527.683          38.000  
G02  21427746.064   112603518.857        2249.862          42.000  
G07  20851571.342   109575728.462         970.477          35.000  
G08  20038736.856   105304258.120       -1064.887          42.000  
G16  24054833.969   126408976.613       -2880.791          33.000  
G27  22097325.025   116122247.648       -2981.729          38.000  
G30  22646480.352   119008033.595        2696.137          40.000  
J02  39252393.518   206272719.002         290.396          35.000  
J03  38060913.662   200011438.725         -71.198          35.000  
> 2025 03 17 02 59 17.9942549  0 24                     
C01  38323185.408   199558855.331          39.186          35.000  
C02  38361469.804   199758309.931         -24.958          32.000  
C06  36181748.394   188407913.255        -752.239          29.000  
C07  36169064.175   188341834.124         222.067          27.000  
C09  36185430.744   188426994.237        -152.632          27.000  
C10  37243522.443   193936775.628         328.011          37.000  
C16  36549100.581   190320734.631        -848.903          39.000  
C26  21889026.039   113981895.600         965.160          35.000  
C35  21735207.326   113180912.739        1122.605          37.000  
C40  36045151.857   187696515.622          48.089          32.000  
C45  23023548.626   119889678.008       -1989.459          38.000  
E15  25089476.314   131846002.002        2475.699          32.000  
E27  24097858.497   126635109.780        1011.384          41.000  
E30  24618646.563   129371811.305       -1025.945          24.000  
E34  24974390.186   131241116.660        -130.980          23.000  
G01  23177246.223   121797228.339        3529.535          38.000  
G02  21427318.673   112601255.918        2248.747          42.000  
G07  20851384.983   109574744.830         969.886          34.000  
G08  20038938.728   105305309.646       -1065.318          42.000  
G16  24055382.402   126411841.304       -2877.948          33.000  
G27  22097889.946   116125214.407       -2981.056          38.000  
G30  22645966.021   119005322.627        2696.812          39.000  
J02  39252334.571   206272415.685         290.682          35.000  
J03  38060926.666   200011494.321         -71.623          35.000  
> 2025 03 17 02 59 40.5224899  0 25                     
C01  38323145.264   199558674.086          43.843          31.000  
C02  38361703.970   199759459.364         -11.585          31.000  
C06  36185125.284   188425442.764        -749.289          31.000  
C07  36168229.880   188337463.388         226.703          33.000  
C09  36186203.937   188431059.601        -150.833          28.000  
C10  37242229.766   193930063.354         329.832          34.000  
C16  36552901.678   190340551.072        -849.063          42.000  
C26  21884999.555   113960935.361         962.290          34.000  
C29  23282674.565   121238996.2351      -2239.147          39.000  
C35  21730502.111   113156426.087        1116.212          30.000  
C40  36045052.954   187696049.535          53.551          30.000  
C45  23032307.091   119935267.003       -1992.237          40.000  
E15  25078989.602   131790979.961        2473.913          39.000  
E27  24093657.833   126613026.325        1013.831          40.000  
E30  24623176.754   129395667.605       -1021.815          33.000  
E34  24975096.226   131245016.445        -137.983          34.000  
G01  23162232.345   121718352.008        3530.307          46.000  
G02  21417825.473   112551431.686        2241.056          45.000  
G07  20847375.887   109553699.164         962.128          31.000  
G08  20043643.100   105330055.250       -1072.769          37.000  
G16  24067861.291   126477464.276       -2874.819          32.000  
G27  22110811.629   116193098.352       -2980.582          41.000  
G30  22634527.468   118945244.063        2695.138          29.000  
J02  39251204.981   206266473.574         297.555          30.000  
J03  38061364.990   200013822.057         -70.129          38.000  
> 2025 03 17 02 59 41.5224288  0 25                     
C01  38323131.707   199558616.526          43.478          33.000  
C02  38361696.709   199759458.105         -17.185          33.000  
C06  36185268.819   188426177.895        -749.331          34.000  
C07  36168185.446   188337221.667         229.171          33.000  
C09  36186232.052   188431196.450        -151.927          27.000  
C10  37242160.748   193929717.621         332.411          33.000  
C16  36553062.001   190341383.966        -846.949          42.000  
C26  21884814.817   113959958.583         962.902          32.000  
C29  23283103.502   121241219.942       -2238.542          38.000  
C35  21730286.795   113155296.021        1116.181          28.000  
C40  36045042.096   187695983.001          51.935          29.000  
C45  23032684.164   119937242.540       -1990.269          39.000  
E15  25078525.757   131788492.302        2473.567          38.000  
E27  24093458.105   126611999.310        1013.214          38.000  
E30  24623375.151   129396673.548       -1021.806          31.000  
E34  24975124.341   131245141.006        -138.727          34.000  
G01  23161558.346   121714806.318        3532.092          46.000  
G02  21417397.004   112549174.858        2243.240          43.000  
G07  20847191.149   109552722.700         962.449          30.000  
G08  20043843.895   105331109.899       -1070.494          36.000  
G16  24068406.848   126480323.593       -2873.864          32.000  
G27  22111376.972   116196062.796       -2979.073          40.000  
G30  22634012.359   118942535.827        2694.437          32.000  
J02  39251145.857   206266161.093         297.508          29.000  
J03  38061375.417   200013875.033         -67.930          36.000  
> 2025 03 17 02 59 42.5223678  0 25                     
C01  38323182.691   199558717.061          42.908          31.000  
C02  38361732.703   199759619.862         -22.546          34.000  
C06  36185442.717   188427069.174        -750.349          34.000  
C07  36168166.877   188337136.740         227.281          32.000  
C09  36186296.227   188431490.939        -152.510          28.000  
C10  37242124.192   193929528.988         331.486          35.000  
C16  36553255.086   190342373.032        -850.056          42.000  
C26  21884659.244   113959140.208         959.867          35.000  
C29  23283558.606   121243600.648       -2239.964          39.000  
C35  21730090.450   113154324.126        1113.822          32.000  
C40  36045064.299   187696074.278          53.899          28.000  
C45  23033090.102   119939376.330       -1992.441          38.000  
E15  25078084.482   131786165.030        2472.846          35.000  
E27  24093298.035   126611131.370        1012.865          36.000  
E30  24623592.520   129397839.418       -1022.848          28.000  
E34  24975178.622   131245424.423        -140.804          31.000  
G01  23160916.809   121711420.265        3528.504          47.000  
G02  21416997.699   112547078.388        2239.250          43.000  
G07  20847035.276   109551906.633         959.457          32.000  
G08  20044075.354   105332324.967       -1072.723          36.000  
G16  24068980.969   126483342.288       -2873.558          31.000  
G27  22111972.678   116199187.239       -2982.400          41.000  
G30  22633529.112   118939986.341        2693.027          31.000  
J02  39251117.395   206266008.709         296.907          30.000  
J03  38061416.508   200014088.060         -70.529          36.000  
> 2025 03 17 02 59 43.5223067  0 25                     
C01  38323196.050   199558938.185          41.711          29.000  
C02  38361737.369   199759624.680         -23.703          34.000  
C06  36185586.786   188427804.367        -752.420          33.000  
C07  36168120.878   188336894.478         224.506          30.000  
C09  36186329.372   188431627.977        -154.038          30.000  
C10  37242058.706   193929183.903         328.899          37.000  
C16  36553416.843   190343206.641        -850.578          40.000  
C26  21884468.145   113958166.131         957.898          36.000  
C29  23283977.285   121245825.096       -2243.089          37.000  
C35  21729875.667   113153196.367        1111.042          33.000  
C40  36045050.078   187696006.356          50.014          29.000  
C45  23033473.705   119941354.107       -1995.345          39.000  
E15  25077611.578   131783679.053        2469.793          34.000  
E27  24093102.139   126610104.942        1010.493          36.000  
E30  24623793.549   129398847.498       -1023.648          28.000  
E34  24975204.273   131245552.433        -143.534          28.000  
G01  23160245.443   121707876.581        3528.495          47.000  
G02  21416569.464   112544824.423        2237.876          43.000  
G07  20846846.875   109550931.646         958.157          37.000  
G08  20044277.882   105333384.902       -1075.774          38.000  
G16  24069523.163   126486200.886       -2876.563          30.000  
G27  22112538.555   116202152.365       -2983.067          41.000  
G30  22633018.734   118937279.853        2689.351          32.000  
J02  39251056.706   206265697.500         293.916          32.000  
J03  38061427.169   200014144.756         -72.717          35.000  
> 2025 03 17 02 59 44.5222456  0 25                     
C01  38323171.730   199558881.681          44.057          30.000  
C02  38361741.828   199759630.602         -19.905          42.000  
C06  36185730.649   188428539.372        -750.212          33.000  
C07  36168075.871   188336653.628         228.464          31.000  
C09  36186357.815   188431765.674        -151.660          29.000  
C10  37241994.813   193928837.807         333.238          37.000  
C16  36553577.494   190344039.912        -846.349          40.000  
C26  21884279.538   113957191.906         961.667          36.000  
C29  23284408.049   121248048.329       -2238.129          40.000  
C35  21729659.479   113152068.880        1115.594          32.000  
C40  36045039.548   187695941.531          51.016          26.000  
C45  23033851.106   119943331.243       -1991.003          39.000  
E15  25077135.470   131781193.370        2473.008          33.000  
E27  24092910.834   126609079.120        1012.736          35.000  
E30  24623991.375   129399856.005       -1021.941          26.000  
E34  24975234.814   131245679.351        -139.100          28.000  
G01  23159573.570   121704330.864        3531.551          47.000  
G02  21416140.124   112542570.116        2241.437          42.000  
G07  20846660.966   109549957.422         961.134          38.000  
G08  20044481.404   105334442.436       -1071.182          40.000  
G16  24070069.047   126489060.171       -2874.838          31.000  
G27  22113103.626   116205117.112       -2978.991          42.000  
G30  22632508.450   118934574.382        2692.547          31.000  
J02  39250999.108   206265389.766         295.766          30.000  
J03  38061440.622   200014198.667         -68.816          36.000  
> 2025 03 17 02 59 45.5221845  0 25                     
C01  38323151.503   199558824.705          44.634          30.000  
C02  38361744.086   199759637.429         -17.323          38.000  
C06  36185873.810   188429275.625        -748.302          36.000  
C07  36168029.563   188336411.686         229.939          28.000  
C09  36186384.056   188431902.411        -150.027          30.000  
C10  37241929.318   193928492.257         332.914          37.000  
C16  36553740.441   190344873.866        -847.757          41.000  
C26  21884095.025   113956218.043         960.734          37.000  
C29  23284840.209   121250273.144       -2238.459          41.000  
C35  21729438.092   113150940.237        1115.819          33.000  
C40  36045017.223   187695876.611          53.749          33.000  
C45  23034235.599   119945308.940       -1991.609          42.000  
E15  25076651.764   131778707.797        2472.278          35.000  
E27  24092717.028   126608052.908        1012.814          37.000  
E30  24624182.202   129400863.864       -1021.771          29.000  
E34  24975252.361   131245803.339        -140.659          29.000  
G01  23158900.695   121700787.415        3531.399          47.000  
G02  21415712.180   112540316.395        2240.555          42.000  
G07  20846475.854   109548983.261         960.648          36.000  
G08  20044683.923   105335499.779       -1072.428          43.000  
G16  24070608.233   126491921.011       -2873.719          34.000  
G27  22113666.496   116208082.596       -2980.643          40.000  
G30  22631994.465   118931869.091        2692.112          32.000  
J02  39250939.908   206265078.345         299.518          34.000  
J03  38061453.373   200014253.700         -68.425          35.000  
> 2025 03 17 02 59 46.5221235  0 25                     
C01  38323162.783   199558923.004          44.400          29.000  
C02  38361777.550   199759793.525         -13.191          36.000  
C06  36186046.378   188430165.670        -747.176          36.000  
C07  36168015.960   188336324.433         230.564          27.000  
C09  36186443.902   188432193.382        -148.201          30.000  
C10  37241893.830   193928301.605         333.773          36.000  
C16  36553931.596   190345862.834        -845.869          41.000  
C26  21883936.322   113955399.043         962.786          35.000  
C29  23285297.280   121252653.425       -2237.075          42.000  
C35  21729254.506   113149966.334        1117.791          33.000  
C40  36045028.802   187695964.247          56.489          32.000  
C45  23034645.303   119947440.333       -1989.661          42.000  
E15  25076219.651   131776378.764        2473.648          38.000  
E27  24092547.832   126607182.977        1014.803          37.000  
E30  24624403.936   129402026.814       -1019.675          24.000  
E34  24975301.715   131246086.865        -138.065          28.000  
G01  23158256.929   121697399.369        3533.914          47.000  
G02  21415314.542   112538218.707        2242.425          45.000  
G07  20846320.749   109548166.260         962.136          36.000  
G08  20044918.848   105336714.525       -1070.528          42.000  
G16  24071178.926   126494937.077       -2871.637          35.000  
G27  22114262.971   116211205.389       -2978.133          42.000  
G30  22631513.186   118929320.417        2693.658          28.000  
J02  39250909.217   206264920.862         301.433          36.000  
J03  38061494.032   200014464.354         -66.331          39.000  
> 2025 03 17 02 59 47.5220624  0 25                     
C01  38323141.947   199558865.435          43.735          31.000  
C02  38361779.499   199759792.043         -16.713          34.000  
C06  36186192.227   188430897.093        -746.635          36.000  
C07  36167971.141   188336080.346         231.166          26.000  
C09  36186467.736   188432327.418        -147.946          30.000  
C10  37241825.027   193927952.955         335.454          35.000  
C16  36554093.034   190346691.956        -845.678          41.000  
C26  21883751.500   113954423.444         961.843          34.000  
C29  23285725.234   121254875.982       -2238.418          41.000  
C35  21729038.506   113148836.432        1114.661          36.000  
C40  36045018.459   187695894.458          55.489          33.000  
C45  23035027.089   119949417.652       -1991.538          44.000  
E15  25075742.231   131773890.913        2474.405          38.000  
E27  24092353.417   126606153.225        1016.164          37.000  
E30  24624604.048   129403032.443       -1019.963          22.000  
E34  24975327.946   131246209.316        -137.246          24.000  
G01  23157582.545   121693852.825        3532.584          46.000  
G02  21414886.289   112535963.785        2240.437          45.000  
G07  20846136.526   109547190.788         960.556          35.000  
G08  20045123.156   105337769.783       -1071.650          43.000  
G16  24071719.901   126497793.699       -2870.834          35.000  
G27  22114827.929   116214168.532       -2979.143          41.000  
G30  22631001.590   118926613.140        2694.311          30.000  
J02  39250848.509   206264606.467         300.357          34.000  
J03  38061503.775   200014516.157         -66.754          42.000  
> 2025 03 17 02 59 48.5220013  0 25                     
C01  38323140.045   199558805.752          44.099          32.000  
C02  38361779.696   199759794.069         -16.254          34.000  
C06  36186336.324   188431628.877        -750.398          36.000  
C07  36167923.970   188335834.218         229.291          26.000  
C09  36186498.212   188432459.059        -150.507          31.000  
C10  37241759.569   193927603.963         331.900          35.000  
C16  36554252.721   190347524.355        -848.870          41.000  
C26  21883566.725   113953446.853         959.834          32.000  
C29  23286152.635   121257099.468       -2240.297          41.000  
C35  21728819.255   113147706.643        1113.168          34.000  
C40  36045005.465   187695823.448          54.136          33.000  
C45  23035406.523   119951392.585       -1993.093          43.000  
E15  25075264.858   131771403.321        2471.760          39.000  
E27  24092159.648   126605124.055        1012.048          37.000  
E30  24624810.801   129404036.8291      -1020.838          20.000  
E34  24975341.934   131246331.184        -140.522          27.000  
G01  23156908.809   121690305.472        3530.231          46.000  
G02  21414456.583   112533707.608        2238.545          45.000  
G07  20845952.950   109546214.992         958.433          36.000  
G08  20045327.512   105338824.909       -1074.684          43.000  
G16  24072262.722   126500649.151       -2875.669          31.000  
G27  22115394.134   116217131.856       -2980.431          41.000  
G30  22630490.940   118923904.350        2692.372          30.000  
J02  39250789.647   206264290.308         298.937          31.000  
J03  38061513.566   200014566.082         -69.144          45.000  
> 2025 03 17 02 59 49.5219402  0 25                     
C01  38323134.405   199558751.041          44.815          33.000  
C02  38361783.349   199759799.682         -16.997          34.000  
C06  36186479.081   188432366.914        -747.001          35.000  
C07  36167880.257   188335594.096         230.032          25.000  
C09  36186526.149   188432598.966        -149.594          32.000  
C10  37241692.472   193927260.145         335.464          36.000  
C16  36554415.264   190348358.351        -844.628          41.000  
C26  21883385.407   113952476.255         961.277          33.000  
C29  23286585.292   121259325.554       -2237.870          42.000  
C35  21728605.559   113146581.998        1115.909          35.000  
C40  36044998.026   187695757.609          57.478          34.000  
C45  23035787.615   119953371.451       -1990.679          44.000  
E15  25074789.744   131768919.950        2473.092          37.000  
E27  24091969.936   126604099.139        1015.121          37.000  
E30  24625013.217   129405317.445       -1020.752          25.000  
E34  24975371.669   131246460.226        -141.353          25.000  
G01  23156235.531   121686762.992        3533.575          45.000  
G02  21414027.936   112531457.736        2241.205          45.000  
G07  20845768.634   109545246.178         959.863          36.000  
G08  20045531.427   105339886.288       -1071.206          42.000  
G16  24072807.202   126503512.049       -2872.717          31.000  
G27  22115959.899   116220098.660       -2977.735          40.000  
G30  22629974.154   118921201.320        2692.934          28.000  
J02  39250730.644   206263980.116         301.439          32.000  
J03  38061523.815   200014622.910         -66.154          44.000  
> 2025 03 17 02 59 51.3218303  0 25                     
C01  38323152.374   199558773.447          42.235          32.000  
C02  38361811.811   199759929.024         -19.316          33.000  
C06  36186756.970   188433810.668        -751.488          35.000  
C07  36167822.978   188335279.283         229.531          22.000  
C09  36186597.480   188432964.994        -150.760          31.000  
C10  37241597.119   193926758.863         331.866          34.000  
C16  36554731.227   190349981.389        -849.791          41.000  
C26  21883075.403   113950843.848         960.775          31.000  
C29  23287377.625   121263455.295       -2241.073          41.000  
C35  21728243.691   113144674.259        1113.883          36.000  
C40  36044995.010   187695759.870          51.111          33.000  
C45  23036496.006   119957055.388       -1993.646          44.000  
E15  25073958.400   131764570.475        2470.628          38.000  
E27  24091639.246   126602374.653        1012.311          38.000  
E30  24625389.738   129407249.6351      -1019.946          20.000  
E34  24975437.305   131246812.403        -143.332          26.000  
G01  23155047.135   121680507.423        3529.552          45.000  
G02  21413280.835   112527527.153        2238.173          45.000  
G07  20845464.026   109543620.096         958.184          37.000  
G08  20045919.339   105341915.475       -1075.174          42.000  
G16  24073812.087   126508778.877       -2874.979          29.000  
G27  22117001.959   116225559.947       -2980.992          41.000  
G30  22629068.163   118916453.273        2690.679          28.000  
J02  39250647.283   206263537.167         300.911          32.000  
J03  38061567.566   200014841.767         -68.854          44.000  
> 2025 03 17 02 59 52.2217754  0 25                     
C01  38323157.490   199558864.950          40.625          32.000  
C02  38361841.809   199760073.660         -21.048          31.000  
C06  36186911.982   188434614.388        -749.358          34.000  
C07  36167809.206   188335200.448         230.206          26.000  
C09  36186647.265   188433226.608        -149.989          30.000  
C10  37241566.859   193926587.161         333.364          35.000  
C16  36554902.727   190350871.919        -847.237          41.000  
C26  21882930.322   113950108.107         959.076          30.000  
C29  23287790.158   121265597.429       -2238.767          41.000  
C35  21728077.025   113143799.378        1114.782          35.000  
C40  36045009.718   187695839.599          56.863          30.000  
C45  23036865.669   119958976.324       -1991.906          43.000  
E15  25073566.890   131762476.764        2470.880          39.000  
E27  24091498.362   126601591.876        1013.736          38.000  
E30  24625590.018   129408299.564       -1022.696          21.000  
E34  24975496.083   131247071.396        -143.866          27.000  
G01  23154467.955   121677457.956        3532.536          45.000  
G02  21412922.602   112525640.580        2239.652          45.000  
G07  20845326.740   109542886.590         958.603          38.000  
G08  20046127.714   105343011.487       -1073.838          43.000  
G16  24074328.948   126511494.391       -2875.034          28.000  
G27  22117536.208   116228369.444       -2978.209          40.000  
G30  22628637.979   118914160.782        2691.931          26.000  
J02  39250619.721   206263395.079         301.319          30.000  
J03  38061605.058   200015029.636         -67.560          45.000  
> 2025 03 17 02 59 53.1217204  0 25                     
C01  38323142.725   199558801.090          41.069          29.000  
C02  38361842.034   199760065.136         -18.859          33.000  
C06  36187038.119   188435259.543        -751.014          35.000  
C07  36167765.361   188334966.874         228.672          27.000  
C09  36186668.475   188433335.123        -151.521          31.000  
C10  37241510.723   193926261.587         330.078          35.000  
C16  36555046.552   190351608.044        -850.894          41.000  
C26  21882759.665   113949218.875         958.312          31.000  
C29  23288173.817   121267584.552       -2243.686          41.000  
C35  21727881.185   113142771.332        1110.495          35.000  
C40  36044992.855   187695760.922          56.714          30.000  
C45  23037207.358   119960741.861       -1994.886          44.000  
E15  25073140.211   131760226.957        2469.643          40.000  
E27  24091314.215   126600653.442        1012.570          38.000  
E30  24625760.225   129409190.748       -1023.046          23.000  
E34  24975512.197   131247172.257        -144.342          25.000  
G01  23153859.601   121674253.641        3529.009          45.000  
G02  21412536.094   112523600.491        2234.675          46.000  
G07  20845157.582   109541999.028         953.412          38.000  
G08  20046307.215   105343951.363       -1078.206          42.000  
G16  24074812.738   126514054.113       -2876.040          29.000  
G27  22118041.883   116231022.565       -2982.592          41.000  
G30  22628169.329   118911711.255        2690.889          27.000  
J02  39250563.884   206263097.854         299.009          33.000  
J03  38061612.778   200015065.010         -71.992          46.000  
> 2025 03 17 02 59 54.0216654  0 25                     
C01  38323134.190   199558740.077          33.307          26.000  
C02  38361838.296   199760053.065         -19.202          34.000  
C06  36187163.592   188435906.809        -752.620          35.000  
C07  36167722.950   188334733.079         227.492          30.000  
C09  36186687.521   188433442.286        -152.211          31.000  
C10  37241451.523   193925935.668         331.208          36.000  
C16  36555189.413   190352342.721        -850.517          42.000  
C26  21882588.343   113948327.912         957.723          30.000  
C29  23288558.610   121269575.566       -2243.139          43.000  
C35  21727683.182   113141743.912        1109.085          37.000  
C40  36044983.721   187695683.471          51.855          33.000  
C45  23037547.481   119962508.081       -1995.921          45.000  
E15  25072708.969   131757976.991        2468.641          39.000  
E27  24091136.597   126599714.027        1011.748          40.000  
E30  24625855.119   129409742.113       -1024.205          24.000  
E34  24975544.134   131247273.252        -146.086          22.000  
G01  23153250.282   121671049.053        3528.632          45.000  
G02  21412150.420   112521560.157        2234.345          47.000  
G07  20844990.757   109541112.682         952.315          38.000  
G08  20046487.849   105344891.053       -1077.722          41.000  
G16  24075292.865   126516611.887       -2877.115          28.000  
G27  22118546.892   116233677.705       -2983.356          41.000  
G30  22627702.112   118909261.569        2689.246          31.000  
J02  39250507.083   206262800.584         297.790          32.000  
J03  38061621.332   200015099.171         -70.662          47.000  
> 2025 03 17 02 59 54.9996057  0 25                     
C01  38323151.203   199558783.085          31.160          24.000  
C02  38361856.208   199760144.002         -19.560          35.000  
C06  36187319.109   188436715.275        -750.435          34.000  
C07  36167696.793   188334584.700         227.378          30.000  
C09  36186732.715   188433664.238        -152.422          31.000  
C10  37241405.280   193925684.208         332.169          37.000  
C16  36555365.616   190353247.318        -849.615          42.000  
C26  21882430.277   113947466.071         956.597          30.000  
C29  23288992.934   121271841.480       -2242.552          43.000  
C35  21727485.843   113140732.583        1110.137          35.000  
C40  36044991.141   187695706.544          52.840          35.000  
C45  23037938.036   119964533.254       -1995.631          47.000  
E15  25072266.400   131755636.304        2469.395          40.000  
E27  24090965.041   126598798.715        1012.314          41.000  
E30  24626068.796   129410815.991       -1024.203          25.000  
E34  24975585.131   131247488.382        -146.572          26.000  
G01  23152608.052   121667672.597        3528.859          45.000  
G02  21411750.722   112519449.011        2235.499          46.000  
G07  20844829.993   109540254.557         954.929          37.000  
G08  20046701.826   105346016.598       -1076.285          40.000  
G16  24075836.314   126519498.684       -2876.298          29.000  
G27  22119116.423   116236668.383       -2982.360          41.000  
G30  22627213.675   118906705.828        2690.129          31.000  
J02  39250468.635   206262583.710         298.819          28.000  
J03  38061649.737   200015239.687         -69.311          47.000  
> 2025 03 17 02 59 55.9995446  0 25                     
C01  38323138.040   199558737.074          32.276          27.000  
C02  38361858.635   199760147.392         -18.820          34.000  
C06  36187457.042   188437451.172        -751.993          34.000  
C07  36167650.054   188334343.874         227.540          31.000  
C09  36186757.926   188433802.239        -153.106          32.000  
C10  37241340.553   193925339.527         330.703          37.000  
C16  36555526.932   190354081.902        -851.016          41.000  
C26  21882246.533   113946495.658         956.069          31.000  
C29  23289428.261   121274069.350       -2244.288          43.000  
C35  21727276.316   113139609.495        1108.959          35.000  
C40  36044977.978   187695640.304          51.725          35.000  
C45  23038322.398   119966514.301       -1997.043          45.000  
E15  25071799.951   131753154.413        2468.326          41.000  
E27  24090772.302   126597773.732        1011.308          41.000  
E30  24626273.582   129411826.084       -1025.028          23.000  
E34  24975601.947   131247620.154        -146.582          28.000  
G01  23151935.645   121664129.781        3527.208          46.000  
G02  21411324.745   112517200.836        2233.638          45.000  
G07  20844648.947   109539287.581         952.793          38.000  
G08  20046905.713   105347079.589       -1078.436          41.000  
G16  24076381.964   126522360.456       -2877.175          27.000  
G27  22119683.359   116239636.001       -2983.189          42.000  
G30  22626701.657   118904003.206        2688.728          28.000  
J02  39250410.503   206262271.163         299.352          32.000  
J03  38061662.057   200015294.072         -70.725          47.000  
> 2025 03 17 02 59 56.9994836  0 25                     
C01  38323159.138   199558846.279          39.516          26.000  
C02  38361892.324   199760309.038         -18.628          33.000  
C06  36187631.034   188438344.078        -750.330          34.000  
C07  36167637.275   188334258.401         228.647          30.000  
C09  36186817.397   188434096.836        -152.428          32.000  
C10  37241305.590   193925150.242         333.497          37.000  
C16  36555720.711   190355073.715        -849.461          41.000  
C26  21882091.952   113945681.815         957.164          33.000  
C29  23289888.255   121276453.500       -2242.117          42.000  
C35  21727091.457   113138642.641        1109.597          35.000  
C40  36044996.378   187695731.190          53.309          36.000  
C45  23038734.126   119968652.197       -1994.879          46.000  
E15  25071358.169   131750829.480        2468.900          41.000  
E27  24090605.730   126596906.160        1011.295          40.000  
E30  24626511.130   129412994.824       -1022.804          26.000  
E34  24975661.719   131247910.486        -145.505          27.000  
G01  23151293.003   121660745.630        3529.764          46.000  
G02  21410928.532   112515109.940        2235.023          46.000  
G07  20844496.165   109538477.613         954.030          37.000  
G08  20047138.464   105348299.342       -1077.699          42.000  
G16  24076955.880   126525382.374       -2876.349          26.000  
G27  22120279.459   116242760.899       -2982.297          44.000  
G30  22626223.901   118901457.986        2689.917          30.000  
J02  39250381.236   206262114.769         301.186          31.000  
J03  38061704.140   200015505.995         -68.980          47.000  
> 2025 03 17 02 59 58.0004224  0 25                     
C01  38323147.400   199558733.824          38.977          26.000  
C02  38361882.384   199760249.353         -13.877          33.000  
C06  36187762.596   188439021.452        -751.544          35.000  
C07  36167580.567   188333956.354         228.209          30.000  
C09  36186835.937   188434175.375        -152.914          34.000  
C10  37241226.098   193924744.751         330.553          37.000  
C16  36555869.960   190355851.651        -850.364          41.000  
C26  21881889.546   113944650.528         955.840          36.000  
C29  23290307.018   121278623.803       -2243.926          42.000  
C35  21726859.970   113137458.555        1109.521          32.000  
C40  36044975.645   187695604.842          52.815          37.000  
C45  23039104.622   119970575.730       -1996.676          45.000  
E15  25070878.155   131748285.650        2467.560          41.000  
E27  24090401.525   126595820.142        1010.937          40.000  
E30  24626705.949   129414213.284       -1024.433          24.000  
E34  24975669.466   131247982.275        -147.517          27.000  
G01  23150607.630   121657139.104        3528.083          46.000  
G02  21410490.488   112512799.422        2232.874          45.000  
G07  20844301.253   109537449.890         950.824          36.000  
G08  20047330.285   105349303.752       -1078.716          42.000  
G16  24077488.264   126528184.876       -2875.568          27.000  
G27  22120834.927   116245670.468       -2982.838          44.000  
G30  22625707.911   118898692.267        2688.410          28.000  
J02  39250312.836   206261740.069         298.523          31.000  
J03  38061704.992   200015501.948         -70.428          47.000  
> 2025 03 17 02 59 59.0003614  0 25                     
C01  38323176.789   199558830.410          49.955          23.000  
C02  38361915.370   199760404.718         -15.741          33.000  
C06  36187930.789   188439913.307        -750.726          34.000  
C07  36167567.086   188333869.469         227.540          30.000  
C09  36186894.706   188434467.771        -152.920          34.000  
C10  37241193.130   193924555.342         330.719          38.000  
C16  36556061.237   190356840.695        -850.164          42.000  
C26  21881734.262   113943836.057         955.789          36.000  
C29  23290768.408   121281007.391       -2243.241          42.000  
C35  21726675.607   113136491.291        1107.484          32.000  
C40  36044991.543   187695693.186          52.765          36.000  
C45  23039515.347   119972710.393       -1996.319          47.000  
E15  25070434.771   131745960.189        2467.646          41.000  
E27  24090239.046   126594951.079        1011.179          40.000  
E30  24626942.195   129415379.335       -1024.759          26.000  
E34  24975727.036   131248270.747        -148.045          24.000  
G01  23149964.585   121653753.127        3528.773          46.000  
G02  21410092.973   112510709.041        2232.683          46.000  
G07  20844148.068   109536641.490         950.883          37.000  
G08  20047562.933   105350525.068       -1079.286          43.000  
G16  24078062.976   126531200.145       -2875.585          26.000  
G27  22121430.324   116248794.007       -2983.219          44.000  
G30  22625222.856   118896146.933        2688.091          31.000  
J02  39250282.267   206261583.367         299.207          28.000  
J03  38061746.973   200015714.231         -69.997          48.000  
> 2025 03 17 03 00 00.0003003  0 25                     
C01  38323171.327   199558766.288          52.994          24.000  
C02  38361918.902   199760408.166         -19.188          33.000  
C06  36188073.424   188440650.450        -750.825          33.000  
C07  36167518.754   188333629.246         227.877          30.000  
C09  36186921.022   188434606.754        -151.399          34.000  
C10  37241129.509   193924210.585         332.630          38.000  
C16  36556223.060   190357677.391        -849.170          42.000  
C26  21881547.126   113942867.862         955.110          34.000  
C29  23291203.941   121283237.976       -2243.830          39.000  
C35  21726466.287   113135371.454        1107.402          35.000  
C40  36044980.086   187695626.853          54.197          35.000  
C45  23039896.918   119974693.811       -1997.259          48.000  
E15  25069962.832   131743479.184        2467.911          41.000  
E27  24090045.914   126593926.533        1011.714          40.000  
E30  24627134.896   129416390.423       -1024.590          28.000  
E34  24975757.849   131248405.966        -149.476          21.000  
G01  23149292.385   121650211.895        3528.598          46.000  
G02  21409666.303   112508464.059        2232.353          46.000  
G07  20843966.628   109535677.982         950.822          38.000  
G08  20047765.827   105351590.065       -1078.553          43.000  
G16  24078608.532   126534062.290       -2875.846          25.000  
G27  22121997.166   116251764.251       -2983.961          42.000  
G30  22624711.345   118893447.072        2686.544          31.000  
J02  39250224.941   206261270.841         299.476          28.000  
J03  38061758.299   200015770.432         -69.706          47.000  
> 2025 03 17 03 00 01.0002392  0 25                     
C01  38323151.522   199558698.309          56.209          25.000  
C02  38361920.982   199760410.744         -18.946          34.000  
C06  36188218.805   188441386.416        -752.241          33.000  
C07  36167470.768   188333386.813         229.125          30.000  
C09  36186947.685   188434743.855        -152.813          33.000  
C10  37241062.037   193923863.125         332.990          37.000  
C16  36556385.528   190358510.837        -850.035          42.000  
C26  21881354.941   113941899.711         954.047          32.000  
C29  23291632.326   121285466.642       -2244.314          40.000  
C35  21726253.415   113134249.922        1107.040          35.000  
C40  36044972.272   187695558.757          52.556          34.000  
C45  23040277.036   119976675.552       -1997.040          47.000  
E15  25069491.240   131740996.883        2468.410          40.000  
E27  24089851.930   126592900.063        1012.408          39.000  
E30  24627318.949   129417399.103       -1023.524          26.000  
E34  24975778.816   131248539.568        -145.981          25.000  
G01  23148618.732   121646669.363        3528.693          45.000  
G02  21409239.080   112506217.101        2232.618          46.000  
G07  20843784.036   109534712.163         952.067          39.000  
G08  20047969.067   105352652.844       -1078.650          42.000  
G16  24079158.933   126536923.611       -2875.139          28.000  
G27  22122563.456   116254733.670       -2983.189          41.000  
G30  22624196.282   118890746.879        2687.455          33.000  
J02  39250165.563   206260957.356         299.122          30.000  
J03  38061770.272   200015822.636         -68.730          47.000  
> 2025 03 17 03 00 02.0001781  0 25                     
C01  38323141.357   199558626.758          58.360          24.000  
C02  38361923.109   199760414.010         -16.705          35.000  
C06  36188362.733   188442124.366        -752.517          34.000  
C07  36167426.128   188333145.022         227.166          30.000  
C09  36186977.093   188434883.800        -155.765          31.000  
C10  37240999.108   193923519.307         329.230          38.000  
C16  36556545.646   190359347.688        -852.436          42.000  
C26  21881162.202   113940932.127         953.245          34.000  
C29  23292058.659   121287698.204       -2247.817          43.000  
C35  21726042.989   113133129.480        1106.499          37.000  
C40  36044960.309   187695494.174          50.993          34.000  
C45  23040656.001   119978658.497       -1999.580          46.000  
E15  25069019.994   131738517.931        2465.508          40.000  
E27  24089658.892   126591877.001        1009.345          39.000  
E30  24627507.247   129418408.030       -1024.407          24.000  
E34  24975805.825   131248672.831        -149.097          28.000  
G01  23147945.726   121643129.225        3525.324          45.000  
G02  21408812.503   112503972.328        2230.456          46.000  
G07  20843603.289   109533747.883         949.927          36.000  
G08  20048174.753   105353718.440       -1081.034          40.000  
G16  24079703.084   126539785.590       -2878.358          28.000  
G27  22123128.892   116257701.058       -2984.264          41.000  
G30  22623688.162   118888046.180        2686.546          34.000  
J02  39250105.633   206260643.917         299.436          25.000  
J03  38061782.592   200015880.161         -70.973          47.000  
> 2025 03 17 03 00 03.0001171  0 25                     
C01  38323158.042   199558709.831          55.229          26.000  
C02  38361953.585   199760571.812         -17.751          35.000  
C06  36188532.313   188443015.448        -753.880          34.000  
C07  36167411.634   188333058.421         226.364          29.000  
C09  36187034.850   188435177.986        -155.239          33.000  
C10  37240963.030   193923328.675         330.433          37.000  
C16  36556738.009   190360338.861        -851.837          42.000  
C26  21881001.410   113940119.778         951.055          33.000  
C29  23292519.936   121290082.776       -2246.256          43.000  
C35  21725864.210   113132164.070        1103.833          34.000  
C40  36044977.594   187695582.688          52.262          33.000  
C45  23041069.612   119980798.311       -1999.509          46.000  
E15  25068579.796   131736193.454        2465.870          39.000  
E27  24089491.804   126591008.626        1009.465          39.000  
E30  24627725.093   129419573.199       -1025.893          24.000  
E34  24975858.186   131248962.947        -150.219          27.000  
G01  23147302.868   121639744.535        3525.914          46.000  
G02  21408415.475   112501884.206        2228.489          45.000  
G07  20843448.493   109532940.946         946.861          36.000  
G08  20048408.788   105354939.574       -1081.906          41.000  
G16  24080282.180   126542804.362       -2880.096          29.000  
G27  22123725.376   116260826.298       -2985.889          41.000  
G30  22623207.192   118885503.018        2682.805          32.000  
J02  39250074.651   206260486.268         298.319          28.000  
J03  38061824.760   200016091.324         -71.619          46.000  
> 2025 03 17 03 00 04.0000560  0 25                     
C01  38323146.032   199558640.402          56.935          29.000  
C02  38361955.664   199760575.342         -18.237          34.000  
C06  36188678.293   188443757.431        -754.274          34.000  
C07  36167363.949   188332819.646         226.151          29.000  
C09  36187061.812   188435319.288        -155.542          33.000  
C10  37240897.357   193922985.837         329.539          37.000  
C16  36556899.879   190361177.298        -852.718          42.000  
C26  21880824.214   113939154.618         953.182          34.000  
C29  23292947.722   121292316.751       -2247.358          41.000  
C35  21725642.644   113131046.839        1105.011          32.000  
C40  36044963.485   187695519.132          51.291          33.000  
C45  23041451.529   119982783.324       -1999.976          46.000  
E15  25068115.399   131733716.174        2464.673          40.000  
E27  24089297.220   126589987.166        1009.020          39.000  
E30  24627920.539   129420585.379       -1025.619          23.000  
E34  24975895.641   131249099.910        -152.144          24.000  
G01  23146631.614   121636205.912        3525.922          46.000  
G02  21407988.552   112499641.922        2229.411          45.000  
G07  20843265.901   109531980.205         948.987          37.000  
G08  20048612.928   105356008.374       -1081.903          41.000  
G16  24080830.182   126545672.146       -2880.429          28.000  
G27  22124292.265   116263797.640       -2985.077          42.000  
G30  22622695.428   118882807.039        2684.366          34.000  
J02  39250019.770   206260175.275         298.144          29.000  
J03  38061836.732   200016146.884         -70.862          46.000  
> 2025 03 17 03 00 04.9999949  0 25                     
C01  38323146.987   199558571.428          54.460          28.000  
C02  38361956.920   199760580.238         -21.374          34.000  
C06  36188824.348   188444496.950        -755.551          34.000  
C07  36167323.233   188332580.983         225.853          29.000  
C09  36187093.646   188435461.594        -155.235          33.000  
C10  37240833.857   193922643.993         327.664          37.000  
C16  36557062.422   190362017.497        -855.936          42.000  
C26  21880642.297   113938188.624         951.484          36.000  
C29  23293382.777   121294549.171       -2248.150          41.000  
C35  21725432.846   113129929.757        1103.839          35.000  
C40  36044954.847   187695455.566          49.297          34.000  
C45  23041831.422   119984769.000       -2000.552          45.000  
E15  25067642.982   131731240.366        2463.551          40.000  
E27  24089104.810   126588965.387        1009.294          39.000  
E30  24628110.964   129421598.006       -1026.467          25.000  
E34  24975933.771   131249239.517        -154.042          21.000  
G01  23145959.835   121632667.087        3525.446          45.000  
G02  21407562.603   112497400.396        2227.803          45.000  
G07  20843084.883   109531020.288         945.365          37.000  
G08  20048820.440   105357077.784       -1086.838          41.000  
G16  24081375.860   126548536.351       -2879.067          31.000  
G27  22124860.128   116266768.077       -2985.584          42.000  
G30  22622179.541   118880109.621        2684.221          35.000  
J02  39249961.967   206259864.214         297.847          31.000  
J03  38061849.380   200016205.485         -75.457          47.000  
> 2025 03 17 03 00 05.9999338  0 25                     
C01  38323141.928   199558504.931          47.746          28.000  
C02  38361960.555   199760586.727         -21.860          34.000  
C06  36188966.487   188445240.149        -760.269          34.000  
C07  36167279.201   188332341.435         222.366          29.000  
C09  36187125.162   188435602.694        -161.157          33.000  
C10  37240767.641   193922303.411         323.620          37.000  
C16  36557225.847   190362857.738        -858.669          42.000  
C26  21880460.960   113937225.208         946.285          36.000  
C29  23293809.119   121296783.507       -2253.006          41.000  
C35  21725218.532   113128812.829        1098.158          34.000  
C40  36044943.792   187695393.767          44.617          32.000  
C45  23042215.793   119986756.531       -2006.335          45.000  
E15  25067168.448   131728765.579        2460.220          39.000  
E27  24088915.378   126587945.073        1005.475          38.000  
E30  24628299.570   129422610.739       -1030.451          25.000  
E34  24975965.287   131249379.350        -155.917          23.000  
G01  23145288.038   121629129.912        3519.994          46.000  
G02  21407137.535   112495160.558        2222.576          45.000  
G07  20842903.246   109530062.300         940.751          36.000  
G08  20049026.435   105358149.607       -1088.570          41.000  
G16  24081926.317   126551400.914       -2883.895          29.000  
G27  22125428.572   116269742.061       -2991.739          41.000  
G30  22621665.734   118877412.771        2679.947          32.000  
J02  39249904.744   206259552.712         293.902          32.000  
J03  38061862.309   200016266.179         -76.932          46.000  
> 2025 03 17 03 00 06.9998728  0 25                     
C01  38323150.294   199558604.532          38.811          29.000  
C02  38361994.103   199760751.364         -22.125          33.000  
C06  36189140.339   188446142.342        -758.141          35.000  
C07  36167262.984   188332263.904         220.908          29.000  
C09  36187185.392   188436170.379        -160.248          34.000  
C10  37240735.535   193922122.783         325.859          37.000  
C16  36557418.585   190363857.915        -857.083          42.000  
C26  21880310.436   113936423.185         947.432          37.000  
C29  23294272.270   121299179.440       -2251.037          42.000  
C35  21725034.131   113127858.971        1099.111          34.000  
C40  36044960.852   187695492.193          46.117          31.000  
C45  23042628.879   119988905.096       -2003.894          45.000  
E15  25066733.121   131726452.560        2458.739          40.000  
E27  24088753.163   126587086.218        1004.641          37.000  
E30  24628534.879   129423784.734       -1031.751          22.000  
E34  24976023.418   131249681.643        -157.802          24.000  
G01  23144646.754   121625754.507        3522.269          46.000  
G02  21406744.479   112493083.245        2224.318          46.000  
G07  20842753.621   109529266.782         941.470          37.000  
G08  20049262.344   105359382.319       -1087.238          41.000  
G16  24082499.492   126554430.633       -2887.568          25.000  
G27  22126028.728   116272876.702       -2988.959          42.000  
G30  22621186.638   118874880.005        2677.184          29.000  
J02  39249876.535   206259404.923         293.550          31.000  
J03  38061905.451   200016486.821         -75.558          46.000  
> 2025 03 17 03 00 07.9998117  0 25                     
C01  38323136.654   199558551.750          32.456          29.000  
C02  38361996.952   199760755.436         -23.685          33.000  
C06  36189280.492   188446880.460        -753.903          34.000  
C07  36167218.165   188332026.145         223.151          29.000  
C09  36187215.821   188436310.314        -155.688          34.000  
C10  37240670.330   193921779.382         330.116          37.000  
C16  36557580.623   190364697.021        -851.900          42.000  
C26  21880127.712   113935458.570         948.561          37.000  
C29  23294702.922   121301412.016       -2248.682          43.000  
C35  21724822.328   113126742.135        1101.228          35.000  
C40  36044949.910   187695427.752          51.900          34.000  
C45  23043008.566   119990890.850       -2002.015          44.000  
E15  25066267.394   131723974.909        2461.434          39.000  
E27  24088556.948   126586063.284        1006.746          39.000  
E30  24628730.194   129424800.940       -1029.708          23.000  
E34  24976060.143   131249821.3051       -159.822          20.000  
G01  23143974.769   121622214.498        3524.666          46.000  
G02  21406319.523   112490841.898        2224.838          46.000  
G07  20842572.397   109528306.902         944.246          37.000  
G08  20049467.852   105360450.219       -1084.363          41.000  
G16  24083052.459   126557297.727       -2882.133          28.000  
G27  22126594.587   116275847.889       -2988.082          43.000  
G30  22620673.543   118872183.759        2680.700          35.000  
J02  39249817.926   206259093.145         298.567          27.000  
J03  38061918.192   200016543.214         -72.208          46.000  
> 2025 03 17 03 00 08.9997506  0 26                     
