% program   : RTKLIB ver.demo5 b34k
% inp file  : .\\rnx2rtkp
% inp file  : E:\\Proj-ES\\GNSS-SPP\\RTKLIB-py\\data\\unisoc\\20250317\\DATA04-C\\rover.obs
% inp file  : E:\\Proj-ES\\GNSS-SPP\\RTKLIB-py\\data\\unisoc\\20250317\\DATA04-C\\rover.nav
% obs start : 2025/03/17 02:59:14.0 GPST (week2358  97154.0s)
% obs end   : 2025/03/17 03:29:11.0 GPST (week2358  98951.0s)
% pos mode  : Single
% elev mask : 15.0 deg
% ionos opt : Broadcast
% tropo opt : Saastamoinen
% ephemeris : Broadcast
% navi sys  : GPS Galileo QZSS BDS
%
% (x/y/z-ecef=WGS84,Q=1:fix,2:float,3:sbas,4:dgps,5:single,6:ppp,ns=# of satellites)
%  GPST                      x-ecef(m)      y-ecef(m)      z-ecef(m)   Q  ns   sdx(m)   sdy(m)   sdz(m)  sdxy(m)  sdyz(m)  sdzx(m) age(s)  ratio    vx(m/s)    vy(m/s)    vz(m/s)      sdvx     sdvy     sdvz    sdvxy    sdvyz    sdvzx
2025/03/17 02:59:13.994  -2181999.4766   4380820.8361   4076309.0376   5  24   3.6439   5.7922   4.1553  -3.4899   3.7367  -3.2986   0.00    0.0    0.08879   -0.20544   -0.10258   0.16517  0.20464  0.18834 -0.14933  0.15988 -0.14967  30.5642  -7.2610
2025/03/17 02:59:14.994  -2182004.0554   4380820.2479   4076316.0375   5  24   3.7228   6.1024   4.3644  -3.7669   4.0994  -3.4434   0.00    0.0    0.19431   -0.18899   -0.19983   0.15967  0.17609  0.17094 -0.13792  0.13438 -0.13905  24.3040  -7.2473
2025/03/17 02:59:15.994  -2182002.5908   4380831.0758   4076311.8130   5  24   3.4182   5.9764   3.9532  -3.3540   3.3448  -2.9331   0.00    0.0    0.01622   -0.19417   -0.19526   0.16477  0.17977  0.17624 -0.14044  0.13739 -0.14008  20.7199  -6.2424
2025/03/17 02:59:16.994  -2182001.5350   4380835.2025   4076310.7856   5  24   3.4274   5.8457   4.0461  -3.2760   3.3575  -3.0104   0.00    0.0   -0.11591    0.44227    0.32143   0.14553  0.17505  0.15571 -0.13095  0.12853 -0.11838  45.3329  -5.0636
2025/03/17 02:59:17.994  -2182002.0138   4380835.1911   4076311.2484   5  22   3.4942   6.0027   4.0544  -3.2379   3.4010  -3.0282   0.00    0.0   -0.07068   -0.01935   -0.03674   0.14727  0.17700  0.15800 -0.12594  0.12351 -0.12226  39.0480  -5.5801
2025/03/17 02:59:40.522  -2181995.5126   4380827.0393   4076307.0370   5  25   4.3163   5.4059   4.5384  -4.0036   4.3194  -3.7292   0.00    0.0    0.17197   -0.20878   -0.06440   0.16506  0.17120  0.17895 -0.13984  0.14100 -0.14485  20.8332  -6.7143
2025/03/17 02:59:41.522  -2181990.8869   4380826.9150   4076305.6301   5  25   3.9325   5.2597   4.4994  -3.7131   4.1797  -3.4595   0.00    0.0    0.14177   -0.17833   -0.29836   0.14386  0.16899  0.15354 -0.12972  0.12996 -0.11960   9.2435  -6.9807
2025/03/17 02:59:42.522  -2181992.9793   4380828.1697   4076310.0812   5  25   3.9298   5.1889   4.5100  -3.6779   4.1866  -3.4149   0.00    0.0   -0.03928   -0.10378    0.17996   0.14544  0.18712  0.16283 -0.13475  0.14133 -0.12057  34.1343  -6.3406
2025/03/17 02:59:43.522  -2181995.2265   4380833.0825   4076312.7807   5  25   3.8068   5.9452   4.3282  -3.7411   4.1870  -3.3105   0.00    0.0   -0.02386   -0.11635   -0.11991   0.14484  0.16644  0.15512 -0.12850  0.12800 -0.11930  30.5718  -6.1108
2025/03/17 02:59:44.522  -2181998.7873   4380832.9077   4076313.2601   5  25   3.7116   5.8107   4.0700  -3.6257   4.0181  -3.0994   0.00    0.0   -0.18691    0.00868    0.06446   0.14820  0.17080  0.15873 -0.13331  0.13413 -0.12518  24.2402  -6.6369
2025/03/17 02:59:45.522  -2181998.8275   4380835.3768   4076313.1391   5  25   3.5879   5.4781   3.9043  -3.4729   3.7605  -2.9833   0.00    0.0   -0.07236    0.09570   -0.08476   0.14357  0.16629  0.15161 -0.12860  0.12718 -0.11865  17.1592  -6.7412
2025/03/17 02:59:46.522  -2181998.5892   4380835.9435   4076316.1595   5  24   3.9102   5.2237   3.8693  -3.6249   3.6214  -3.1861   0.00    0.0   -0.17853    0.07463    0.06623   0.16480  0.17033  0.17558 -0.13928  0.13899 -0.14575  40.6394  -7.0211
2025/03/17 02:59:47.522  -2182000.7341   4380833.2729   4076313.6072   5  23   3.9250   5.0615   3.8731  -3.4685   3.4951  -3.2123   0.00    0.0    0.12059    0.05280   -0.02327   0.14847  0.18599  0.16098 -0.13188  0.13873 -0.12595  30.9927  -7.1113
2025/03/17 02:59:48.522  -2182003.1279   4380836.3676   4076312.9476   5  24   3.9704   5.2509   3.9437  -3.6109   3.6191  -3.2803   0.00    0.0    0.13226   -0.08003   -0.13845   0.15549  0.16877  0.16476 -0.13267  0.13188 -0.13383  24.8679  -6.8668
2025/03/17 02:59:49.522  -2182003.8605   4380834.6753   4076309.7316   5  25   4.1660   5.3205   4.0165  -3.7263   3.7284  -3.3665   0.00    0.0   -0.14614    0.16804    0.06561   0.14362  0.16627  0.15165 -0.12863  0.12720 -0.11870  14.5362  -7.0077
2025/03/17 02:59:51.322  -2182004.3968   4380833.2519   4076310.0396   5  23   4.2334   5.4911   4.1541  -3.8208   3.8886  -3.4591   0.00    0.0   -0.18360    0.19664    0.29510   0.14718  0.17332  0.15949 -0.13135  0.13441 -0.12393  22.1291  -6.4665
2025/03/17 02:59:52.222  -2182006.2043   4380834.4742   4076312.2424   5  24   4.5413   5.4466   4.3457  -4.1150   4.0533  -3.7802   0.00    0.0   -0.28161    0.25705    0.46842   0.16585  0.17402  0.19868 -0.14111  0.14872 -0.15332  43.2219  -6.5808
2025/03/17 02:59:53.122  -2182003.0087   4380831.3650   4076313.4244   5  24   4.1468   5.0592   4.0939  -3.7757   3.7640  -3.4622   0.00    0.0    0.21579   -0.08287   -0.01856   0.14913  0.16978  0.15943 -0.13040  0.13228 -0.12432  29.8505  -6.7023
2025/03/17 02:59:54.022  -2182001.6755   4380825.1628   4076310.2779   5  23   3.7473   4.4988   3.9970  -3.3668   3.5752  -3.2123   0.00    0.0    0.17551   -0.04750   -0.06000   0.14806  0.16849  0.15882 -0.12646  0.12742 -0.12171  14.7210  -6.5882
2025/03/17 02:59:55.000  -2182000.1205   4380820.6688   4076307.3542   5  24   3.7430   4.5253   4.0189  -3.3925   3.6122  -3.2135   0.00    0.0    0.05910    0.04309    0.03548   0.14393  0.16647  0.15553 -0.12838  0.12838 -0.11754  19.2656  -6.6375
2025/03/17 02:59:56.000  -2181999.8042   4380825.8090   4076309.2740   5  24   3.9520   4.6321   4.0679  -3.5966   3.7066  -3.3502   0.00    0.0    0.09138    0.00081    0.04188   0.14660  0.16647  0.15796 -0.12860  0.12856 -0.12086  14.9437  -6.5147
2025/03/17 02:59:56.999  -2182001.6320   4380827.4487   4076311.2951   5  25   3.8466   4.6091   4.0755  -3.5076   3.6996  -3.3041   0.00    0.0   -0.01043    0.04921    0.06672   0.14391  0.16642  0.15486 -0.12845  0.12818 -0.11779  39.5077  -6.7339
2025/03/17 02:59:58.000  -2182002.5306   4380828.2953   4076311.5377   5  24   4.2588   4.8173   4.1774  -3.8265   3.8757  -3.5718   0.00    0.0    0.05888   -0.07808   -0.02020   0.16700  0.17114  0.18204 -0.14056  0.14190 -0.14838  20.9907  -6.6631
2025/03/17 02:59:59.000  -2182006.3926   4380832.2601   4076313.2669   5  23   3.8408   4.6795   4.1034  -3.5018   3.7477  -3.3386   0.00    0.0    0.12003   -0.16908   -0.19530   0.15930  0.17129  0.17387 -0.13505  0.13670 -0.13819  46.9268  -6.8622
2025/03/17 03:00:00.000  -2182008.6464   4380837.1991   4076315.5752   5  23   3.8281   4.7609   4.1246  -3.5095   3.7756  -3.3366   0.00    0.0   -0.11991    0.23199    0.10408   0.14479  0.16826  0.15594 -0.12694  0.12739 -0.11828  43.3276  -6.4837
2025/03/17 03:00:01.000  -2182007.5739   4380835.7287   4076314.9174   5  25   3.6212   4.5546   4.0026  -3.3246   3.6088  -3.1590   0.00    0.0    0.03861   -0.09511   -0.06825   0.14446  0.16749  0.15576 -0.12758  0.12780 -0.11802  33.1691  -6.8579
2025/03/17 03:00:02.000  -2182010.2727   4380832.9899   4076312.9410   5  23   3.6050   4.5655   4.1151  -3.3367   3.6973  -3.1892   0.00    0.0   -0.04382    0.04203    0.20254   0.16575  0.17483  0.18253 -0.13947  0.14012 -0.14696  24.8417  -6.3079
2025/03/17 03:00:03.000  -2182007.0139   4380833.7011   4076313.3653   5  24   4.1800   4.7944   4.1891  -3.7996   3.8536  -3.4850   0.00    0.0   -0.23544    0.20252    0.15326   0.16555  0.18194  0.18622 -0.14291  0.15067 -0.14794  44.5542  -6.0668
2025/03/17 03:00:04.000  -2182004.4677   4380832.6270   4076314.8116   5  23   4.3288   4.8662   4.2240  -3.8889   3.8945  -3.5905   0.00    0.0    0.04988    0.11617    0.02322   0.15612  0.18422  0.17368 -0.13412  0.14319 -0.13455  35.3114  -6.3336
2025/03/17 03:00:05.000  -2182008.6157   4380835.1097   4076312.9529   5  24   3.5123   4.4219   3.9829  -3.2017   3.5219  -3.0847   0.00    0.0    0.06744   -0.15012    0.00474   0.15039  0.17223  0.16137 -0.13177  0.13049 -0.12202  31.2541  -6.3308
2025/03/17 03:00:06.000  -2182007.4382   4380832.7051   4076311.4409   5  24   3.7102   4.5389   4.0352  -3.3419   3.6111  -3.1785   0.00    0.0    0.20594   -0.12598   -0.04398   0.16466  0.17171  0.18012 -0.13647  0.13812 -0.14361  21.8382  -5.5370
2025/03/17 03:00:07.000  -2182007.4684   4380835.2225   4076313.0024   5  23   3.9805   4.7197   4.1622  -3.5940   3.7915  -3.4081   0.00    0.0   -0.12652   -0.15567   -0.18461   0.16311  0.19771  0.18117 -0.14144  0.15367 -0.14491  47.4809  -5.7373
2025/03/17 03:00:08.000  -2182007.3141   4380836.4124   4076314.4674   5  23   3.6533   4.4640   4.0304  -3.2367   3.5873  -3.1754   0.00    0.0   -0.43493    0.68064    0.61728   0.15003  0.17307  0.17383 -0.12971  0.13579 -0.12799  41.3332  -5.3819
2025/03/17 03:00:09.000  -2182008.9681   4380837.0788   4076313.5088   5  24   3.7172   4.5569   3.9208  -3.3720   3.6042  -3.1988   0.00    0.0    0.05946    0.18504    0.19976   0.17179  0.17371  0.17896 -0.14019  0.14248 -0.14869  35.1194  -5.9588
2025/03/17 03:00:10.000  -2182009.6658   4380839.2013   4076315.2198   5  24   3.5783   4.4753   3.8784  -3.2573   3.5315  -3.1124   0.00    0.0   -0.02134   -0.11528    0.15878   0.15299  0.16970  0.16347 -0.12981  0.13075 -0.12792  29.3995  -6.0627
2025/03/17 03:00:11.000  -2182007.3990   4380837.1011   4076314.0023   5  24   3.4853   4.4709   3.8246  -3.1891   3.5021  -3.0329   0.00    0.0    0.07865   -0.01306   -0.18743   0.14776  0.16822  0.15484 -0.12737  0.12845 -0.12082  49.5694  -6.3096
2025/03/17 03:00:12.000  -2182010.7286   4380841.6281   4076317.1950   5  24   3.5437   4.3895   3.7740  -3.1966   3.4254  -3.0241   0.00    0.0   -0.14132    0.06788    0.18519   0.14822  0.16839  0.15684 -0.12742  0.12718 -0.12141  47.1903  -6.0739
2025/03/17 03:00:13.000  -2182007.7652   4380839.7012   4076316.7384   5  26   4.1365   4.6021   3.9015  -3.7145   3.6336  -3.3796   0.00    0.0    0.05391   -0.03081   -0.00085   0.14986  0.17803  0.16280 -0.13468  0.13434 -0.11907  37.3403  -5.7398
2025/03/17 03:00:13.999  -2182005.8601   4380836.6334   4076313.1703   5  25   4.3140   4.7103   3.9841  -3.8515   3.7343  -3.5059   0.00    0.0   -0.13508    0.30403    0.27382   0.15156  0.17844  0.16597 -0.13082  0.13271 -0.12077  27.2142  -4.6735
2025/03/17 03:00:15.000  -2182005.2092   4380840.2634   4076315.1504   5  25   4.4415   5.0207   4.0605  -4.0366   3.8816  -3.5900   0.00    0.0   -0.30064    0.23204    0.23457   0.14603  0.17394  0.15646 -0.13050  0.13398 -0.11868  41.5848  -4.1376
2025/03/17 03:00:16.000  -2182011.2244   4380845.6225   4076315.6399   5  25   4.1052   4.9405   3.9115  -3.7458   3.6898  -3.2859   0.00    0.0   -0.26345    0.24394    0.27028   0.16211  0.17599  0.17280 -0.13954  0.14206 -0.13913  43.1600  -4.4998
2025/03/17 03:00:17.000  -2182010.0689   4380843.6641   4076313.7409   5  25   3.9462   4.7425   3.8511  -3.5537   3.5580  -3.2205   0.00    0.0    0.11559   -0.06933    0.12673   0.16006  0.17359  0.17199 -0.13738  0.14089 -0.13810  34.5899  -4.7242
2025/03/17 03:00:18.000  -2182001.4330   4380832.5859   4076309.6303   5  25   4.5459   5.2063   4.1506  -4.0972   4.0558  -3.6489   0.00    0.0    0.43507   -0.06621   -0.33938   0.15260  0.17289  0.18040 -0.13126  0.13774 -0.12585  45.2354  -3.4311
2025/03/17 03:00:19.000  -2182003.2011   4380840.2249   4076311.1457   5  26   4.5778   5.4013   4.1401  -4.1872   4.0808  -3.6442   0.00    0.0   -0.22385   -0.16275   -0.03245   0.14753  0.18581  0.16220 -0.13356  0.14397 -0.11805  47.5860  -2.3568
2025/03/17 03:00:20.000  -2182011.1609   4380847.3162   4076313.2263   5  25   3.6822   4.8897   3.8849  -3.3026   3.6333  -3.1228   0.00    0.0   -0.04757    0.13029    0.01986   0.18002  0.18295  0.20110 -0.14922  0.15421 -0.16260  53.5572  -3.5630
2025/03/17 03:00:21.000  -2182006.2079   4380847.4843   4076314.5832   5  25   3.5052   4.9102   3.9304  -3.1775   3.6638  -2.9785   0.00    0.0   -0.27490    0.80431    0.56410   0.16865  0.19542  0.18539 -0.14685  0.16004 -0.14828  44.9320  -3.2042
2025/03/17 03:00:22.000  -2182006.2632   4380851.0871   4076314.3504   5  25   3.5643   4.8347   3.9264  -3.2497   3.6483  -3.0063   0.00    0.0    0.02659   -0.00564    0.23514   0.17001  0.17718  0.17766 -0.14554  0.14355 -0.14781  41.7929  -4.1560
2025/03/17 03:00:23.000  -2182007.5277   4380851.8737   4076316.6948   5  25   3.4344   4.7682   3.8464  -3.1323   3.5864  -2.9099   0.00    0.0    0.25757   -0.33677   -0.28563   0.15194  0.17228  0.16068 -0.13588  0.13582 -0.12532  36.9078  -4.2788
2025/03/17 03:00:24.000  -2182006.3250   4380852.5220   4076316.4194   5  26   3.5557   4.8230   3.8961  -3.2537   3.6487  -2.9903   0.00    0.0    0.17757   -0.26195   -0.37863   0.15401  0.18012  0.16113 -0.13910  0.13977 -0.13103  30.1977  -4.3409
2025/03/17 03:00:25.000  -2182007.0154   4380855.0731   4076317.1894   5  26   3.6449   4.9870   3.9148  -3.4272   3.7305  -3.1113   0.00    0.0    0.02110    0.02342    0.02490   0.15934  0.17111  0.16855 -0.13881  0.13939 -0.13688  55.9602  -4.7258
2025/03/17 03:00:26.000  -2182006.5568   4380857.5316   4076321.1291   5  26   3.7004   4.8492   3.9297  -3.3480   3.6408  -3.0970   0.00    0.0   -0.20016    0.34421    0.36269   0.14495  0.18570  0.15884 -0.13509  0.14497 -0.12172  52.6341  -3.9283
2025/03/17 03:00:27.000  -2182004.6648   4380861.8458   4076320.8194   5  26   3.7460   4.6057   3.8233  -3.3046   3.4668  -3.1010   0.00    0.0   -0.08919   -0.00774   -0.01338   0.14361  0.16598  0.14841 -0.12914  0.12810 -0.11751  47.7671  -4.7897
2025/03/17 03:00:28.000  -2182005.9443   4380858.1437   4076319.0157   5  26   3.8309   4.6423   3.8090  -3.4111   3.4977  -3.1196   0.00    0.0    0.06911    0.10045    0.12136   0.16096  0.17104  0.17020 -0.13966  0.14079 -0.13865  38.2449  -5.1568
2025/03/17 03:00:29.000  -2182006.6679   4380858.7404   4076320.6637   5  26   4.0900   4.8544   3.8823  -3.6922   3.6377  -3.2815   0.00    0.0    0.03266   -0.16318    0.12403   0.14783  0.18336  0.16469 -0.13442  0.14362 -0.12240  33.1676  -5.2093
2025/03/17 03:00:29.999  -2182006.3700   4380857.7350   4076319.2171   5  26   4.1093   4.8522   3.8841  -3.7529   3.6381  -3.3064   0.00    0.0    0.12362   -0.21356   -0.20586   0.14451  0.16957  0.15349 -0.13035  0.13235 -0.11758  55.8017  -5.2908
2025/03/17 03:00:31.000  -2182005.5862   4380852.7936   4076315.8999   5  26   4.1494   5.1869   4.0237  -3.8722   3.9086  -3.3783   0.00    0.0   -0.10999   -0.08361    0.07119   0.14389  0.16615  0.15078 -0.12891  0.12893 -0.11661  32.8646  -5.0565
2025/03/17 03:00:32.000  -2182003.5320   4380849.7728   4076315.6216   5  26   4.1743   5.3816   4.0713  -4.0222   4.0224  -3.4797   0.00    0.0   -0.25821    0.25049    0.22590   0.14376  0.16667  0.14884 -0.12948  0.12875 -0.11779  23.8553  -4.4532
2025/03/17 03:00:33.000  -2182006.0292   4380847.2342   4076313.1742   5  26   4.4721   5.6318   4.2378  -4.2449   4.2191  -3.6039   0.00    0.0   -0.13368    0.07753    0.14330   0.15989  0.17067  0.16929 -0.13894  0.14007 -0.13719  46.5885  -4.8022
2025/03/17 03:00:34.000  -2182002.9146   4380844.6369   4076313.0769   5  25   4.2218   5.4379   4.1457  -3.9572   4.1089  -3.3857   0.00    0.0   -0.00383   -0.01745    0.03595   0.14400  0.16620  0.15160 -0.12884  0.12921 -0.11632  35.7349  -5.0082
2025/03/17 03:00:35.000  -2182002.4518   4380843.0309   4076313.7048   5  25   4.2021   5.3580   4.1237  -3.8699   4.0624  -3.3099   0.00    0.0   -0.38426    0.24718    0.34672   0.14418  0.16754  0.15337 -0.12941  0.13110 -0.11702  28.0402  -4.6908
2025/03/17 03:00:36.000  -2182002.3460   4380845.7342   4076317.0737   5  25   4.0130   5.2516   4.0709  -3.7564   3.9886  -3.2650   0.00    0.0   -0.09630   -0.14509   -0.05915   0.15991  0.18752  0.18072 -0.14380  0.15429 -0.14114  22.9328  -5.1164
2025/03/17 03:00:37.000  -2182001.2000   4380845.4767   4076316.6842   5  25   4.1041   5.3387   4.2560  -3.8034   4.0887  -3.3970   0.00    0.0    0.11546   -0.13679   -0.09141   0.15981  0.17094  0.16960 -0.13880  0.14036 -0.13696  15.0978  -5.2932
2025/03/17 03:00:38.000  -2182004.9271   4380849.3423   4076318.1532   5  25   4.2372   5.4350   4.2687  -3.9523   4.1284  -3.4892   0.00    0.0   -0.33379    0.62074    0.64480   0.19295  0.18980  0.17667 -0.16809  0.15438 -0.15528  43.7319  -4.4182
2025/03/17 03:00:39.000  -2182001.0664   4380852.1375   4076317.8876   5  26   4.2951   5.4114   4.3668  -3.9146   4.1546  -3.5856   0.00    0.0   -0.04507    0.08324    0.19932   0.16372  0.17769  0.18206 -0.14269  0.14806 -0.14518  36.0719  -5.0861
2025/03/17 03:00:40.000  -2181997.3432   4380848.1374   4076315.9524   5  26   4.5057   5.4160   4.4632  -4.0697   4.2381  -3.7472   0.00    0.0    0.71057   -0.60715   -0.90784   0.15073  0.17425  0.17457 -0.13402  0.13849 -0.12835  24.8585  -5.0581
2025/03/17 03:00:41.000  -2182000.4243   4380847.2173   4076316.1376   5  26   4.2738   5.2797   4.2373  -3.9406   4.0514  -3.5724   0.00    0.0   -0.33655    0.11660    0.02211   0.14917  0.16916  0.15641 -0.13205  0.13363 -0.12120  20.7176  -4.2413
2025/03/17 03:00:42.000  -2182006.6625   4380852.5070   4076321.8134   5  26   4.3848   5.3601   4.0728  -4.1330   3.9821  -3.6113   0.00    0.0    0.12264    0.34436    0.25197   0.24447  0.23976  0.22249 -0.21711  0.18787 -0.19757  52.4040  -5.4146
2025/03/17 03:00:43.000  -2182000.6941   4380847.4476   4076318.3502   5  26   4.1082   5.1386   4.2108  -3.7225   3.9621  -3.4732   0.00    0.0   -0.31401    0.47102    0.39476   0.15146  0.19541  0.17260 -0.14126  0.15648 -0.13021  37.1162  -5.1022
2025/03/17 03:00:44.000  -2182005.5372   4380837.1250   4076316.1632   5  25   3.7297   5.6121   4.0574  -3.6424   3.9677  -3.2804   0.00    0.0   -0.19673    0.32596    0.39198   0.15320  0.19405  0.16906 -0.14234  0.15369 -0.13089  26.3770  -5.2881
2025/03/17 03:00:45.000  -2182009.9203   4380843.5870   4076318.8321   5  24   3.6548   5.4783   4.0638  -3.5878   3.9459  -3.2606   0.00    0.0   -0.11944    0.11035    0.20303   0.15190  0.19420  0.16845 -0.14304  0.15463 -0.13195  25.4175  -5.7123
2025/03/17 03:00:45.999  -2182009.9501   4380843.3601   4076318.8946   5  24   3.5773   5.5503   4.0908  -3.5327   3.9509  -3.2344   0.00    0.0    0.02741   -0.02471   -0.02491   0.15117  0.19301  0.16733 -0.14158  0.15191 -0.13071  18.9390  -5.5320
2025/03/17 03:00:47.000  -2182011.8765   4380849.1028   4076320.4295   5  24   3.6436   5.5010   4.0912  -3.6052   3.9343  -3.2468   0.00    0.0   -0.03119   -0.05680    0.01352   0.15175  0.19955  0.16906 -0.14371  0.15828 -0.13082  34.2743  -5.7121
2025/03/17 03:00:48.000  -2182013.8094   4380853.7817   4076322.5849   5  24   3.8269   4.9276   4.1704  -3.5952   3.8715  -3.3814   0.00    0.0    0.24173   -0.24359   -0.31319   0.15168  0.19528  0.16841 -0.14229  0.15475 -0.12873  31.0176  -6.1373
2025/03/17 03:00:49.000  -2182011.8283   4380856.0904   4076329.2061   5  24   3.6858   4.8274   4.5565  -3.5152   3.9807  -3.4681   0.00    0.0   -0.01108   -0.03385   -0.02015   0.15124  0.19311  0.16757 -0.14159  0.15204 -0.13079  59.2554  -5.7053
2025/03/17 03:00:50.000  -2182012.7215   4380857.9856   4076331.6036   5  24   3.7316   4.8784   4.6201  -3.5780   4.0323  -3.5238   0.00    0.0    0.05081   -0.11171   -0.05861   0.17108  0.19937  0.18943 -0.15512  0.16599 -0.15558  54.6671  -5.8512
2025/03/17 03:00:51.000  -2182011.6019   4380857.9984   4076331.4002   5  24   3.8116   4.9366   4.6651  -3.6473   4.0957  -3.5842   0.00    0.0   -0.17202    0.43221    0.32640   0.15487  0.19928  0.17300 -0.14687  0.15811 -0.13588  47.8761  -5.2056
2025/03/17 03:00:52.000  -2182012.0927   4380855.9482   4076330.7640   5  24   3.7400   4.8874   4.6351  -3.5911   4.0491  -3.5393   0.00    0.0   -0.23094    0.24571    0.16219   0.15097  0.19300  0.16550 -0.14170  0.15213 -0.12990  39.4830  -5.4010
2025/03/17 03:00:53.000  -2182012.0178   4380855.4335   4076330.0865   5  24   3.7302   4.8963   4.5923  -3.6052   4.0365  -3.5443   0.00    0.0    0.07767    0.06813   -0.14063   0.15095  0.19395  0.16763 -0.14140  0.15415 -0.12895  61.2603  -5.2724
2025/03/17 03:00:54.000  -2182011.8904   4380857.3400   4076332.8023   5  24   3.7523   4.9134   4.6511  -3.6362   4.0639  -3.5478   0.00    0.0   -0.03646   -0.01423    0.07349   0.15151  0.19828  0.17149 -0.14240  0.15577 -0.13020  56.9835  -5.3051
2025/03/17 03:00:55.000  -2182010.7035   4380858.3158   4076333.2455   5  24   3.7522   4.8976   4.6412  -3.6264   4.0510  -3.5413   0.00    0.0   -0.16159    0.41003    0.33298   0.15356  0.19883  0.17480 -0.14643  0.15999 -0.13544  50.1840  -5.0965
2025/03/17 03:00:56.000  -2182010.0001   4380857.4496   4076334.1791   5  23   3.6906   4.8476   4.6341  -3.5534   4.0057  -3.4853   0.00    0.0   -0.05435    0.44461    0.22170   0.15722  0.19803  0.17230 -0.14092  0.15494 -0.13236  42.5642  -4.5497
2025/03/17 03:00:57.000  -2182011.1666   4380857.7155   4076334.4294   5  22   3.7245   4.8391   4.6803  -3.5177   4.0139  -3.5051   0.00    0.0    0.15346   -0.12099   -0.11848   0.17653  0.20412  0.20110 -0.14942  0.16664 -0.15544  37.0509  -3.8614
2025/03/17 03:00:58.000  -2182012.0427   4380857.2629   4076334.3142   5  24   3.6870   4.6306   4.5651  -3.4546   3.8314  -3.4518   0.00    0.0   -0.21263    0.00086    0.17872   0.15106  0.17023  0.16188 -0.13380  0.13368 -0.12226  61.8494  -3.3679
2025/03/17 03:00:59.000  -2182012.1905   4380853.8058   4076330.2897   5  23   3.7201   4.8746   4.8023  -3.5363   4.1121  -3.5197   0.00    0.0   -0.00190   -0.28232   -0.19717   0.18371  0.20840  0.21331 -0.15388  0.17577 -0.16420  52.2472  -5.2203
2025/03/17 03:01:00.000  -2182014.2083   4380857.7471   4076334.7178   5  24   3.6550   4.7391   4.7384  -3.4224   3.9871  -3.4464   0.00    0.0   -0.30347    0.46754    0.63328   0.15603  0.17219  0.16795 -0.13504  0.13555 -0.12688  49.9270  -4.9395
2025/03/17 03:01:01.000  -2182012.9976   4380857.3194   4076332.7761   5  24   3.6526   4.8304   4.7183  -3.4169   4.0313  -3.4253   0.00    0.0   -0.00224    0.31785    0.23235   0.15039  0.16850  0.15482 -0.13411  0.13205 -0.12252  39.8841  -5.5934
2025/03/17 03:01:02.000  -2182012.7838   4380857.8553   4076334.0729   5  24   3.7318   5.0056   4.9774  -3.5051   4.2584  -3.5242   0.00    0.0   -0.02752   -0.01412   -0.07173   0.17065  0.17386  0.18164 -0.14497  0.14387 -0.15029  32.5378  -6.2497
2025/03/17 03:01:02.999  -2182011.9673   4380855.4467   4076331.1502   5  24   3.6887   5.0348   4.9470  -3.4899   4.2654  -3.4954   0.00    0.0    0.10995   -0.16047   -0.18886   0.15073  0.16858  0.15844 -0.13393  0.13143 -0.12373  51.0577  -6.6316
2025/03/17 03:01:04.000  -2182010.0170   4380852.0393   4076329.7432   5  24   3.6917   5.0635   4.9762  -3.5071   4.2869  -3.5070   0.00    0.0    0.38178   -0.25483   -0.70335   0.15850  0.17436  0.16760 -0.14226  0.14054 -0.13187  27.2305  -7.0726
2025/03/17 03:01:05.000  -2182007.2701   4380847.7857   4076325.6034   5  24   3.6825   5.0477   4.7927  -3.4686   4.2070  -3.4112   0.00    0.0   -0.00596   -0.08925   -0.05273   0.17054  0.17411  0.17864 -0.14663  0.14545 -0.14909  43.4300  -6.7035
2025/03/17 03:01:06.000  -2182003.5418   4380841.5504   4076319.9556   5  24   3.6152   4.9280   4.3649  -3.3898   3.9581  -3.2215   0.00    0.0    0.00268   -0.04563    0.02256   0.16610  0.17326  0.17544 -0.14383  0.14392 -0.14163  28.1155  -6.5916
2025/03/17 03:01:07.000  -2182002.5681   4380844.2244   4076322.8748   5  23   3.6069   4.9048   4.3332  -3.3239   3.9154  -3.1845   0.00    0.0    0.11524   -0.13226   -0.14800   0.15466  0.16872  0.16039 -0.13465  0.13347 -0.12541  20.5268  -6.8224
2025/03/17 03:01:08.000  -2182001.9839   4380844.3954   4076322.5606   5  23   3.6028   4.9155   4.2514  -3.3086   3.8410  -3.1595   0.00    0.0    0.07435    0.07230   -0.00505   0.17318  0.17355  0.18558 -0.14593  0.14556 -0.15215  13.5681  -6.4135
2025/03/17 03:01:09.000  -2182000.9516   4380832.8768   4076318.7203   5  22   3.6194   6.0089   4.2634  -3.5247   3.9687  -3.1873   0.00    0.0    0.01915   -0.06612   -0.00090   0.15404  0.17442  0.15823 -0.13492  0.13042 -0.12714  28.2838  -6.5179
2025/03/17 03:01:10.000  -2182000.3764   4380832.5133   4076317.1410   5  22   3.5643   5.9901   4.2000  -3.4562   3.9442  -3.1375   0.00    0.0   -0.17938    0.09072    0.28772   0.15405  0.17442  0.15824 -0.13493  0.13042 -0.12715  18.8527  -6.3090
2025/03/17 03:01:11.000  -2181999.3007   4380839.9915   4076315.1304   5  22   3.8121   7.5003   4.3748  -3.8519   4.3471  -3.3989   0.00    0.0   -0.20820    0.11940    0.10623   0.15423  0.17450  0.15987 -0.13479  0.12995 -0.12780  15.2893  -6.3926
2025/03/17 03:01:12.000  -2182001.9695   4380840.8106   4076318.3288   5  22   3.6052   7.4182   4.2242  -3.6736   4.2062  -3.1832   0.00    0.0   -0.20578    0.25282    0.28264   0.15408  0.17496  0.15868 -0.13500  0.13104 -0.12722  40.2081  -6.2719
2025/03/17 03:01:13.000  -2182002.1097   4380843.8644   4076317.0304   5  22   3.7357   7.5979   4.2886  -3.8310   4.3054  -3.3053   0.00    0.0    0.09451   -0.21198   -0.11215   0.17296  0.18029  0.17918 -0.14183  0.13809 -0.14830  34.7691  -5.7405
2025/03/17 03:01:14.000  -2182005.0883   4380849.8062   4076319.1893   5  22   3.6249   7.5759   4.1718  -3.7819   4.2056  -3.1674   0.00    0.0    0.09864    0.33670   -0.15550   0.15637  0.17913  0.15967 -0.13632  0.13111 -0.12935  33.8268  -5.4940
2025/03/17 03:01:15.000  -2182006.9067   4380847.2362   4076317.1849   5  21   3.6215   7.9690   4.2821  -3.7941   4.5321  -3.1862   0.00    0.0    0.21297   -0.36773   -0.23678   0.15537  0.20621  0.16837 -0.14277  0.15275 -0.13157  26.7996  -6.0906
2025/03/17 03:01:16.000  -2182008.7123   4380847.7501   4076315.6943   5  22   3.6150   7.6605   4.2787  -3.8812   4.5308  -3.2198   0.00    0.0   -0.03778    0.11422    0.10805   0.15520  0.20162  0.16686 -0.14160  0.14953 -0.13092  50.6613  -5.8729
2025/03/17 03:01:17.000  -2182010.9207   4380856.0969   4076320.7179   5  22   3.5973   7.3894   4.1409  -3.8381   4.2476  -3.1614   0.00    0.0   -0.19748    0.39557    0.34633   0.17535  0.17940  0.18380 -0.14687  0.14446 -0.15322  49.6111  -5.4753
2025/03/17 03:01:18.000  -2182011.3659   4380867.2843   4076324.6764   5  22   3.7118   7.5138   4.0094  -3.8743   4.0873  -3.1581   0.00    0.0   -0.02135   -0.15524   -0.09080   0.17581  0.17914  0.18237 -0.14725  0.14395 -0.15441  48.1441  -5.8671
2025/03/17 03:01:18.999  -2182012.9744   4380859.5454   4076324.3385   5  22   3.7186   7.2737   3.9930  -4.0178   4.0100  -3.1898   0.00    0.0    0.13889   -0.01786   -0.19500   0.17642  0.17928  0.18305 -0.14761  0.14434 -0.15515  36.8364  -6.1328
2025/03/17 03:01:20.000  -2182012.8726   4380849.4279   4076323.5559   5  23   3.6891   7.6785   4.2558  -4.0232   4.4729  -3.2863   0.00    0.0    0.01811    0.11916   -0.04452   0.15108  0.18396  0.15643 -0.13699  0.12920 -0.12330  42.4455  -6.2814
2025/03/17 03:01:21.000  -2182014.0506   4380847.9922   4076323.2496   5  23   3.5829   7.2095   4.2091  -3.8097   4.2520  -3.1916   0.00    0.0   -0.00274    0.13343    0.02490   0.15064  0.17441  0.15473 -0.13505  0.13048 -0.12285  34.5521  -6.3807
2025/03/17 03:01:22.000  -2182011.7215   4380841.2184   4076321.6659   5  23   3.7098   7.6614   4.3321  -4.0323   4.5200  -3.2849   0.00    0.0    0.07757   -0.10899   -0.08231   0.16962  0.17900  0.17598 -0.14622  0.14283 -0.14706  49.8597  -6.7547
2025/03/17 03:01:23.000  -2182016.6702   4380860.8712   4076326.8736   5  24   3.8651   7.3626   4.0674  -4.1875   4.0841  -3.1933   0.00    0.0   -0.08441   -0.08549    0.12230   0.16444  0.17647  0.17553 -0.14122  0.13762 -0.14287  52.5659  -6.5012
2025/03/17 03:01:24.000  -2182013.9188   4380860.9042   4076326.9844   5  23   3.8937   7.2295   4.0189  -4.1942   4.0073  -3.2371   0.00    0.0    0.01146   -0.21586   -0.09064   0.15068  0.17441  0.15475 -0.13508  0.13049 -0.12288  43.5703  -6.6650
2025/03/17 03:01:25.000  -2182013.1318   4380862.2657   4076326.9498   5  23   3.9585   7.2547   4.0408  -4.2953   4.0206  -3.2913   0.00    0.0    0.03105    0.08833    0.08899   0.15095  0.17457  0.15776 -0.13485  0.12960 -0.12397  35.8585  -6.5288
2025/03/17 03:01:26.000  -2182005.5856   4380852.6099   4076325.6081   5  23   3.6847   7.3879   4.0204  -3.8023   3.9947  -3.1558   0.00    0.0   -0.17474    0.11842    0.23059   0.15071  0.17441  0.15476 -0.13510  0.13050 -0.12290  51.0266  -6.4130
2025/03/17 03:01:27.000  -2182006.6000   4380857.3443   4076325.8645   5  23   3.9577   7.6633   4.0515  -4.1425   4.1142  -3.2319   0.00    0.0    0.17487   -0.06531   -0.19966   0.16793  0.17846  0.18009 -0.14436  0.14167 -0.14576  43.5442  -6.9242
2025/03/17 03:01:28.000  -2182002.4545   4380857.4753   4076323.9669   5  23   3.7301   7.4044   4.0193  -3.8292   3.9568  -3.1349   0.00    0.0   -0.04289    0.06010    0.17995   0.15074  0.17440  0.15478 -0.13512  0.13051 -0.12292  34.7288  -6.7193
2025/03/17 03:01:29.000  -2182002.1774   4380854.1056   4076322.2174   5  23   3.6953   7.2168   3.9670  -3.8058   3.9346  -3.0925   0.00    0.0   -0.06126    0.00168    0.00539   0.16753  0.17906  0.17552 -0.14510  0.14238 -0.14378  53.3505  -6.7575
2025/03/17 03:01:30.000  -2182000.2084   4380855.5143   4076320.9123   5  23   3.7809   7.5775   3.9987  -3.9440   4.0456  -3.1400   0.00    0.0    0.03539   -0.06276    0.03251   0.15077  0.17440  0.15479 -0.13515  0.13052 -0.12294  45.2617  -6.8324
2025/03/17 03:01:31.000  -2181993.3751   4380836.1668   4076315.5221   5  23   3.6931   6.0002   3.9938  -3.5596   3.8187  -3.1264   0.00    0.0   -0.02625   -0.17224   -0.07132   0.15085  0.17445  0.15559 -0.13509  0.13029 -0.12324  21.7490  -6.5221
2025/03/17 03:01:32.000  -2181988.4785   4380852.2962   4076310.0450   5  23   4.2347   7.3519   4.5121  -4.2421   4.2687  -3.7506   0.00    0.0   -0.18100   -0.06809    0.00082   0.16372  0.17756  0.17031 -0.14261  0.13925 -0.13923  20.4380  -6.0394
2025/03/17 03:01:33.000  -2181986.3595   4380841.2591   4076310.1790   5  23   3.7704   6.8691   3.8255  -3.8073   3.8220  -3.0967   0.00    0.0    0.05411    0.13971    0.01378   0.15163  0.17356  0.15210 -0.13384  0.12842 -0.11907  35.5159  -6.4575
2025/03/17 03:01:34.000  -2181986.8318   4380833.1769   4076309.1109   5  23   3.6944   5.9156   3.8573  -3.5775   3.6939  -3.0903   0.00    0.0    0.01071    0.15317    0.09374   0.15183  0.17374  0.15222 -0.13363  0.12868 -0.11888  22.3222  -6.6131
2025/03/17 03:01:34.999  -2181986.4972   4380826.1192   4076305.5977   5  23   3.7654   6.0627   3.9802  -3.8040   3.8411  -3.2069   0.00    0.0    0.11248   -0.10648   -0.12006   0.15134  0.17359  0.15181 -0.13397  0.12764 -0.12045   8.4355  -6.8033
2025/03/17 03:01:36.000  -2181987.1037   4380825.5567   4076306.0648   5  25   3.6854   5.8899   4.0248  -3.6946   3.9498  -3.2763   0.00    0.0   -0.13355    0.12375    0.02352   0.14495  0.17158  0.14642 -0.12966  0.12414 -0.11634  18.9286  -6.3970
2025/03/17 03:01:37.000  -2181989.8186   4380829.5563   4076310.6267   5  24   3.8422   6.0308   4.0413  -3.8800   3.9683  -3.3962   0.00    0.0   -0.04631   -0.01360    0.00217   0.15025  0.17348  0.15419 -0.13285  0.12803 -0.12182  15.3402  -6.5399
2025/03/17 03:01:38.000  -2181988.8391   4380830.5121   4076309.7369   5  26   3.7773   4.9251   4.0387  -3.6016   3.7650  -3.3417   0.00    0.0    0.08809   -0.02676   -0.02224   0.14460  0.16461  0.14473 -0.12850  0.12574 -0.11585   6.7237  -6.6896
2025/03/17 03:01:39.000  -2181995.1995   4380842.4242   4076315.4757   5  24   3.9451   6.1347   4.1064  -4.0324   4.0069  -3.4585   0.00    0.0    0.07118   -0.09967   -0.06346   0.14965  0.17317  0.14960 -0.13341  0.12841 -0.12166  37.1752  -6.8678
2025/03/17 03:01:40.000  -2181997.3612   4380846.8406   4076319.2865   5  24   3.8292   6.0665   4.0207  -3.8864   3.9395  -3.3369   0.00    0.0    0.04486    0.05074    0.01606   0.15002  0.17337  0.15230 -0.13311  0.12777 -0.12244  33.9126  -6.8482
2025/03/17 03:01:41.000  -2181998.3354   4380847.8493   4076319.3468   5  24   3.8654   6.1358   4.0427  -3.9792   3.9960  -3.3757   0.00    0.0   -0.04568   -0.02246    0.01058   0.14979  0.17381  0.14998 -0.13374  0.12903 -0.12193  26.8229  -6.7457
2025/03/17 03:01:42.000  -2182001.3610   4380851.3783   4076321.5874   5  24   3.9003   6.0782   4.0884  -3.9789   4.0106  -3.4204   0.00    0.0   -0.04764    0.07803    0.07564   0.15002  0.17351  0.15224 -0.13315  0.12771 -0.12280  52.5565  -6.7717
2025/03/17 03:01:43.000  -2182000.9530   4380850.5372   4076320.9685   5  24   3.9671   5.9394   4.1123  -3.9977   3.9897  -3.4907   0.00    0.0    0.09777   -0.15645   -0.06466   0.14994  0.17331  0.15137 -0.13327  0.12786 -0.12248  44.4143  -6.5584
2025/03/17 03:01:44.000  -2181996.5259   4380845.3076   4076317.2283   5  24   4.1530   6.1145   4.4152  -4.1370   4.2099  -3.7800   0.00    0.0   -0.23330    0.15646    0.19347   0.14986  0.17391  0.15008 -0.13383  0.12915 -0.12201  31.1389  -6.3248
2025/03/17 03:01:45.000  -2181994.9382   4380843.4355   4076314.6242   5  24   4.2406   6.1414   4.5327  -4.1505   4.2529  -3.9052   0.00    0.0   -0.12975    0.43483    0.29351   0.15077  0.17342  0.15150 -0.13373  0.12771 -0.12163  20.6918  -6.8380
2025/03/17 03:01:46.000  -2181997.8903   4380846.6119   4076318.9757   5  24   4.0228   5.8356   4.2829  -3.9301   3.9867  -3.6522   0.00    0.0   -0.00244   -0.07585    0.11866   0.15012  0.17331  0.15135 -0.13327  0.12905 -0.12086  16.0871  -7.3631
2025/03/17 03:01:47.000  -2181996.1331   4380847.3975   4076316.5902   5  24   4.2005   5.6877   4.3319  -3.9727   3.9729  -3.7819   0.00    0.0   -0.02002   -0.02565   -0.01879   0.15010  0.17337  0.15211 -0.13325  0.12768 -0.12285  36.3651  -7.3913
2025/03/17 03:01:48.000  -2181994.9306   4380844.2188   4076317.3664   5  24   4.1237   5.5646   4.2963  -3.9072   3.9168  -3.7277   0.00    0.0    0.03745    0.02358   -0.02399   0.15007  0.17483  0.15066 -0.13432  0.13004 -0.12242  24.8672  -7.4195
2025/03/17 03:01:49.000  -2181994.7829   4380840.4793   4076319.2509   5  24   4.0339   5.4523   4.4019  -3.8044   3.9294  -3.7552   0.00    0.0    0.04488   -0.08170   -0.09996   0.15042  0.17345  0.15371 -0.13309  0.12853 -0.12159  14.9727  -7.3340
2025/03/17 03:01:50.000  -2181996.5863   4380840.8922   4076322.1435   5  24   3.9536   5.2249   4.3595  -3.7202   3.8580  -3.6977   0.00    0.0   -0.08305    0.10845    0.11440   0.15070  0.17669  0.15319 -0.13495  0.13220 -0.12222  37.5479  -7.2423
2025/03/17 03:01:51.000  -2181998.5851   4380842.8236   4076325.8843   5  24   3.9436   5.2359   4.3591  -3.7166   3.8632  -3.6878   0.00    0.0    0.04832   -0.09938   -0.06419   0.15023  0.17335  0.15202 -0.13330  0.12866 -0.12158  31.1446  -7.3327
2025/03/17 03:01:51.999  -2182001.1781   4380843.5559   4076328.1951   5  24   3.9217   5.2348   4.3629  -3.7016   3.8767  -3.6691   0.00    0.0   -0.03543    0.06631   -0.01186   0.15023  0.17340  0.15251 -0.13329  0.12763 -0.12308  24.6837  -7.1558
2025/03/17 03:01:53.000  -2181998.8241   4380843.2107   4076323.4197   5  24   3.9982   5.2916   4.4109  -3.7777   3.9477  -3.7353   0.00    0.0    0.13987   -0.25719   -0.02893   0.15143  0.17460  0.15081 -0.13297  0.12742 -0.12248  32.4182  -6.8968
2025/03/17 03:01:54.000  -2181997.1950   4380840.2150   4076321.6571   5  23   3.9687   5.7164   4.4729  -3.7454   4.1090  -3.7183   0.00    0.0    0.06659    0.13353    0.04780   0.15665  0.21711  0.17143 -0.13986  0.15518 -0.12305  22.3139  -5.2239
2025/03/17 03:01:55.000  -2181998.9254   4380843.2209   4076322.9167   5  24   3.8411   5.5468   4.3093  -3.6430   3.9944  -3.5640   0.00    0.0   -0.02595   -0.04268   -0.21982   0.17044  0.21142  0.18831 -0.15504  0.16543 -0.15389  48.8552  -5.2612
2025/03/17 03:01:56.000  -2181997.1988   4380838.8203   4076321.1333   5  22   3.9107   5.6018   4.4297  -3.7257   3.9788  -3.6019   0.00    0.0   -0.02741    0.04493    0.10034   0.15708  0.21270  0.17247 -0.14374  0.15823 -0.12672  37.9885  -6.4667
2025/03/17 03:01:57.000  -2181995.6238   4380836.9276   4076319.2013   5  22   4.0317   5.6519   4.5340  -3.8331   4.0731  -3.7248   0.00    0.0    0.14594   -0.05786   -0.00058   0.14937  0.21214  0.16828 -0.14196  0.15757 -0.12196  27.1313  -6.5815
2025/03/17 03:01:58.000  -2181998.8973   4380839.1947   4076321.4366   5  22   3.9288   5.6206   4.3930  -3.8167   3.9698  -3.5951   0.00    0.0   -0.12584    0.05562    0.03434   0.14909  0.20888  0.16089 -0.14278  0.15315 -0.12279  22.4936  -6.5562
2025/03/17 03:01:59.000  -2181999.9340   4380844.7742   4076324.7471   5  22   3.5936   5.4548   3.9428  -3.4669   3.6528  -3.1322   0.00    0.0    0.12887   -0.06041   -0.09129   0.14939  0.20994  0.16622 -0.14220  0.15391 -0.12312  48.2700  -7.2803
2025/03/17 03:02:00.000  -2182000.6396   4380834.1280   4076324.4408   5  24   3.5833   5.9249   3.9576  -3.5441   3.5141  -3.1748   0.00    0.0    0.01852   -0.03479   -0.03624   0.14782  0.17233  0.15255 -0.13079  0.12427 -0.11541  31.9959  -7.0096
2025/03/17 03:02:01.000  -2181997.9077   4380845.1802   4076323.0934   5  22   3.8898   5.6337   4.4252  -3.6752   4.0061  -3.5738   0.00    0.0   -0.13572    0.04388    0.18116   0.14930  0.20910  0.16303 -0.14263  0.15242 -0.12357  30.0312  -6.4092
2025/03/17 03:02:02.000  -2181996.2394   4380838.6909   4076319.0344   5  23   3.9222   5.9851   4.3364  -3.7815   3.9029  -3.5772   0.00    0.0   -0.03593    0.01826    0.03235   0.14744  0.17584  0.14952 -0.13247  0.12854 -0.11518  15.9237  -6.3096
2025/03/17 03:02:03.000  -2181996.8577   4380846.7051   4076320.0066   5  22   4.0930   5.7438   4.7387  -3.9126   4.2707  -3.8756   0.00    0.0    0.04475    0.07722   -0.00175   0.14979  0.21113  0.16605 -0.14257  0.15738 -0.12229  44.5884  -6.7579
2025/03/17 03:02:04.000  -2181997.0474   4380845.4243   4076318.2533   5  23   4.2001   5.7027   4.8752  -4.0012   4.3323  -4.0091   0.00    0.0    0.03325    0.14710    0.06188   0.14705  0.17562  0.14775 -0.13261  0.12795 -0.11616  34.8906  -6.8839
2025/03/17 03:02:05.000  -2181997.3617   4380843.7936   4076316.5671   5  23   4.2469   5.7426   5.0642  -4.1244   4.4982  -4.1338   0.00    0.0   -0.07228   -0.16913    0.03306   0.14750  0.17572  0.14985 -0.13236  0.12856 -0.11496  25.9291  -6.5520
2025/03/17 03:02:06.000  -2181996.0203   4380841.5282   4076311.5058   5  24   4.2399   5.7562   4.9789  -4.0579   4.5115  -4.1472   0.00    0.0   -0.01038   -0.32860   -0.10393   0.15305  0.18237  0.15439 -0.13578  0.12915 -0.12146  15.7436  -5.6909
2025/03/17 03:02:07.000  -2181996.1216   4380842.2553   4076311.8972   5  24   4.2035   5.7075   4.9867  -4.0665   4.5310  -4.1326   0.00    0.0   -0.12788    0.01627    0.09096   0.14933  0.18689  0.15634 -0.13313  0.13179 -0.11723  40.0570  -4.2209
2025/03/17 03:02:07.999  -2181996.0485   4380840.4639   4076311.4501   5  24   4.1931   5.5873   4.9503  -4.0318   4.4580  -4.1116   0.00    0.0    0.12550   -0.04239   -0.08725   0.15124  0.17624  0.15175 -0.13382  0.12885 -0.11999  32.5336  -3.8891
2025/03/17 03:02:09.000  -2181998.1818   4380834.7704   4076312.0128   5  24   4.2038   5.6954   4.9424  -3.9009   4.2247  -4.1174   0.00    0.0   -0.12169    0.09509    0.17625   0.15090  0.17893  0.15276 -0.13483  0.13218 -0.12352  42.5710  -3.1619
2025/03/17 03:02:10.000  -2181999.7588   4380838.6738   4076312.9436   5  23   4.3147   5.5960   5.0113  -3.9867   4.3084  -4.2168   0.00    0.0   -0.18566    0.23921    0.23778   0.15120  0.17752  0.15403 -0.13561  0.13317 -0.12283  41.1529  -3.0318
2025/03/17 03:02:11.000  -2181999.7607   4380840.9619   4076312.1482   5  22   4.3754   5.4129   5.0591  -4.0263   4.3796  -4.2763   0.00    0.0   -0.16277    0.17836    0.24298   0.17263  0.18357  0.18010 -0.14971  0.14872 -0.15283  37.6252  -3.2032
2025/03/17 03:02:12.000  -2181998.1112   4380839.5433   4076309.2669   5  22   4.3480   5.3662   5.0793  -4.0445   4.3976  -4.2671   0.00    0.0   -0.15082   -0.17374    0.03681   0.17715  0.18491  0.19479 -0.15148  0.15247 -0.15899  31.6649  -2.6564
2025/03/17 03:02:13.000  -2181996.5179   4380839.4126   4076308.5904   5  22   4.2639   5.4120   5.1176  -4.0291   4.4392  -4.2423   0.00    0.0    0.44702    0.32372   -0.29242   0.18235  0.19611  0.19536 -0.15493  0.15272 -0.15699  26.9465  -3.6677
2025/03/17 03:02:14.000  -2181996.9036   4380839.7788   4076308.1164   5  21   4.4453   5.8111   5.3585  -4.2274   4.7803  -4.4301   0.00    0.0    0.09733    0.98752    0.57827   0.20361  0.20553  0.23069 -0.16628  0.16621 -0.18994  20.4321  -4.2832
2025/03/17 03:02:15.000  -2182000.5523   4380849.7993   4076317.5678   5  22   4.6049   5.8611   5.5877  -4.3281   4.9001  -4.6435   0.00    0.0   -0.11506    0.07314    0.18693   0.17485  0.18400  0.19073 -0.14983  0.15057 -0.15708  52.0207  -4.8898
2025/03/17 03:02:16.000  -2182003.6246   4380849.4284   4076319.9089   5  22   4.5938   5.7610   5.5590  -4.2835   4.8289  -4.6241   0.00    0.0    0.00945    0.13403   -0.13858   0.17305  0.18366  0.18051 -0.14998  0.14856 -0.15255  46.4534  -5.9653
2025/03/17 03:02:17.000  -2182004.1614   4380849.7078   4076321.7591   5  22   4.6584   5.8822   5.6823  -4.3858   4.9460  -4.7219   0.00    0.0   -0.09657    0.00924    0.19416   0.17276  0.18357  0.18019 -0.14980  0.14878 -0.15295  39.8626  -5.9454
2025/03/17 03:02:18.000  -2182011.0491   4380852.9034   4076330.4591   5  22   4.4835   5.5575   5.4474  -4.0502   4.5403  -4.4935   0.00    0.0   -0.03480   -0.01816   -0.02301   0.17450  0.18453  0.18435 -0.15134  0.15121 -0.15604  39.5275  -6.1974
2025/03/17 03:02:19.000  -2182013.7016   4380850.7104   4076333.8994   5  22   4.6529   5.4678   5.7839  -4.0947   4.5611  -4.7497   0.00    0.0    0.01679    0.03751    0.00359   0.17456  0.18358  0.18526 -0.14988  0.14887 -0.15641  33.8549  -6.4617
2025/03/17 03:02:20.000  -2182016.5943   4380850.6072   4076338.9912   5  23   4.1982   5.2314   5.1023  -3.7087   4.0576  -4.1462   0.00    0.0   -0.08017    0.00926    0.04169   0.15147  0.17756  0.15463 -0.13569  0.13342 -0.12276  59.8064  -6.2517
2025/03/17 03:02:21.000  -2182016.5671   4380845.3172   4076336.4065   5  23   4.1907   5.0427   5.1122  -3.7188   3.9818  -4.1520   0.00    0.0   -0.04177   -0.05035    0.05841   0.15153  0.17776  0.15620 -0.13553  0.13169 -0.12494  49.9085  -6.2376
2025/03/17 03:02:22.000  -2182013.3843   4380841.7169   4076328.2298   5  23   4.2360   5.1277   5.3416  -3.7461   3.9922  -4.2269   0.00    0.0   -0.01563    0.19734   -0.06711   0.16943  0.18209  0.17933 -0.14642  0.14472 -0.14993  35.4605  -6.1993
2025/03/17 03:02:23.000  -2181999.5734   4380843.1325   4076309.3251   5  22   4.1202   5.7699   4.9666  -3.6870   3.9247  -4.0129   0.00    0.0   -0.09828    0.07855    0.11480   0.17473  0.18358  0.18557 -0.14994  0.14892 -0.15666  17.4917  -6.4018
2025/03/17 03:02:24.000  -2181997.5906   4380842.2564   4076305.4584   5  22   4.0113   5.8331   4.8850  -3.7508   3.9749  -3.9057   0.00    0.0   -0.03354    0.07193    0.18913   0.17453  0.18358  0.18495 -0.14995  0.14892 -0.15624  36.4642  -6.7407
2025/03/17 03:02:24.999  -2181995.7646   4380844.2927   4076304.8898   5  22   4.0055   5.8471   4.8774  -3.7526   3.9806  -3.9017   0.00    0.0    0.03180   -0.19561   -0.15951   0.17632  0.18408  0.18710 -0.15051  0.15098 -0.15677  28.7988  -6.7413
2025/03/17 03:02:26.000  -2181992.1643   4380845.9836   4076301.8311   5  21   3.9967   5.8269   4.8716  -3.7343   3.9070  -3.8870   0.00    0.0   -0.06550    0.05039    0.16749   0.17405  0.18437  0.18246 -0.15039  0.14884 -0.15278  37.6100  -6.4542
2025/03/17 03:02:27.000  -2181992.7197   4380846.5083   4076302.5030   5  21   4.0011   5.9113   4.8540  -3.7671   3.9628  -3.8803   0.00    0.0   -0.09180    0.14281    0.11186   0.17535  0.18380  0.18657 -0.15044  0.14833 -0.15558  29.9838  -6.5076
2025/03/17 03:02:28.000  -2181993.2430   4380846.4858   4076304.4629   5  21   4.0247   5.8401   4.9076  -3.7605   3.9425  -3.9229   0.00    0.0    0.07895   -0.06678   -0.01425   0.17380  0.18381  0.18119 -0.15047  0.14837 -0.15221  22.6853  -6.6682
2025/03/17 03:02:29.000  -2181992.0393   4380844.7921   4076305.1128   5  21   4.0029   5.8697   4.8871  -3.7527   3.9672  -3.9060   0.00    0.0   -0.06270    0.15155    0.10280   0.17596  0.18381  0.18851 -0.15047  0.14834 -0.15682  12.4560  -6.7381
2025/03/17 03:02:30.000  -2181994.1425   4380843.4271   4076308.6503   5  21   4.0318   5.8921   4.9736  -3.8139   4.0902  -3.9643   0.00    0.0   -0.08314   -0.07268    0.05002   0.17385  0.18381  0.18121 -0.15050  0.14839 -0.15224  34.2129  -6.8283
2025/03/17 03:02:31.000  -2181986.1350   4380829.4280   4076305.9794   5  21   5.4698   6.5489   5.5268  -5.2931   5.1508  -4.9263   0.00    0.0    0.09066   -0.11066    0.01719   0.17524  0.18415  0.19056 -0.15041  0.14995 -0.15481  11.7525  -6.8557
2025/03/17 03:02:32.000  -2181987.8580   4380835.0151   4076308.5676   5  22   5.2327   5.6030   5.4225  -4.8381   4.9026  -4.7552   0.00    0.0   -0.12197    0.18427    0.14801   0.17389  0.17865  0.18064 -0.15070  0.15054 -0.15223   7.6290  -6.5993
2025/03/17 03:02:33.000  -2181984.8396   4380828.6779   4076309.1032   5  21   5.6028   6.7728   5.6175  -5.4902   5.3214  -5.0549   0.00    0.0    0.07488    0.08086   -0.03153   0.17391  0.18381  0.18126 -0.15055  0.14841 -0.15230  23.5389  -6.6880
2025/03/17 03:02:34.000  -2181990.9528   4380834.4043   4076312.9646   5  21   5.2348   6.5702   5.5312  -5.1538   5.1691  -4.8315   0.00    0.0    0.04301    0.05571    0.04857   0.17394  0.18445  0.18160 -0.15052  0.14899 -0.15229  22.1945  -6.7383
2025/03/17 03:02:35.000  -2182003.5830   4380849.9935   4076332.5113   5  21   4.5003   5.6428   6.0665  -4.1612   4.6695  -4.7430   0.00    0.0   -0.11010    0.24983    0.16245   0.17396  0.18382  0.18128 -0.15058  0.14843 -0.15234  35.0210  -6.8050
2025/03/17 03:02:36.000  -2181996.4119   4380841.2334   4076317.9802   5  22   4.2873   6.0879   5.3328  -4.2863   4.9325  -4.3298   0.00    0.0   -0.01266   -0.17433    0.04046   0.17315  0.18359  0.18050 -0.15008  0.14896 -0.15330  13.1403  -6.9459
2025/03/17 03:02:37.000  -2181996.7128   4380840.3739   4076318.1030   5  22   4.2849   6.0697   5.3510  -4.2831   4.9353  -4.3376   0.00    0.0    0.05411   -0.12044   -0.06788   0.17317  0.18359  0.18051 -0.15010  0.14897 -0.15332  34.9559  -7.0675
2025/03/17 03:02:38.000  -2181996.7531   4380837.7485   4076317.3131   5  22   4.3300   6.3380   5.5453  -4.4039   5.1938  -4.4403   0.00    0.0   -0.07092   -0.02112    0.11566   0.17320  0.18371  0.18154 -0.15008  0.14941 -0.15325  25.5298  -6.6006
2025/03/17 03:02:39.000  -2181997.7183   4380838.8265   4076317.4471   5  22   4.3632   6.4931   5.6236  -4.4755   5.3130  -4.4936   0.00    0.0   -0.02268    0.13380    0.10077   0.17322  0.18506  0.18139 -0.15001  0.15032 -0.15327  18.7765  -6.7376
2025/03/17 03:02:40.000  -2182014.1312   4380860.2240   4076342.7307   5  22   4.6613   5.8810   5.8502  -4.4025   4.8891  -4.7833   0.00    0.0   -0.07948    0.12246    0.03087   0.17324  0.18444  0.18242 -0.15004  0.15023 -0.15321  63.5122  -6.9230
2025/03/17 03:02:40.999  -2182012.4362   4380853.7464   4076340.3186   5  22   4.7980   5.5722   6.2576  -4.5611   5.3014  -5.0596   0.00    0.0    0.07182    0.00424   -0.02113   0.17963  0.20963  0.20818 -0.16403  0.18105 -0.16767  52.5483  -6.8931
2025/03/17 03:02:42.000  -2182014.6173   4380856.9587   4076343.2760   5  22   4.6248   5.3221   5.9110  -4.3666   4.9843  -4.7953   0.00    0.0   -0.00341   -0.07807   -0.06776   0.17901  0.20878  0.20411 -0.16358  0.17908 -0.16615  65.2746  -6.9472
2025/03/17 03:02:43.000  -2182015.5801   4380857.0851   4076343.4965   5  22   4.7592   5.4516   6.0221  -4.4900   5.0941  -4.9255   0.00    0.0   -0.04728    0.05361    0.06033   0.17711  0.21086  0.20205 -0.16307  0.18085 -0.16270  57.6237  -6.8415
2025/03/17 03:02:44.000  -2182019.0070   4380856.5049   4076349.4396   5  22   4.8335   5.6082   6.3125  -4.4709   5.1244  -5.0740   0.00    0.0    0.00767   -0.07002   -0.01576   0.17709  0.20728  0.19505 -0.16262  0.17539 -0.16205  52.7450  -6.9253
2025/03/17 03:02:45.000  -2182021.7732   4380858.5589   4076351.9825   5  22   4.8463   5.5810   6.1733  -4.3813   5.0347  -5.0330   0.00    0.0   -0.08136    0.12293    0.09971   0.17950  0.20748  0.20139 -0.16345  0.17670 -0.16652  46.7075  -6.7450
2025/03/17 03:02:46.000  -2182007.5236   4380855.8189   4076327.6980   5  21   4.5720   5.9718   5.6860  -4.4038   4.9126  -4.6466   0.00    0.0    0.07938   -0.04354   -0.07607   0.17736  0.22125  0.19958 -0.16477  0.17971 -0.16268  55.0679  -7.0251
2025/03/17 03:02:47.000  -2182007.0628   4380856.2640   4076326.4038   5  21   4.6473   6.0796   5.8905  -4.4255   4.9972  -4.7923   0.00    0.0    0.07795   -0.05079   -0.13785   0.17789  0.21932  0.19665 -0.16456  0.17643 -0.16326  46.9403  -7.1536
2025/03/17 03:02:48.000  -2182009.9857   4380857.8680   4076330.2465   5  21   4.7100   6.1485   5.9167  -4.4279   4.9886  -4.8377   0.00    0.0   -0.20107    0.10781    0.26992   0.18130  0.22635  0.20580 -0.16416  0.18153 -0.16419  41.5641  -5.9394
2025/03/17 03:02:49.000  -2182011.4700   4380857.0410   4076330.8975   5  21   4.6541   6.1982   5.8646  -4.4712   5.0317  -4.7666   0.00    0.0   -0.20193   -0.18000    0.02803   0.18348  0.22329  0.21731 -0.16764  0.18528 -0.17054  34.2295  -5.2580
2025/03/17 03:02:50.000  -2182008.3146   4380853.7557   4076327.2796   5  21   4.7004   6.2477   5.9429  -4.5107   5.0960  -4.8270   0.00    0.0   -0.13890    0.03279    0.13257   0.18179  0.22780  0.20937 -0.16267  0.18043 -0.16505  53.8682  -4.0470
2025/03/17 03:02:51.000  -2182009.6743   4380852.5608   4076329.4989   5  21   4.5345   6.1240   5.6281  -4.3441   4.8601  -4.5709   0.00    0.0   -0.15550   -0.38683    0.17905   0.18098  0.24151  0.19649 -0.16984  0.18082 -0.16327  48.6725  -3.0136
2025/03/17 03:02:52.000  -2182004.9602   4380846.7773   4076323.9381   5  21   4.4918   6.0974   5.5944  -4.3056   4.8317  -4.5320   0.00    0.0    0.08325    0.12579   -0.03091   0.18398  0.22459  0.21598 -0.17009  0.18771 -0.17468  37.6069  -3.6050
2025/03/17 03:02:53.000  -2181998.8696   4380854.0791   4076317.0192   5  21   4.3353   6.4256   5.5107  -4.0396   4.4381  -4.4183   0.00    0.0   -0.05099    0.15167   -0.04997   0.18364  0.22225  0.21006 -0.16928  0.18354 -0.17255  34.4079  -4.3856
2025/03/17 03:02:54.000  -2182000.5369   4380850.5138   4076320.0962   5  21   4.2823   6.3782   5.2416  -4.1089   4.3951  -4.2447   0.00    0.0    0.01049   -0.12414   -0.10562   0.17756  0.22234  0.19797 -0.16495  0.17953 -0.16272  28.2831  -4.4859
2025/03/17 03:02:55.000  -2182002.1047   4380850.3805   4076324.2533   5  21   4.1760   6.3886   4.8256  -4.0565   4.2673  -4.0125   0.00    0.0   -0.13962    0.02354    0.26567   0.18056  0.22087  0.19884 -0.16409  0.17661 -0.16361  54.2661  -3.6823
2025/03/17 03:02:56.000  -2182000.7082   4380853.6760   4076324.3819   5  20   4.4483   6.7219   5.2710  -4.2145   4.2877  -4.3297   0.00    0.0   -0.07561   -0.14773    0.06625   0.18985  0.23229  0.23284 -0.16684  0.18951 -0.17880  53.6454  -0.9669
2025/03/17 03:02:56.999  -2182004.0853   4380846.0583   4076333.4111   5  20   4.5252   6.0099   6.0009  -4.3225   4.5780  -4.5944   0.00    0.0   -0.23549    0.62466   -0.08805   0.25970  0.28310  0.26540 -0.24108  0.24309 -0.22832  51.5451  -2.2366
2025/03/17 03:02:58.000  -2182002.6043   4380842.5660   4076329.1415   5  20   4.4799   6.0499   5.7954  -4.2358   4.5113  -4.4431   0.00    0.0   -0.01968   -0.11748    0.30680   0.18687  0.23025  0.21723 -0.17204  0.19183 -0.17580  31.7533  -2.6433
2025/03/17 03:02:59.000  -2182007.3226   4380848.6593   4076337.6650   5  22   4.7285   5.3142   6.4018  -4.3896   5.0133  -4.9031   0.00    0.0    0.00740   -0.20304   -0.10052   0.17927  0.18034  0.19429 -0.15380  0.15512 -0.16195  35.6201  -2.3216
2025/03/17 03:03:00.000  -2182006.6811   4380847.9567   4076340.1664   5  21   4.7113   6.0111   6.4760  -4.4217   4.7551  -4.8849   0.00    0.0    0.06189    0.16625   -0.00068   0.17592  0.18488  0.19049 -0.15082  0.15055 -0.15545  63.0639  -2.2612
2025/03/17 03:03:01.000  -2182001.3445   4380847.2834   4076317.2257   5  20   4.1071   5.7714   5.0833  -4.0336   4.1595  -3.9152   0.00    0.0   -0.00373    0.04074    0.07651   0.17824  0.22168  0.20268 -0.16491  0.18096 -0.16193  45.7952  -2.3893
2025/03/17 03:03:02.000  -2182001.3957   4380850.6252   4076317.4674   5  20   4.0790   6.2947   5.0205  -4.0390   4.0702  -3.8785   0.00    0.0    0.12369    0.05758   -0.21675   0.17827  0.22129  0.20172 -0.16490  0.18025 -0.16190  43.1984  -2.9135
2025/03/17 03:03:03.000  -2181998.8973   4380844.2865   4076313.9682   5  20   4.0563   5.7586   4.8537  -4.0010   4.0973  -3.8230   0.00    0.0    0.05646    0.17892    0.01336   0.18761  0.23267  0.21535 -0.16001  0.18256 -0.16880  32.8334  -4.7500
2025/03/17 03:03:04.000  -2181998.1869   4380840.0278   4076311.5946   5  21   4.0592   5.4366   4.8093  -3.9110   3.9055  -3.8258   0.00    0.0    0.02229    0.15624   -0.11455   0.17829  0.19214  0.19668 -0.15229  0.15035 -0.15841  22.8006  -5.3725
2025/03/17 03:03:05.000  -2181999.5132   4380840.1964   4076313.3347   5  21   4.0387   5.4576   4.8322  -3.8719   3.8675  -3.8190   0.00    0.0    0.06902   -0.08420   -0.20341   0.17696  0.18419  0.19471 -0.15103  0.15035 -0.15775  15.9364  -5.7727
2025/03/17 03:03:06.000  -2181999.6174   4380839.4925   4076312.4934   5  21   4.0014   5.3792   4.7684  -3.8198   3.8425  -3.7742   0.00    0.0    0.07745   -0.14397   -0.17469   0.17619  0.18399  0.18876 -0.15105  0.14933 -0.15611   7.8005  -5.8036
2025/03/17 03:03:07.000  -2182002.4791   4380841.8994   4076314.5807   5  22   4.1012   5.4186   4.7896  -3.8833   3.9460  -3.8772   0.00    0.0    0.00238   -0.03255   -0.13747   0.16654  0.18052  0.17367 -0.14488  0.14231 -0.14344  32.5452  -5.9363
2025/03/17 03:03:08.000  -2182004.7033   4380846.2309   4076321.4795   5  22   4.1807   5.3649   5.2096  -3.9315   3.9678  -4.0970   0.00    0.0    0.00760    0.01701    0.05516   0.16661  0.18090  0.17799 -0.14473  0.14391 -0.14293  32.9150  -5.8216
2025/03/17 03:03:09.000  -2182006.4405   4380847.4527   4076325.7606   5  22   4.2104   5.3859   5.4347  -3.9427   3.9419  -4.1678   0.00    0.0    0.10295   -0.09521   -0.16430   0.16888  0.18053  0.18219 -0.14474  0.14199 -0.14870  30.4933  -6.1284
2025/03/17 03:03:10.000  -2182008.4245   4380848.9533   4076327.7881   5  22   4.2466   5.5879   5.5433  -4.0414   4.1504  -4.2492   0.00    0.0   -0.03369    0.04766   -0.00173   0.16893  0.18080  0.18667 -0.14475  0.14339 -0.14878  24.9343  -6.1479
2025/03/17 03:03:11.000  -2182007.8872   4380847.4026   4076327.0964   5  21   4.2549   5.6930   5.5695  -4.0684   4.1689  -4.2540   0.00    0.0    0.00582   -0.12105   -0.10170   0.17712  0.18388  0.18980 -0.15117  0.14880 -0.15809  46.7814  -6.2242
2025/03/17 03:03:12.000  -2182007.7011   4380852.0823   4076326.1065   5  21   4.2324   5.6436   5.4712  -4.0279   4.1898  -4.2263   0.00    0.0   -0.04191   -0.03944   -0.04167   0.17531  0.18388  0.18364 -0.15117  0.14878 -0.15420  40.4938  -6.0343
2025/03/17 03:03:13.000  -2182002.6920   4380843.9354   4076312.4009   5  21   4.0362   5.6507   5.1331  -3.9239   4.3402  -3.9988   0.00    0.0    0.01644    0.14989    0.04026   0.17698  0.18502  0.19408 -0.15104  0.15095 -0.15745  19.8836  -5.9394
2025/03/17 03:03:13.999  -2182001.6769   4380841.5334   4076309.2521   5  22   4.0993   5.7697   5.2929  -4.0103   4.4936  -4.0875   0.00    0.0   -0.06064   -0.05258    0.14254   0.17426  0.18123  0.18074 -0.14916  0.14671 -0.15172  10.5781  -5.6224
2025/03/17 03:03:15.000  -2182001.2058   4380842.5642   4076309.5321   5  22   4.0458   5.7197   5.1073  -3.9603   4.3837  -3.9908   0.00    0.0   -0.04671    0.09341   -0.02631   0.17426  0.17986  0.18002 -0.14940  0.14548 -0.15190  22.4068  -5.9162
2025/03/17 03:03:16.000  -2182000.4878   4380838.9266   4076307.5141   5  22   4.0828   5.7895   5.1194  -3.9838   4.4502  -4.0005   0.00    0.0    0.09022   -0.00959    0.03198   0.17541  0.17993  0.18392 -0.14950  0.14572 -0.15434  11.8259  -6.2808
2025/03/17 03:03:17.000  -2181999.1140   4380837.2281   4076305.7698   5  21   4.0429   5.7877   4.9186  -3.9596   4.3824  -3.8845   0.00    0.0    0.03137   -0.12661    0.09020   0.17496  0.18537  0.18660 -0.15097  0.15133 -0.15243  31.1514  -6.0137
2025/03/17 03:03:18.000  -2181997.8036   4380836.4912   4076304.4288   5  21   4.0249   5.7421   4.8765  -3.9292   4.3203  -3.8510   0.00    0.0    0.00492   -0.04160   -0.13554   0.17496  0.18416  0.18515 -0.15111  0.15000 -0.15265  23.1830  -5.7027
2025/03/17 03:03:19.000  -2181995.9829   4380834.5157   4076303.3396   5  21   4.0755   5.8117   4.8816  -3.9936   4.3899  -3.8918   0.00    0.0    0.04040   -0.08497   -0.01016   0.17493  0.18460  0.18226 -0.15122  0.14947 -0.15313  12.0467  -5.9630
2025/03/17 03:03:20.000  -2181993.2212   4380832.9234   4076302.5912   5  21   4.0223   5.7968   4.7972  -3.9494   4.3181  -3.8248   0.00    0.0   -0.15857    0.24946    0.04050   0.17495  0.18389  0.18190 -0.15129  0.14884 -0.15318   1.2036  -6.0162
2025/03/17 03:03:21.000  -2181992.1282   4380832.8421   4076301.1615   5  21   4.0053   5.7622   4.8584  -3.9453   4.3352  -3.8365   0.00    0.0   -0.06110    0.09515    0.05952   0.17497  0.18389  0.18191 -0.15131  0.14885 -0.15320  21.4017  -6.2678
2025/03/17 03:03:22.000  -2181992.6112   4380831.4382   4076300.6255   5  21   4.0112   5.8688   4.8363  -3.9451   4.4276  -3.8436   0.00    0.0    0.12886   -0.13475   -0.09638   0.17573  0.18686  0.18429 -0.15289  0.15061 -0.15337  12.2162  -6.6534
2025/03/17 03:03:23.000  -2181991.7830   4380830.4919   4076300.6849   5  21   3.9597   5.9172   4.8148  -3.9350   4.4389  -3.7988   0.00    0.0    0.04163   -0.12092   -0.09828   0.17682  0.18389  0.18806 -0.15136  0.14891 -0.15711   2.6089  -6.6834
2025/03/17 03:03:24.000  -2181991.8831   4380831.4382   4076301.5461   5  21   4.1039   5.7666   4.7822  -3.9787   4.3448  -3.8747   0.00    0.0    0.00953    0.00125   -0.08867   0.17724  0.18389  0.18939 -0.15138  0.14893 -0.15797  -5.7028  -6.4704
2025/03/17 03:03:25.000  -2181991.7433   4380831.6109   4076301.8744   5  21   4.1049   5.7758   4.8282  -3.9960   4.3766  -3.9028   0.00    0.0    0.01060   -0.03823    0.02925   0.17659  0.18468  0.19235 -0.15124  0.15095 -0.15612  16.9196  -6.6470
2025/03/17 03:03:26.000  -2181992.3334   4380833.4016   4076303.9878   5  21   4.0826   5.7872   4.8893  -4.0320   4.4366  -3.9317   0.00    0.0    0.00564    0.00674    0.04589   0.17756  0.18419  0.19498 -0.15139  0.15042 -0.15846  10.4212  -6.5874
2025/03/17 03:03:27.000  -2181991.4376   4380835.4875   4076305.1803   5  22   4.1865   5.8025   4.8460  -4.0551   4.4067  -3.9635   0.00    0.0   -0.02367    0.09037    0.00215   0.16697  0.18081  0.17718 -0.14503  0.14365 -0.14337   4.0335  -6.5650
2025/03/17 03:03:28.000  -2181991.7911   4380834.7227   4076304.5195   5  22   4.1716   5.8546   4.8035  -4.0824   4.3855  -3.9182   0.00    0.0    0.17313   -0.10881   -0.16351   0.16876  0.18053  0.18057 -0.14505  0.14222 -0.14789  24.9521  -6.9522
2025/03/17 03:03:29.000  -2181989.3067   4380830.8070   4076301.6749   5  21   4.1568   6.0055   4.8916  -4.0563   4.5606  -3.9336   0.00    0.0   -0.07448   -0.00144    0.01958   0.17753  0.18426  0.19568 -0.15142  0.15077 -0.15826  14.6424  -6.4960
2025/03/17 03:03:29.999  -2181988.4317   4380827.7336   4076301.1380   5  22   4.1904   6.1530   4.9640  -4.1058   4.6650  -3.9810   0.00    0.0   -0.12329    0.00195    0.15733   0.16829  0.18052  0.17873 -0.14511  0.14230 -0.14677   5.0264  -6.2663
