NMEA,GNSS_20B_W24.42.1_Q FL_22B_W24.01.5,1747980541110
NMEA,$RD_RSSI, 727, 842, 0, 0,1747980541110
NMEA,$GPGGA,060915.900,3958.839678,N,11628.666912,E,1,11,1.073,32.842,M,0,M,,*46,1747980555900
NMEA,$GPRMC,060915.900,A,3958.839678,N,11628.666912,E,0.802,175.998,230525,,E,A*27,1747980555900
NMEA,$GPGLL,3958.839678,N,11628.666912,E,060915.900,A,A*57,1747980555900
NMEA,$GPGSA,A,3,20,5,9,19,12,25,,,,,,,2.293,1.073,2.027*38,1747980555900
NMEA,$BDGSA,A,3,208,232,213,,,,,,,,,,2.293,1.073,2.027*12,1747980555900
NMEA,$GAGSA,A,3,120,102,,,,,,,,,,,2.293,1.073,2.027*2B,1747980555900
NMEA,$GPGSV,4,1,16,20,68,270,29.0,5,34,241,28.2,9,30,55,29.2,19,26,146,29.6*45,1747980555900
NMEA,$GPGSV,4,2,16,12,26,252,25.1,25,19,287,31.7,4,5,32,0.0,6,48,75,0.0*43,1747980555900
NMEA,$GPGSV,4,3,16,11,70,9,0.0,13,4,180,0.0,17,3,144,0.0,29,8,317,0.0*4A,1747980555900
NMEA,$GPGSV,4,4,16,193,1,,0.0,194,17,169,0.0,195,66,97,0.0,196,56,132,0.0*4E,1747980555900
NMEA,$BDGSV,2,1,5,208,64,259,31.1,232,63,66,27.7,213,49,248,24.2,230,72,111,0.0*5D,1747980555900
NMEA,$BDGSV,2,2,5,240,56,165,0.0*74,1747980555900
NMEA,$GAGSV,2,1,5,120,56,312,31.6,102,39,76,29.2,95,38,238,0.0,107,53,63,0.0*60,1747980555900
NMEA,$GAGSV,2,2,5,117,30,268,0.0*7B,1747980555900
NMEA,$GPVTG,175.998,T,,M,0.802,N,1.486,K,A*07,1747980555900
NMEA,$RD_RSSI, 739, 859, 0, 0,1747980555900
NMEA,$GPGGA,060916.900,3958.840181,N,11628.667284,E,1,14,0.981,25.381,M,0,M,,*4D,1747980556900
NMEA,$GPRMC,060916.900,A,3958.840181,N,11628.667284,E,0.444,175.998,230525,,E,A*20,1747980556900
NMEA,$GPGLL,3958.840181,N,11628.667284,E,060916.900,A,A*5E,1747980556900
NMEA,$GPGSA,A,3,20,6,5,9,19,12,25,,,,,,2.145,0.981,1.907*0B,1747980556900
NMEA,$BDGSA,A,3,208,232,240,213,,,,,,,,,2.145,0.981,1.907*21,1747980556900
NMEA,$GAGSA,A,3,120,107,102,,,,,,,,,,2.145,0.981,1.907*18,1747980556900
NMEA,$GPGSV,4,1,16,20,68,270,26.2,6,48,75,26.2,5,34,241,28.7,9,30,55,29.2*41,1747980556900
NMEA,$GPGSV,4,2,16,19,26,146,30.2,12,26,252,22.1,25,19,287,34.2,4,5,32,0.0*72,1747980556900
NMEA,$GPGSV,4,3,16,11,70,9,0.0,13,4,180,0.0,17,3,144,0.0,29,8,317,0.0*4A,1747980556900
NMEA,$GPGSV,4,4,16,193,1,,0.0,194,17,169,0.0,195,66,97,0.0,196,56,132,0.0*4E,1747980556900
NMEA,$BDGSV,2,1,5,208,64,259,32.4,232,63,66,27.7,240,56,165,31.7,213,49,248,29.3*60,1747980556900
NMEA,$BDGSV,2,2,5,230,72,111,0.0*76,1747980556900
NMEA,$GAGSV,2,1,5,120,56,312,31.7,107,53,63,23.7,102,39,76,27.7,95,38,238,0.0*5C,1747980556900
NMEA,$GAGSV,2,2,5,117,30,268,0.0*7B,1747980556900
NMEA,$GPVTG,175.998,T,,M,0.444,N,0.823,K,A*0B,1747980556900
NMEA,$RD_RSSI, 726, 897, 0, 0,1747980556900
NMEA,$GPGGA,060917.900,3958.839258,N,11628.666800,E,1,16,0.969,20.513,M,0,M,,*4E,1747980556900
NMEA,$GPRMC,060917.900,A,3958.839258,N,11628.666800,E,0.319,175.998,230525,,E,A*20,1747980557900
NMEA,$GPGLL,3958.839258,N,11628.666800,E,060917.900,A,A*51,1747980557900
NMEA,$GPGSA,A,3,20,9,19,12,25,5,195,196,,,,,1.843,0.969,1.567*3E,1747980557900
NMEA,$BDGSA,A,3,230,208,232,240,213,,,,,,,,1.843,0.969,1.567*10,1747980557900
NMEA,$GAGSA,A,3,120,107,102,,,,,,,,,,1.843,0.969,1.567*18,1747980557900
NMEA,$GPGSV,4,1,16,20,68,270,29.5,6,47,75,27.2,9,30,55,30.0,19,26,146,29.6*77,1747980557900
NMEA,$GPGSV,4,2,16,12,26,252,22.2,25,19,287,34.7,5,34,241,30.1,195,66,97,28.8*4C,1747980557900
NMEA,$GPGSV,4,3,16,196,56,132,30.3,4,5,32,0.0,11,70,9,0.0,13,4,180,0.0*75,1747980557900
NMEA,$GPGSV,4,4,16,17,3,144,0.0,29,8,317,0.0,193,1,,0.0,194,17,169,0.0*72,1747980557900
NMEA,$BDGSV,2,1,5,230,72,111,17.0,208,64,259,33.0,232,63,66,29.1,240,56,165,31.3*61,1747980557900
NMEA,$BDGSV,2,2,5,213,49,248,30.3*40,1747980557900
NMEA,$GAGSV,2,1,5,120,56,312,30.8,107,53,63,22.7,102,39,76,27.6,95,37,238,0.0*5D,1747980557900
NMEA,$GAGSV,2,2,5,117,30,268,0.0*7B,1747980557900
NMEA,$GPVTG,175.998,T,,M,0.319,N,0.591,K,A*00,1747980557900
NMEA,$RD_RSSI, 713, 836, 0, 0,1747980557900
NMEA,$GPGGA,060918.900,3958.838499,N,11628.666734,E,1,16,0.969,18.824,M,0,M,,*41,1747980558900
NMEA,$GPRMC,060918.900,A,3958.838499,N,11628.666734,E,0.327,175.998,230525,,E,A*20,1747980558900
NMEA,$GPGLL,3958.838499,N,11628.666734,E,060918.900,A,A*5C,1747980558900
NMEA,$GPGSA,A,3,20,9,19,12,25,5,195,196,,,,,1.842,0.969,1.567*3F,1747980558900
NMEA,$BDGSA,A,3,230,208,232,240,213,,,,,,,,1.842,0.969,1.567*11,1747980558900
NMEA,$GAGSA,A,3,120,107,102,,,,,,,,,,1.842,0.969,1.567*19,1747980558900
NMEA,$GPGSV,4,1,16,20,68,270,29.8,6,47,75,28.8,9,30,55,29.6,19,26,146,31.0*7E,1747980558900
NMEA,$GPGSV,4,2,16,12,26,252,21.7,25,19,287,34.5,5,34,241,30.1,195,66,97,30.0*49,1747980558900
NMEA,$GPGSV,4,3,16,196,56,132,30.3,4,5,32,0.0,11,70,9,0.0,13,4,180,0.0*75,1747980558900
NMEA,$GPGSV,4,4,16,17,3,144,0.0,29,8,317,0.0,193,1,,0.0,194,17,169,0.0*72,1747980558900
NMEA,$BDGSV,2,1,5,230,72,111,16.6,208,64,259,33.5,232,63,66,30.0,240,56,165,30.6*6E,1747980558900
NMEA,$BDGSV,2,2,5,213,49,248,31.5*47,1747980558900
NMEA,$GAGSV,2,1,5,120,56,312,30.7,107,53,63,22.5,102,39,76,27.2,95,37,238,0.0*54,1747980558900
NMEA,$GAGSV,2,2,5,117,30,268,0.0*7B,1747980558900
NMEA,$GPVTG,175.998,T,,M,0.327,N,0.605,K,A*03,1747980558900
NMEA,$RD_RSSI, 722, 877, 0, 0,1747980558900
NMEA,$GPGGA,060919.900,3958.838455,N,11628.666936,E,1,16,0.969,18.702,M,0,M,,*47,1747980559900
NMEA,$GPRMC,060919.900,A,3958.838455,N,11628.666936,E,0.215,175.998,230525,,E,A*2D,1747980559900
NMEA,$GPGLL,3958.838455,N,11628.666936,E,060919.900,A,A*51,1747980559900
NMEA,$GPGSA,A,3,20,9,19,12,25,5,196,195,,,,,1.842,0.969,1.567*3F,1747980559900
NMEA,$BDGSA,A,3,230,208,232,240,213,,,,,,,,1.842,0.969,1.567*11,1747980559900
NMEA,$GAGSA,A,3,120,107,102,,,,,,,,,,1.842,0.969,1.567*19,1747980559900
NMEA,$GPGSV,4,1,16,20,68,271,30.2,6,47,75,27.8,9,30,55,27.5,19,26,146,30.7*79,1747980559900
NMEA,$GPGSV,4,2,16,12,26,252,20.8,25,19,287,34.4,5,34,241,29.2,196,56,132,30.3*70,1747980559900
NMEA,$GPGSV,4,3,16,195,66,97,29.3,4,5,32,0.0,11,70,9,0.0,13,4,180,0.0*43,1747980559900
NMEA,$GPGSV,4,4,16,17,3,144,0.0,29,8,317,0.0,193,1,,0.0,194,17,169,0.0*72,1747980559900
NMEA,$BDGSV,2,1,5,230,72,111,23.3,208,64,259,33.2,232,63,66,30.8,240,56,165,30.2*66,1747980559900
NMEA,$BDGSV,2,2,5,213,49,248,32.2*43,1747980559900
NMEA,$GAGSV,2,1,5,120,56,312,30.7,107,53,63,23.5,102,39,76,28.1,95,37,238,0.0*59,1747980559900
NMEA,$GAGSV,2,2,5,117,30,268,0.0*7B,1747980559900
NMEA,$GPVTG,175.998,T,,M,0.215,N,0.399,K,A*03,1747980559900
NMEA,$RD_RSSI, 744, 861, 0, 0,1747980559900
NMEA,$GPGGA,060920.900,3958.838111,N,11628.666791,E,1,17,0.941,20.082,M,0,M,,*44,1747980560900
NMEA,$GPRMC,060920.900,A,3958.838111,N,11628.666791,E,0.245,175.998,230525,,E,A*24,1747980560900
NMEA,$GPGLL,3958.838111,N,11628.666791,E,060920.900,A,A*5D,1747980560900
NMEA,$GPGSA,A,3,20,6,9,19,12,25,5,196,195,,,,1.823,0.941,1.561*02,1747980560900
NMEA,$BDGSA,A,3,230,208,232,240,213,,,,,,,,1.823,0.941,1.561*1A,1747980560900
NMEA,$GAGSA,A,3,120,107,102,,,,,,,,,,1.823,0.941,1.561*12,1747980560900
NMEA,$GPGSV,4,1,16,20,68,271,30.7,6,47,75,26.7,9,30,55,25.8,19,26,146,29.8*7A,1747980560900
NMEA,$GPGSV,4,2,16,12,26,252,22.1,25,19,287,33.9,5,34,241,29.3,196,56,132,29.2*79,1747980560900
NMEA,$GPGSV,4,3,16,195,66,97,29.0,4,5,32,0.0,11,70,9,0.0,13,4,180,0.0*40,1747980560900
NMEA,$GPGSV,4,4,16,17,3,144,0.0,29,8,317,0.0,193,1,,0.0,194,17,169,0.0*72,1747980560900
NMEA,$BDGSV,2,1,5,230,72,111,22.8,208,64,259,33.0,232,63,66,30.8,240,56,165,29.3*67,1747980560900
NMEA,$BDGSV,2,2,5,213,49,248,32.2*43,1747980560900
NMEA,$GAGSV,2,1,5,120,56,313,31.1,107,53,63,25.6,102,39,76,27.7,95,37,238,0.0*53,1747980560900
NMEA,$GAGSV,2,2,5,117,30,268,0.0*7B,1747980560900
NMEA,$GPVTG,175.998,T,,M,0.245,N,0.453,K,A*07,1747980560900
NMEA,$RD_RSSI, 751, 930, 0, 0,1747980560900
NMEA,$GPGGA,060921.900,3958.837876,N,11628.666866,E,1,16,0.943,20.232,M,0,M,,*4F,1747980561900
NMEA,$GPRMC,060921.900,A,3958.837876,N,11628.666866,E,0.188,175.998,230525,,E,A*27,1747980561900
NMEA,$GPGLL,3958.837876,N,11628.666866,E,060921.900,A,A*5C,1747980561900
NMEA,$GPGSA,A,3,20,6,9,19,12,25,5,196,195,,,,1.830,0.943,1.568*0B,1747980561900
NMEA,$BDGSA,A,3,208,232,240,213,,,,,,,,,1.830,0.943,1.568*22,1747980561900
NMEA,$GAGSA,A,3,120,107,102,,,,,,,,,,1.830,0.943,1.568*1B,1747980561900
NMEA,$GPGSV,4,1,16,20,68,271,30.3,6,47,75,26.2,9,30,55,25.2,19,26,146,29.2*7B,1747980561900
NMEA,$GPGSV,4,2,16,12,26,252,20.3,25,19,287,33.9,5,34,241,30.5,196,56,132,29.5*70,1747980561900
NMEA,$GPGSV,4,3,16,195,66,97,28.6,4,5,32,0.0,11,70,9,0.0,13,4,180,0.0*47,1747980561900
NMEA,$GPGSV,4,4,16,17,3,144,0.0,29,8,317,0.0,193,1,,0.0,194,17,169,0.0*72,1747980561900
NMEA,$BDGSV,2,1,6,230,72,112,25.6,208,64,259,33.5,232,63,66,31.1,240,56,165,29.6*66,1747980561900
NMEA,$BDGSV,2,2,6,213,49,248,32.0,203,44,189,29.7*51,1747980561900
NMEA,$GAGSV,2,1,5,120,56,313,31.6,107,53,63,25.2,102,39,76,28.7,95,37,238,0.0*5F,1747980561900
NMEA,$GAGSV,2,2,5,117,30,268,0.0*7B,1747980561900
NMEA,$GPVTG,175.998,T,,M,0.188,N,0.348,K,A*08,1747980561900
NMEA,$RD_RSSI, 748, 879, 0, 0,1747980561900
NMEA,$GPGGA,060922.900,3958.837457,N,11628.666818,E,1,18,0.892,20.397,M,0,M,,*47,1747980561900
NMEA,$GPRMC,060922.900,A,3958.837457,N,11628.666818,E,0.134,175.998,230525,,E,A*25,1747980562900
NMEA,$GPGLL,3958.837457,N,11628.666818,E,060922.900,A,A*59,1747980562900
NMEA,$GPGSA,A,3,20,6,9,19,12,25,5,196,195,,,,1.772,0.892,1.530*02,1747980562900
NMEA,$BDGSA,A,3,230,208,232,240,213,203,,,,,,,1.772,0.892,1.530*2B,1747980562900
NMEA,$GAGSA,A,3,120,107,102,,,,,,,,,,1.772,0.892,1.530*12,1747980562900
NMEA,$GPGSV,4,1,16,20,68,271,30.5,6,47,75,26.8,9,30,55,27.6,19,26,146,29.1*72,1747980562900
NMEA,$GPGSV,4,2,16,12,26,252,20.0,25,19,287,34.2,5,34,241,30.7,196,56,132,29.8*70,1747980562900
NMEA,$GPGSV,4,3,16,195,66,97,28.2,4,5,32,0.0,11,70,9,0.0,13,4,180,0.0*43,1747980562900
NMEA,$GPGSV,4,4,16,17,3,144,0.0,29,8,317,0.0,193,1,,0.0,194,17,169,0.0*72,1747980562900
NMEA,$BDGSV,2,1,7,230,72,112,23.7,208,64,259,34.0,232,63,66,31.3,240,56,165,29.5*63,1747980562900
NMEA,$BDGSV,2,2,7,213,49,248,32.2,210,1,,35.0,203,44,189,31.1*47,1747980562900
NMEA,$GAGSV,2,1,5,120,56,313,32.0,107,53,63,24.7,102,39,76,28.6,95,37,238,0.0*5F,1747980562900
NMEA,$GAGSV,2,2,5,117,30,268,0.0*7B,1747980562900
NMEA,$GPVTG,175.998,T,,M,0.134,N,0.248,K,A*0E,1747980562900
NMEA,$RD_RSSI, 772, 921, 0, 0,1747980562900
NMEA,$GPGGA,060923.900,3958.837336,N,11628.666707,E,1,17,0.896,21.228,M,0,M,,*48,1747980562900
NMEA,$GPRMC,060923.900,A,3958.837336,N,11628.666707,E,0.141,175.998,230525,,E,A*27,1747980563900
NMEA,$GPGLL,3958.837336,N,11628.666707,E,060923.900,A,A*59,1747980563900
NMEA,$GPGSA,A,3,20,6,9,19,12,25,5,196,195,,,,1.784,0.896,1.543*0B,1747980563900
NMEA,$BDGSA,A,3,208,232,240,213,203,,,,,,,,1.784,0.896,1.543*13,1747980563900
NMEA,$GAGSA,A,3,120,107,102,,,,,,,,,,1.784,0.896,1.543*1B,1747980563900
NMEA,$GPGSV,4,1,16,20,68,271,30.7,6,47,75,27.8,9,30,55,26.6,19,26,146,29.2*73,1747980563900
NMEA,$GPGSV,4,2,16,12,26,252,21.6,25,19,287,34.2,5,34,241,31.2,196,56,132,30.3*70,1747980563900
NMEA,$GPGSV,4,3,16,195,66,97,28.7,4,5,32,0.0,11,70,9,0.0,13,4,180,0.0*46,1747980563900
NMEA,$GPGSV,4,4,16,17,3,144,0.0,29,8,317,0.0,193,1,,0.0,194,17,169,0.0*72,1747980563900
NMEA,$BDGSV,2,1,7,230,72,112,25.8,208,64,259,34.0,232,63,66,31.5,240,56,165,30.7*66,1747980563900
NMEA,$BDGSV,2,2,7,213,49,248,32.5,210,1,,35.0,203,44,189,31.5*44,1747980563900
NMEA,$GAGSV,2,1,5,120,56,313,31.7,107,53,63,24.8,102,39,76,29.0,95,37,238,0.0*53,1747980563900
NMEA,$GAGSV,2,2,5,117,30,268,0.0*7B,1747980563900
NMEA,$GPVTG,175.998,T,,M,0.141,N,0.261,K,A*07,1747980563900
NMEA,$RD_RSSI, 703, 844, 0, 0,1747980563900
NMEA,$GPGGA,060924.900,3958.837137,N,11628.666608,E,1,17,0.896,21.761,M,0,M,,*4A,1747980564900
NMEA,$GPRMC,060924.900,A,3958.837137,N,11628.666608,E,0.000,175.998,230525,,E,A*29,1747980564900
NMEA,$GPGLL,3958.837137,N,11628.666608,E,060924.900,A,A*53,1747980564900
NMEA,$GPGSA,A,3,20,6,9,19,12,25,5,196,195,,,,1.784,0.896,1.542*0A,1747980564900
NMEA,$BDGSA,A,3,208,232,240,213,203,,,,,,,,1.784,0.896,1.542*12,1747980564900
NMEA,$GAGSA,A,3,120,107,102,,,,,,,,,,1.784,0.896,1.542*1A,1747980564900
NMEA,$GPGSV,4,1,16,20,68,271,30.8,6,47,75,28.6,9,30,55,26.1,19,26,146,29.5*7D,1747980564900
NMEA,$GPGSV,4,2,16,12,26,252,21.3,25,19,287,34.0,5,34,241,31.2,196,56,132,30.5*71,1747980564900
NMEA,$GPGSV,4,3,16,195,66,97,28.3,4,5,32,0.0,11,70,9,0.0,13,4,180,0.0*42,1747980564900
NMEA,$GPGSV,4,4,16,17,3,144,0.0,29,8,317,0.0,193,1,,0.0,194,17,169,0.0*72,1747980564900
NMEA,$BDGSV,2,1,7,230,72,112,26.5,208,64,259,33.7,232,63,66,31.2,240,56,165,31.0*69,1747980564900
NMEA,$BDGSV,2,2,7,213,49,248,32.2,210,1,,35.4,203,44,189,31.5*47,1747980564900
NMEA,$GAGSV,2,1,5,120,56,313,32.0,107,53,63,25.0,102,39,76,28.7,95,37,238,0.0*58,1747980564900
NMEA,$GAGSV,2,2,5,117,30,268,0.0*7B,1747980564900
NMEA,$GPVTG,175.998,T,,M,0.000,N,0.000,K,A*06,1747980564900
NMEA,$RD_RSSI, 713, 863, 0, 0,1747980564900
NMEA,$GPGGA,060925.900,3958.836942,N,11628.666640,E,1,17,0.896,21.985,M,0,M,,*48,1747980565900
NMEA,$GPRMC,060925.900,A,3958.836942,N,11628.666640,E,0.000,175.998,230525,,E,A*2F,1747980565900
NMEA,$GPGLL,3958.836942,N,11628.666640,E,060925.900,A,A*55,1747980565900
NMEA,$GPGSA,A,3,20,6,9,19,12,25,5,196,195,,,,1.784,0.896,1.542*0A,1747980565900
NMEA,$BDGSA,A,3,208,232,240,213,203,,,,,,,,1.784,0.896,1.542*12,1747980565900
NMEA,$GAGSA,A,3,120,107,102,,,,,,,,,,1.784,0.896,1.542*1A,1747980565900
NMEA,$GPGSV,4,1,16,20,68,271,30.6,6,47,75,28.6,9,30,55,25.8,19,26,146,28.8*75,1747980565900
NMEA,$GPGSV,4,2,16,12,26,252,23.1,25,19,287,34.2,5,34,241,31.2,196,56,132,31.0*77,1747980565900
NMEA,$GPGSV,4,3,16,195,66,97,29.1,4,5,32,0.0,11,70,9,0.0,13,4,180,0.0*41,1747980565900
NMEA,$GPGSV,4,4,16,17,3,144,0.0,29,8,317,0.0,193,1,,0.0,194,17,169,0.0*72,1747980565900
NMEA,$BDGSV,2,1,7,230,72,112,26.5,208,64,259,33.7,232,63,66,31.6,240,56,165,31.7*6A,1747980565900
NMEA,$BDGSV,2,2,7,213,49,248,32.0,210,1,,35.4,203,44,189,32.0*43,1747980565900
NMEA,$GAGSV,2,1,5,120,56,313,32.0,107,53,63,24.2,102,39,76,28.7,95,37,238,0.0*5B,1747980565900
NMEA,$GAGSV,2,2,5,117,30,268,0.0*7B,1747980565900
NMEA,$GPVTG,175.998,T,,M,0.000,N,0.000,K,A*06,1747980565900
NMEA,$RD_RSSI, 696, 842, 0, 0,1747980565900
NMEA,$GPGGA,060926.900,3958.836763,N,11628.666516,E,1,18,0.892,21.972,M,0,M,,*45,1747980566900
NMEA,$GPRMC,060926.900,A,3958.836763,N,11628.666516,E,0.563,175.998,230525,,E,A*21,1747980566900
NMEA,$GPGLL,3958.836763,N,11628.666516,E,060926.900,A,A*5B,1747980566900
NMEA,$GPGSA,A,3,20,6,9,19,12,25,5,196,195,,,,1.771,0.892,1.530*01,1747980566900
NMEA,$BDGSA,A,3,230,208,232,240,213,203,,,,,,,1.771,0.892,1.530*28,1747980566900
NMEA,$GAGSA,A,3,120,107,102,,,,,,,,,,1.771,0.892,1.530*11,1747980566900
NMEA,$GPGSV,4,1,16,20,68,271,30.6,6,47,75,28.8,9,30,55,25.5,19,26,146,29.1*7E,1747980566900
NMEA,$GPGSV,4,2,16,12,26,252,22.8,25,19,287,34.0,5,34,241,31.1,196,56,132,31.3*7D,1747980566900
NMEA,$GPGSV,4,3,16,195,66,97,28.8,4,5,32,0.0,11,70,9,0.0,13,4,180,0.0*49,1747980566900
NMEA,$GPGSV,4,4,16,17,3,144,0.0,29,8,317,0.0,193,1,,0.0,194,17,169,0.0*72,1747980566900
NMEA,$BDGSV,2,1,7,230,72,112,26.8,208,64,259,33.7,232,63,66,32.0,240,56,165,31.5*60,1747980566900
NMEA,$BDGSV,2,2,7,213,49,248,32.0,210,1,,35.4,203,44,189,32.4*47,1747980566900
NMEA,$GAGSV,2,1,5,120,56,313,32.0,107,53,63,23.3,102,39,76,29.1,95,37,238,0.0*5A,1747980566900
NMEA,$GAGSV,2,2,5,117,30,268,0.0*7B,1747980566900
NMEA,$GPVTG,175.998,T,,M,0.563,N,1.043,K,A*00,1747980566900
NMEA,$RD_RSSI, 736, 870, 0, 0,1747980566900
NMEA,$GPGGA,060927.900,3958.836614,N,11628.666326,E,1,18,0.892,22.125,M,0,M,,*49,1747980567900
NMEA,$GPRMC,060927.900,A,3958.836614,N,11628.666326,E,0.000,175.998,230525,,E,A*24,1747980567900
NMEA,$GPGLL,3958.836614,N,11628.666326,E,060927.900,A,A*5E,1747980567900
NMEA,$GPGSA,A,3,20,6,9,19,12,25,5,196,195,,,,1.771,0.892,1.529*09,1747980567900
NMEA,$BDGSA,A,3,230,208,232,240,213,203,,,,,,,1.771,0.892,1.529*20,1747980567900
NMEA,$GAGSA,A,3,120,107,102,,,,,,,,,,1.771,0.892,1.529*19,1747980567900
NMEA,$GPGSV,4,1,16,20,68,271,31.3,6,47,75,29.3,9,30,55,25.6,19,26,146,28.7*74,1747980567900
NMEA,$GPGSV,4,2,16,12,26,252,23.2,25,19,287,34.0,5,34,241,30.7,196,56,132,31.6*74,1747980567900
NMEA,$GPGSV,4,3,16,195,66,97,28.0,4,5,32,0.0,11,70,9,0.0,13,4,180,0.0*41,1747980567900
NMEA,$GPGSV,4,4,16,17,3,144,0.0,29,8,317,0.0,193,1,,0.0,194,17,169,0.0*72,1747980567900
NMEA,$BDGSV,2,1,7,230,72,112,26.7,208,64,259,33.2,232,63,66,31.7,240,56,165,30.0*6A,1747980567900
NMEA,$BDGSV,2,2,7,213,49,248,32.0,210,1,,35.4,203,44,189,32.5*46,1747980567900
NMEA,$GAGSV,2,1,5,120,56,313,31.8,107,53,63,23.1,102,39,76,28.8,95,37,238,0.0*5B,1747980567900
NMEA,$GAGSV,2,2,5,117,30,268,0.0*7B,1747980567900
NMEA,$GPVTG,175.998,T,,M,0.000,N,0.000,K,A*06,1747980567900
NMEA,$RD_RSSI, 752, 893, 0, 0,1747980567900
NMEA,$GPGGA,060928.900,3958.836562,N,11628.666113,E,1,18,0.892,22.444,M,0,M,,*42,1747980568900
NMEA,$GPRMC,060928.900,A,3958.836562,N,11628.666113,E,0.000,175.998,230525,,E,A*2D,1747980568900
NMEA,$GPGLL,3958.836562,N,11628.666113,E,060928.900,A,A*57,1747980568900
NMEA,$GPGSA,A,3,20,6,9,19,12,25,5,196,195,,,,1.771,0.892,1.529*09,1747980568900
NMEA,$BDGSA,A,3,230,208,232,240,213,203,,,,,,,1.771,0.892,1.529*20,1747980568900
NMEA,$GAGSA,A,3,120,107,102,,,,,,,,,,1.771,0.892,1.529*19,1747980568900
NMEA,$GPGSV,4,1,16,20,68,271,30.7,6,47,75,30.1,9,30,55,25.3,19,26,146,27.7*71,1747980568900
NMEA,$GPGSV,4,2,16,12,26,252,22.6,25,19,287,34.0,5,34,241,31.1,196,56,132,30.7*76,1747980568900
NMEA,$GPGSV,4,3,16,195,66,97,26.5,4,5,32,0.0,11,70,9,0.0,13,4,180,0.0*4A,1747980568900
NMEA,$GPGSV,4,4,16,17,3,144,0.0,29,8,317,0.0,193,1,,0.0,194,17,169,0.0*72,1747980568900
NMEA,$BDGSV,2,1,7,230,72,112,26.2,208,64,259,33.0,232,63,66,32.2,240,56,165,28.2*60,1747980568900
NMEA,$BDGSV,2,2,7,213,49,248,32.0,210,1,,34.2,203,44,189,32.2*46,1747980568900
NMEA,$GAGSV,2,1,5,120,56,313,31.8,107,53,63,23.7,102,39,76,28.7,95,37,238,0.0*52,1747980568900
NMEA,$GAGSV,2,2,5,117,30,268,0.0*7B,1747980568900
NMEA,$GPVTG,175.998,T,,M,0.000,N,0.000,K,A*06,1747980568900
NMEA,$RD_RSSI, 737, 881, 0, 0,1747980568900
NMEA,$GPGGA,060929.900,3958.836545,N,11628.665912,E,1,18,0.892,22.688,M,0,M,,*4E,1747980569900
NMEA,$GPRMC,060929.900,A,3958.836545,N,11628.665912,E,0.000,175.998,230525,,E,A*23,1747980569900
NMEA,$GPGLL,3958.836545,N,11628.665912,E,060929.900,A,A*59,1747980569900
NMEA,$GPGSA,A,3,20,6,9,19,12,25,5,196,195,,,,1.770,0.892,1.529*08,1747980569900
NMEA,$BDGSA,A,3,230,208,232,240,213,203,,,,,,,1.770,0.892,1.529*21,1747980569900
NMEA,$GAGSA,A,3,120,107,102,,,,,,,,,,1.770,0.892,1.529*18,1747980569900
NMEA,$GPGSV,4,1,16,20,68,271,30.8,6,47,75,29.8,9,30,55,27.7,19,26,146,27.7*79,1747980569900
NMEA,$GPGSV,4,2,16,12,26,252,23.2,25,19,287,33.7,5,34,241,31.1,196,56,132,31.5*70,1747980569900
NMEA,$GPGSV,4,3,16,195,66,97,26.6,4,5,32,0.0,11,70,9,0.0,13,4,180,0.0*49,1747980569900
NMEA,$GPGSV,4,4,16,17,3,144,0.0,29,8,317,0.0,193,1,,0.0,194,17,169,0.0*72,1747980569900
NMEA,$BDGSV,2,1,7,230,72,112,26.2,208,64,259,33.5,232,63,66,33.2,240,56,165,30.3*6C,1747980569900
NMEA,$BDGSV,2,2,7,213,49,248,32.9,210,1,,34.7,203,44,189,31.7*4C,1747980569900
NMEA,$GAGSV,2,1,5,120,56,313,32.2,107,53,63,22.0,102,39,76,29.0,95,37,238,0.0*5B,1747980569900
NMEA,$GAGSV,2,2,5,117,30,268,0.0*7B,1747980569900
NMEA,$GPVTG,175.998,T,,M,0.000,N,0.000,K,A*06,1747980569900
NMEA,$RD_RSSI, 719, 849, 0, 0,1747980569900
NMEA,$GPGGA,060930.900,3958.836560,N,11628.665669,E,1,18,0.892,23.181,M,0,M,,*4D,1747980569900
NMEA,$GPRMC,060930.900,A,3958.836560,N,11628.665669,E,0.000,175.998,230525,,E,A*2F,1747980570900
NMEA,$GPGLL,3958.836560,N,11628.665669,E,060930.900,A,A*55,1747980570900
NMEA,$GPGSA,A,3,20,6,9,19,12,25,5,196,195,,,,1.770,0.892,1.529*08,1747980570900
NMEA,$BDGSA,A,3,230,208,232,240,213,203,,,,,,,1.770,0.892,1.529*21,1747980570900
NMEA,$GAGSA,A,3,120,107,102,,,,,,,,,,1.770,0.892,1.529*18,1747980570900
NMEA,$GPGSV,4,1,16,20,68,271,31.0,6,47,75,30.0,9,30,55,29.8,19,26,146,28.2*7B,1747980570900
NMEA,$GPGSV,4,2,16,12,26,252,23.8,25,19,287,33.7,5,34,241,31.3,196,56,132,30.7*7B,1747980570900
NMEA,$GPGSV,4,3,16,195,66,97,28.2,4,5,32,0.0,11,70,9,0.0,13,4,180,0.0*43,1747980570900
NMEA,$GPGSV,4,4,16,17,3,144,0.0,29,8,317,0.0,193,1,,0.0,194,17,169,0.0*72,1747980570900
NMEA,$BDGSV,2,1,7,230,72,112,27.6,208,64,259,33.2,232,63,66,33.2,240,56,165,30.2*6F,1747980570900
NMEA,$BDGSV,2,2,7,213,49,248,32.9,210,1,,34.7,203,44,189,31.7*4C,1747980570900
NMEA,$GAGSV,2,1,5,120,56,313,32.2,107,53,63,21.8,102,39,76,28.3,95,37,238,0.0*52,1747980570900
NMEA,$GAGSV,2,2,5,117,30,268,0.0*7B,1747980570900
NMEA,$GPVTG,175.998,T,,M,0.000,N,0.000,K,A*06,1747980570900
NMEA,$RD_RSSI, 718, 852, 0, 0,1747980570900
NMEA,$GPGGA,060931.900,3958.836490,N,11628.665384,E,1,18,0.892,23.653,M,0,M,,*4C,1747980570900
NMEA,$GPRMC,060931.900,A,3958.836490,N,11628.665384,E,0.391,175.998,230525,,E,A*2D,1747980571900
NMEA,$GPGLL,3958.836490,N,11628.665384,E,060931.900,A,A*5C,1747980571900
NMEA,$GPGSA,A,3,20,6,9,19,12,25,5,196,195,,,,1.770,0.892,1.529*08,1747980571900
NMEA,$BDGSA,A,3,230,208,232,240,213,203,,,,,,,1.770,0.892,1.529*21,1747980571900
NMEA,$GAGSA,A,3,120,107,102,,,,,,,,,,1.770,0.892,1.529*18,1747980571900
NMEA,$GPGSV,4,1,16,20,68,271,31.3,6,47,75,31.2,9,30,55,30.0,19,26,146,28.2*7B,1747980571900
NMEA,$GPGSV,4,2,16,12,26,252,24.5,25,19,287,34.4,5,34,241,31.2,196,56,132,30.7*74,1747980571900
NMEA,$GPGSV,4,3,16,195,66,97,28.2,4,5,32,0.0,11,70,9,0.0,13,4,180,0.0*43,1747980571900
NMEA,$GPGSV,4,4,16,17,3,144,0.0,29,8,317,0.0,193,1,,0.0,194,17,169,0.0*72,1747980571900
NMEA,$BDGSV,2,1,8,230,72,112,28.8,208,64,259,32.9,232,63,66,33.2,240,56,165,30.2*6B,1747980571900
NMEA,$BDGSV,2,2,8,213,49,248,32.2,210,1,,35.2,203,44,189,32.5,227,1,,28.6*59,1747980571900
NMEA,$GAGSV,2,1,5,120,56,313,32.2,107,53,63,20.5,102,39,76,29.3,95,37,238,0.0*5F,1747980571900
NMEA,$GAGSV,2,2,5,117,30,268,0.0*7B,1747980571900
NMEA,$GPVTG,175.998,T,,M,0.391,N,0.725,K,A*0D,1747980571900
NMEA,$RD_RSSI, 711, 857, 0, 0,1747980571900
NMEA,$GPGGA,060932.900,3958.836426,N,11628.665102,E,1,18,0.892,24.107,M,0,M,,*4F,1747980572900
NMEA,$GPRMC,060932.900,A,3958.836426,N,11628.665102,E,0.332,175.998,230525,,E,A*26,1747980572900
NMEA,$GPGLL,3958.836426,N,11628.665102,E,060932.900,A,A*5E,1747980572900
NMEA,$GPGSA,A,3,20,6,9,19,12,25,5,196,195,,,,1.770,0.892,1.528*09,1747980572900
NMEA,$BDGSA,A,3,230,208,232,240,213,203,,,,,,,1.770,0.892,1.528*20,1747980572900
NMEA,$GAGSA,A,3,120,107,102,,,,,,,,,,1.770,0.892,1.528*19,1747980572900
NMEA,$GPGSV,4,1,16,20,68,271,31.2,6,47,75,31.7,9,30,55,29.1,19,26,146,27.1*7A,1747980572900
NMEA,$GPGSV,4,2,16,12,26,252,25.2,25,19,287,34.5,5,34,242,29.8,196,56,132,29.8*74,1747980572900
NMEA,$GPGSV,4,3,16,195,66,97,27.7,4,5,32,0.0,11,70,9,0.0,13,4,180,0.0*49,1747980572900
NMEA,$GPGSV,4,4,16,17,3,144,0.0,29,8,317,0.0,193,1,,0.0,194,17,169,0.0*72,1747980572900
NMEA,$BDGSV,2,1,8,230,72,112,29.1,208,64,259,32.7,232,63,66,33.5,240,56,165,30.8*60,1747980572900
NMEA,$BDGSV,2,2,8,213,49,248,31.7,227,1,,31.8,210,1,,35.0,203,44,189,32.0*5E,1747980572900
NMEA,$GAGSV,2,1,5,120,56,313,31.5,107,53,63,21.1,102,39,76,29.2,95,37,238,0.0*5F,1747980572900
NMEA,$GAGSV,2,2,5,117,30,268,0.0*7B,1747980572900
NMEA,$GPVTG,175.998,T,,M,0.332,N,0.616,K,A*05,1747980572900
NMEA,$RD_RSSI, 709, 837, 0, 0,1747980572900
NMEA,$GPGGA,060933.900,3958.836357,N,11628.664804,E,1,18,0.892,24.399,M,0,M,,*44,1747980573900
NMEA,$GPRMC,060933.900,A,3958.836357,N,11628.664804,E,0.000,175.998,230525,,E,A*2A,1747980573900
NMEA,$GPGLL,3958.836357,N,11628.664804,E,060933.900,A,A*50,1747980573900
NMEA,$GPGSA,A,3,20,6,9,19,12,25,5,196,195,,,,1.770,0.892,1.528*09,1747980573900
NMEA,$BDGSA,A,3,230,208,232,240,213,203,,,,,,,1.770,0.892,1.528*20,1747980573900
NMEA,$GAGSA,A,3,120,107,102,,,,,,,,,,1.770,0.892,1.528*19,1747980573900
NMEA,$GPGSV,4,1,16,20,68,271,31.5,6,47,75,32.2,9,30,55,28.6,19,26,146,26.1*7C,1747980573900
NMEA,$GPGSV,4,2,16,12,26,252,24.5,25,19,287,34.9,5,34,242,29.2,196,56,132,29.7*7B,1747980573900
NMEA,$GPGSV,4,3,16,195,66,97,27.7,4,5,32,0.0,11,70,9,0.0,13,4,180,0.0*49,1747980573900
NMEA,$GPGSV,4,4,16,17,3,144,0.0,29,8,317,0.0,193,1,,0.0,194,17,169,0.0*72,1747980573900
NMEA,$BDGSV,2,1,8,230,72,112,29.2,208,64,259,32.7,232,63,66,33.2,240,56,165,30.7*6B,1747980573900
NMEA,$BDGSV,2,2,8,213,49,248,32.0,210,1,,35.0,203,44,189,32.4,227,1,,32.2*57,1747980573900
NMEA,$GAGSV,2,1,5,120,56,313,31.2,107,53,63,21.3,102,39,76,28.7,95,37,238,0.0*5E,1747980573900
NMEA,$GAGSV,2,2,5,117,30,268,0.0*7B,1747980573900
NMEA,$GPVTG,175.998,T,,M,0.000,N,0.000,K,A*06,1747980573900
NMEA,$RD_RSSI, 751, 862, 0, 0,1747980573900
NMEA,$GPGGA,060934.900,3958.836328,N,11628.664592,E,1,18,0.892,24.747,M,0,M,,*4E,1747980574900
NMEA,$GPRMC,060934.900,A,3958.836328,N,11628.664592,E,0.378,175.998,230525,,E,A*2B,1747980574900
NMEA,$GPGLL,3958.836328,N,11628.664592,E,060934.900,A,A*5D,1747980574900
NMEA,$GPGSA,A,3,20,6,9,19,12,25,5,196,195,,,,1.770,0.892,1.528*09,1747980574900
NMEA,$BDGSA,A,3,230,208,232,240,213,203,,,,,,,1.770,0.892,1.528*20,1747980574900
NMEA,$GAGSA,A,3,120,107,102,,,,,,,,,,1.770,0.892,1.528*19,1747980574900
NMEA,$GPGSV,4,1,16,20,68,271,32.2,6,47,75,32.7,9,30,55,28.1,19,26,146,26.5*7E,1747980574900
NMEA,$GPGSV,4,2,16,12,26,252,23.6,25,19,287,35.0,5,34,242,28.6,196,56,132,29.6*73,1747980574900
NMEA,$GPGSV,4,3,16,195,66,97,27.1,4,5,32,0.0,11,70,9,0.0,13,4,180,0.0*4F,1747980574900
NMEA,$GPGSV,4,4,16,17,3,144,0.0,29,8,317,0.0,193,1,,0.0,194,17,169,0.0*72,1747980574900
NMEA,$BDGSV,2,1,8,230,72,112,29.8,208,64,259,32.5,232,63,66,33.5,240,56,165,30.3*60,1747980574900
NMEA,$BDGSV,2,2,8,213,49,248,32.5,210,1,,34.5,203,44,189,32.5,227,1,,32.7*52,1747980574900
NMEA,$GAGSV,2,1,5,120,56,313,31.5,107,53,63,21.6,102,39,76,28.7,95,37,238,0.0*5C,1747980574900
NMEA,$GAGSV,2,2,5,117,30,268,0.0*7B,1747980574900
NMEA,$GPVTG,175.998,T,,M,0.378,N,0.701,K,A*0C,1747980574900
NMEA,$RD_RSSI, 731, 828, 0, 0,1747980574900
NMEA,$GPGGA,060935.900,3958.836347,N,11628.664341,E,1,18,0.892,24.949,M,0,M,,*4E,1747980575900
NMEA,$GPRMC,060935.900,A,3958.836347,N,11628.664341,E,0.000,175.998,230525,,E,A*27,1747980575900
NMEA,$GPGLL,3958.836347,N,11628.664341,E,060935.900,A,A*5D,1747980575900
NMEA,$GPGSA,A,3,20,6,9,19,12,25,5,196,195,,,,1.769,0.892,1.528*01,1747980575900
NMEA,$BDGSA,A,3,230,208,232,240,213,203,,,,,,,1.769,0.892,1.528*28,1747980575900
NMEA,$GAGSA,A,3,120,107,102,,,,,,,,,,1.769,0.892,1.528*11,1747980575900
NMEA,$GPGSV,4,1,16,20,68,271,32.0,6,47,75,32.5,9,30,55,29.7,19,26,146,27.0*7D,1747980575900
NMEA,$GPGSV,4,2,16,12,26,252,21.5,25,19,287,34.5,5,34,242,25.2,196,56,132,31.0*70,1747980575900
NMEA,$GPGSV,4,3,16,195,66,97,28.6,4,5,32,0.0,11,70,9,0.0,13,4,180,0.0*47,1747980575900
NMEA,$GPGSV,4,4,16,17,3,144,0.0,29,8,317,0.0,193,1,,0.0,194,17,169,0.0*72,1747980575900
NMEA,$BDGSV,2,1,8,230,72,112,30.0,208,64,259,32.2,232,63,66,33.5,240,56,165,30.7*63,1747980575900
NMEA,$BDGSV,2,2,8,213,49,248,32.9,210,1,,33.2,203,44,189,32.4,227,1,,32.0*58,1747980575900
NMEA,$GAGSV,2,1,5,120,56,313,31.2,107,53,63,20.7,102,39,76,26.7,95,37,238,0.0*55,1747980575900
NMEA,$GAGSV,2,2,5,117,30,268,0.0*7B,1747980575900
NMEA,$GPVTG,175.998,T,,M,0.000,N,0.000,K,A*06,1747980575900
NMEA,$RD_RSSI, 725, 844, 0, 0,1747980575900
NMEA,$GPGGA,060936.900,3958.836468,N,11628.664097,E,1,18,0.892,25.073,M,0,M,,*4E,1747980576900
NMEA,$GPRMC,060936.900,A,3958.836468,N,11628.664097,E,0.397,175.998,230525,,E,A*2B,1747980576900
NMEA,$GPGLL,3958.836468,N,11628.664097,E,060936.900,A,A*5C,1747980576900
NMEA,$GPGSA,A,3,20,6,9,19,12,25,5,196,195,,,,1.769,0.892,1.528*01,1747980576900
NMEA,$BDGSA,A,3,230,208,232,240,213,203,,,,,,,1.769,0.892,1.528*28,1747980576900
NMEA,$GAGSA,A,3,120,107,102,,,,,,,,,,1.769,0.892,1.528*11,1747980576900
NMEA,$GPGSV,4,1,16,20,68,271,32.2,6,47,75,32.5,9,30,55,29.8,19,26,146,26.3*72,1747980576900
NMEA,$GPGSV,4,2,16,12,26,252,21.7,25,19,287,34.2,5,34,242,24.8,196,56,132,31.2*7C,1747980576900
NMEA,$GPGSV,4,3,16,195,66,97,28.2,4,5,32,0.0,11,70,9,0.0,13,4,180,0.0*43,1747980576900
NMEA,$GPGSV,4,4,16,17,3,144,0.0,29,8,317,0.0,193,1,,0.0,194,17,169,0.0*72,1747980576900
NMEA,$BDGSV,2,1,8,230,72,112,29.7,208,64,259,32.0,232,63,66,34.0,240,56,165,30.3*68,1747980576900
NMEA,$BDGSV,2,2,8,213,49,248,32.5,210,1,,32.2,203,44,189,32.2,227,1,,32.2*51,1747980576900
NMEA,$GAGSV,2,1,5,120,56,313,30.7,107,53,63,21.3,102,39,76,26.5,95,37,238,0.0*56,1747980576900
NMEA,$GAGSV,2,2,5,117,30,268,0.0*7B,1747980576900
NMEA,$GPVTG,175.998,T,,M,0.397,N,0.737,K,A*08,1747980576900
NMEA,$RD_RSSI, 750, 870, 0, 0,1747980576900
NMEA,$GPGGA,060937.800,3958.836507,N,11628.663940,E,1,18,0.892,24.987,M,0,M,,*41,1747980577800
NMEA,$GPRMC,060937.800,A,3958.836507,N,11628.663940,E,0.000,175.998,230525,,E,A*2A,1747980577800
NMEA,$GPGLL,3958.836507,N,11628.663940,E,060937.800,A,A*50,1747980577800
NMEA,$GPGSA,A,3,20,6,9,19,12,25,5,196,195,,,,1.769,0.892,1.527*0E,1747980577800
NMEA,$BDGSA,A,3,230,208,232,240,213,203,,,,,,,1.769,0.892,1.527*27,1747980577800
NMEA,$GAGSA,A,3,120,107,102,,,,,,,,,,1.769,0.892,1.527*1E,1747980577800
NMEA,$GPGSV,4,1,16,20,68,271,32.7,6,47,75,32.2,9,30,55,27.5,19,26,146,24.7*75,1747980577800
NMEA,$GPGSV,4,2,16,12,26,252,22.5,25,19,287,34.4,5,34,242,24.2,196,56,132,30.5*77,1747980577800
NMEA,$GPGSV,4,3,16,195,66,97,28.1,4,5,32,0.0,11,70,9,0.0,13,4,180,0.0*40,1747980577800
NMEA,$GPGSV,4,4,16,17,3,144,0.0,29,8,317,0.0,193,1,,0.0,194,17,169,0.0*72,1747980577800
NMEA,$BDGSV,2,1,8,230,72,112,29.7,208,64,259,31.5,232,63,66,33.7,240,56,165,29.2*67,1747980577800
NMEA,$BDGSV,2,2,8,213,49,248,32.4,210,1,,33.7,203,44,189,32.9,227,1,,32.7*5A,1747980577800
NMEA,$GAGSV,2,1,5,120,56,313,31.2,107,53,63,23.2,102,39,76,26.5,95,37,238,0.0*51,1747980577800
NMEA,$GAGSV,2,2,5,117,30,268,0.0*7B,1747980577800
NMEA,$GPVTG,175.998,T,,M,0.000,N,0.000,K,A*06,1747980577800
NMEA,$RD_RSSI, 732, 833, 0, 0,1747980577800
NMEA,$GPGGA,060938.700,3958.836546,N,11628.663783,E,1,18,0.892,24.902,M,0,M,,*48,1747980577800
NMEA,$GPRMC,060938.700,A,3958.836546,N,11628.663783,E,0.000,175.998,230525,,E,A*2E,1747980578700
NMEA,$GPGLL,3958.836546,N,11628.663783,E,060938.700,A,A*54,1747980578700
NMEA,$GPGSA,A,3,20,6,9,19,12,25,5,196,195,,,,1.769,0.892,1.527*0E,1747980578700
NMEA,$BDGSA,A,3,230,208,232,240,213,203,,,,,,,1.769,0.892,1.527*27,1747980578700
NMEA,$GAGSA,A,3,120,107,102,,,,,,,,,,1.769,0.892,1.527*1E,1747980578700
NMEA,$GPGSV,4,1,16,20,68,271,32.9,6,47,75,30.7,9,30,55,22.7,19,26,146,27.0*7F,1747980578700
NMEA,$GPGSV,4,2,16,12,26,252,22.0,25,19,287,34.2,5,34,242,23.2,196,56,132,29.1*7F,1747980578700
NMEA,$GPGSV,4,3,16,195,66,97,26.8,4,5,32,0.0,11,70,9,0.0,13,4,180,0.0*47,1747980578700
NMEA,$GPGSV,4,4,16,17,3,144,0.0,29,8,317,0.0,193,1,,0.0,194,17,169,0.0*72,1747980578700
NMEA,$BDGSV,2,1,8,230,72,112,29.5,208,64,259,31.2,232,63,66,33.0,240,56,165,27.1*68,1747980578700
NMEA,$BDGSV,2,2,8,213,49,248,32.0,210,1,,33.5,203,44,189,33.2,227,1,,33.0*50,1747980578700
NMEA,$GAGSV,1,1,4,120,56,313,32.2,107,53,63,24.1,102,39,76,27.5,95,37,238,0.0*55,1747980578700
NMEA,$GPVTG,175.998,T,,M,0.000,N,0.000,K,A*06,1747980578700
NMEA,$RD_RSSI, 692, 831, 0, 0,1747980578700
NMEA,$GPGGA,060939.600,3958.836623,N,11628.663468,E,1,18,0.892,24.731,M,0,M,,*40,1747980579600
NMEA,$GPRMC,060939.600,A,3958.836623,N,11628.663468,E,0.660,175.998,230525,,E,A*28,1747980579600
NMEA,$GPGLL,3958.836623,N,11628.663468,E,060939.600,A,A*52,1747980579600
NMEA,$GPGSA,A,3,20,6,9,19,12,25,5,196,195,,,,1.769,0.892,1.527*0E,1747980579600
NMEA,$BDGSA,A,3,230,208,232,240,213,203,,,,,,,1.769,0.892,1.527*27,1747980579600
NMEA,$GAGSA,A,3,120,107,102,,,,,,,,,,1.769,0.892,1.527*1E,1747980579600
NMEA,$GPGSV,4,1,16,20,68,271,33.2,6,47,75,30.7,9,30,55,25.2,19,26,146,26.0*76,1747980579600
NMEA,$GPGSV,4,2,16,12,26,252,23.3,25,19,287,34.5,5,34,242,26.2,196,56,132,27.8*78,1747980579600
NMEA,$GPGSV,4,3,16,195,66,97,26.0,4,5,32,0.0,11,70,9,0.0,13,4,180,0.0*4F,1747980579600
NMEA,$GPGSV,4,4,16,17,3,144,0.0,29,8,317,0.0,193,1,,0.0,194,17,169,0.0*72,1747980579600
NMEA,$BDGSV,2,1,8,230,71,112,30.7,208,64,259,31.6,232,63,66,33.2,240,56,165,26.7*60,1747980579600
NMEA,$BDGSV,2,2,8,213,49,248,31.1,210,1,,32.5,203,44,189,33.0,227,1,,32.5*55,1747980579600
NMEA,$GAGSV,1,1,4,120,56,313,33.2,107,53,63,25.5,102,39,76,29.0,95,37,238,0.0*5A,1747980579600
NMEA,$GPVTG,175.998,T,,M,0.660,N,1.222,K,A*05,1747980579600
NMEA,$RD_RSSI, 742, 878, 0, 0,1747980579600
NMEA,$GPGGA,060940.500,3958.836662,N,11628.663311,E,1,18,0.892,24.646,M,0,M,,*40,1747980580500
NMEA,$GPRMC,060940.500,A,3958.836662,N,11628.663311,E,0.366,175.998,230525,,E,A*2A,1747980580500
NMEA,$GPGLL,3958.836662,N,11628.663311,E,060940.500,A,A*53,1747980580500
NMEA,$GPGSA,A,3,20,6,9,19,12,25,5,196,195,,,,1.768,0.892,1.527*0F,1747980580500
NMEA,$BDGSA,A,3,230,208,232,240,213,203,,,,,,,1.768,0.892,1.527*26,1747980580500
NMEA,$GAGSA,A,3,120,107,102,,,,,,,,,,1.768,0.892,1.527*1F,1747980580500
NMEA,$GPGSV,4,1,16,20,68,271,33.2,6,47,75,29.3,9,30,55,24.2,19,26,146,25.7*7F,1747980580500
NMEA,$GPGSV,4,2,16,12,26,252,21.7,25,19,287,33.5,5,34,242,24.6,11,70,9,31.2*41,1747980580500
NMEA,$GPGSV,4,3,16,196,56,132,27.2,195,66,97,25.6,4,5,32,0.0,13,4,180,0.0*4E,1747980580500
NMEA,$GPGSV,4,4,16,17,3,144,0.0,29,8,317,0.0,193,1,,0.0,194,17,169,0.0*72,1747980580500
NMEA,$BDGSV,2,1,8,230,71,112,32.0,208,64,259,31.7,232,63,66,33.4,240,56,165,27.5*61,1747980580500
NMEA,$BDGSV,2,2,8,213,49,248,29.7,210,1,,32.7,203,44,189,33.0,227,1,,31.6*58,1747980580500
NMEA,$GAGSV,1,1,4,120,56,313,33.2,107,53,63,26.7,102,39,76,27.7,95,37,238,0.0*52,1747980580500
NMEA,$GPVTG,175.998,T,,M,0.366,N,0.679,K,A*0D,1747980580500
NMEA,$RD_RSSI, 710, 842, 0, 0,1747980580500
NMEA,$GPGGA,060941.400,3958.836597,N,11628.663154,E,1,18,0.892,24.400,M,0,M,,*4A,1747980581400
NMEA,$GPRMC,060941.400,A,3958.836597,N,11628.663154,E,0.384,175.998,230525,,E,A*2C,1747980581400
NMEA,$GPGLL,3958.836597,N,11628.663154,E,060941.400,A,A*59,1747980581400
NMEA,$GPGSA,A,3,20,6,9,19,12,25,5,196,195,,,,1.768,0.892,1.527*0F,1747980581400
NMEA,$BDGSA,A,3,230,208,232,240,213,203,,,,,,,1.768,0.892,1.527*26,1747980581400
NMEA,$GAGSA,A,3,120,107,102,,,,,,,,,,1.768,0.892,1.527*1F,1747980581400
NMEA,$GPGSV,4,1,16,20,68,271,33.5,6,47,75,26.2,9,30,55,24.7,19,26,146,24.1*74,1747980581400
NMEA,$GPGSV,4,2,16,12,26,252,22.7,25,19,287,32.9,5,34,242,23.3,11,70,9,30.6*48,1747980581400
NMEA,$GPGSV,4,3,16,196,56,132,28.1,195,66,97,27.0,4,5,32,0.0,13,4,180,0.0*46,1747980581400
NMEA,$GPGSV,4,4,16,17,3,144,0.0,29,8,317,0.0,193,1,,0.0,194,17,169,0.0*72,1747980581400
NMEA,$BDGSV,2,1,8,230,71,112,32.5,208,64,259,31.2,232,63,66,34.0,240,56,165,27.5*62,1747980581400
NMEA,$BDGSV,2,2,8,213,49,248,29.7,210,1,,33.0,203,44,189,32.0,227,1,,30.3*5B,1747980581400
NMEA,$GAGSV,1,1,4,120,56,313,33.5,107,53,63,26.8,102,39,76,28.0,95,37,238,0.0*52,1747980581400
NMEA,$GPVTG,175.998,T,,M,0.384,N,0.712,K,A*0D,1747980581400
NMEA,$RD_RSSI, 747, 879, 0, 0,1747980581400
NMEA,$GPGGA,060942.300,3958.836636,N,11628.662997,E,1,18,0.892,24.314,M,0,M,,*42,1747980582300
NMEA,$GPRMC,060942.300,A,3958.836636,N,11628.662997,E,0.319,175.998,230525,,E,A*22,1747980582300
NMEA,$GPGLL,3958.836636,N,11628.662997,E,060942.300,A,A*53,1747980582300
NMEA,$GPGSA,A,3,20,6,9,19,12,25,5,196,195,,,,1.768,0.892,1.527*0F,1747980582300
NMEA,$BDGSA,A,3,230,208,232,240,213,203,,,,,,,1.768,0.892,1.527*26,1747980582300
NMEA,$GAGSA,A,3,120,107,102,,,,,,,,,,1.768,0.892,1.527*1F,1747980582300
NMEA,$GPGSV,4,1,16,20,68,271,33.0,6,47,75,25.5,194,17,169,24.7,9,30,55,22.5*4C,1747980582300
NMEA,$GPGSV,4,2,16,19,26,146,24.2,12,26,252,20.1,25,19,287,33.0,5,34,242,20.7*43,1747980582300
NMEA,$GPGSV,4,3,16,11,70,9,30.3,196,56,132,27.0,195,66,97,25.5,4,5,32,0.0*4E,1747980582300
NMEA,$GPGSV,4,4,16,13,4,180,0.0,17,3,144,0.0,29,8,317,0.0,193,1,,0.0*79,1747980582300
NMEA,$BDGSV,2,1,8,230,71,112,32.5,208,64,259,31.3,232,63,66,34.0,240,56,165,27.7*61,1747980582300
NMEA,$BDGSV,2,2,8,213,49,248,28.6,210,1,,32.7,203,44,189,32.2,227,1,,30.1*5D,1747980582300
NMEA,$GAGSV,2,1,5,120,56,313,33.2,107,53,63,27.2,102,39,76,26.8,117,30,268,27.2*54,1747980582300
NMEA,$GAGSV,2,2,5,95,37,238,0.0*42,1747980582300
NMEA,$GPVTG,175.998,T,,M,0.319,N,0.591,K,A*00,1747980582300
NMEA,$RD_RSSI, 765, 936, 0, 0,1747980582300
NMEA,$GPGGA,060943.200,3958.836571,N,11628.662839,E,1,18,0.892,24.068,M,0,M,,*4F,1747980583200
NMEA,$GPRMC,060943.200,A,3958.836571,N,11628.662839,E,0.263,175.998,230525,,E,A*2B,1747980583200
NMEA,$GPGLL,3958.836571,N,11628.662839,E,060943.200,A,A*56,1747980583200
NMEA,$GPGSA,A,3,20,6,9,19,12,25,5,196,195,,,,1.768,0.892,1.526*0E,1747980583200
NMEA,$BDGSA,A,3,230,208,232,240,213,203,,,,,,,1.768,0.892,1.526*27,1747980583200
NMEA,$GAGSA,A,3,120,107,102,,,,,,,,,,1.768,0.892,1.526*1E,1747980583200
NMEA,$GPGSV,4,1,16,20,68,271,33.5,6,47,75,26.2,194,17,169,23.8,9,30,55,24.6*40,1747980583200
NMEA,$GPGSV,4,2,16,19,26,146,24.6,12,26,252,20.2,25,19,287,33.0,5,34,242,20.7*44,1747980583200
NMEA,$GPGSV,4,3,16,11,70,9,29.2,196,56,132,25.1,195,66,97,25.3,4,5,32,0.0*42,1747980583200
NMEA,$GPGSV,4,4,16,13,4,180,0.0,17,3,144,0.0,29,8,317,0.0,193,1,,0.0*79,1747980583200
NMEA,$BDGSV,2,1,8,230,71,112,32.9,208,64,259,31.7,232,63,66,34.5,240,56,165,28.5*61,1747980583200
NMEA,$BDGSV,2,2,8,213,49,248,28.5,210,1,,32.0,203,44,189,32.4,227,1,,31.2*5D,1747980583200
NMEA,$GAGSV,2,1,5,120,56,313,33.2,107,53,63,28.6,102,39,76,27.5,117,30,268,25.0*53,1747980583200
NMEA,$GAGSV,2,2,5,95,37,238,0.0*42,1747980583200
NMEA,$GPVTG,175.998,T,,M,0.263,N,0.487,K,A*0A,1747980583200
NMEA,$RD_RSSI, 686, 822, 0, 0,1747980583200
NMEA,$GPGGA,060944.100,3958.836609,N,11628.662682,E,1,18,0.892,23.983,M,0,M,,*42,1747980584100
NMEA,$GPRMC,060944.100,A,3958.836609,N,11628.662682,E,0.037,175.998,230525,,E,A*2E,1747980584100
NMEA,$GPGLL,3958.836609,N,11628.662682,E,060944.100,A,A*50,1747980584100
NMEA,$GPGSA,A,3,20,6,9,19,12,25,5,196,195,,,,1.768,0.892,1.526*0E,1747980584100
NMEA,$BDGSA,A,3,230,208,232,240,213,203,,,,,,,1.768,0.892,1.526*27,1747980584100
NMEA,$GAGSA,A,3,120,107,102,,,,,,,,,,1.768,0.892,1.526*1E,1747980584100
NMEA,$GPGSV,4,1,16,20,68,271,33.4,6,47,75,25.7,194,17,169,24.0,9,30,55,25.1*4E,1747980584100
NMEA,$GPGSV,4,2,16,19,26,146,23.2,12,26,252,20.7,25,19,287,34.2,5,34,242,19.6*4C,1747980584100
NMEA,$GPGSV,4,3,16,11,70,9,28.2,196,56,132,25.2,195,66,97,27.2,4,5,32,0.0*43,1747980584100
NMEA,$GPGSV,4,4,16,13,4,180,0.0,17,3,144,0.0,29,8,317,0.0,193,1,,0.0*79,1747980584100
NMEA,$BDGSV,2,1,8,230,71,112,32.7,208,64,259,32.5,232,63,66,33.9,240,56,165,29.0*61,1747980584100
NMEA,$BDGSV,2,2,8,213,49,248,29.6,210,1,,32.0,203,44,189,32.7,227,1,,32.2*5F,1747980584100
NMEA,$GAGSV,2,1,5,120,56,313,34.5,107,53,63,29.2,102,39,76,27.8,117,30,268,22.8*54,1747980584100
NMEA,$GAGSV,2,2,5,95,37,238,0.0*42,1747980584100
NMEA,$GPVTG,175.998,T,,M,0.037,N,0.070,K,A*05,1747980584100
NMEA,$RD_RSSI, 715, 901, 0, 0,1747980584100
NMEA,$GPGGA,060945.000,3958.836648,N,11628.662525,E,1,18,0.892,23.898,M,0,M,,*42,1747980585000
NMEA,$GPRMC,060945.000,A,3958.836648,N,11628.662525,E,0.000,175.998,230525,,E,A*21,1747980585000
NMEA,$GPGLL,3958.836648,N,11628.662525,E,060945.000,A,A*5B,1747980585000
NMEA,$GPGSA,A,3,20,6,9,19,12,25,5,196,195,,,,1.768,0.892,1.526*0E,1747980585000
NMEA,$BDGSA,A,3,230,208,232,240,213,203,,,,,,,1.768,0.892,1.526*27,1747980585000
NMEA,$GAGSA,A,3,120,107,102,,,,,,,,,,1.768,0.892,1.526*1E,1747980585000
NMEA,$GPGSV,4,1,16,20,68,271,33.5,6,47,75,24.2,194,17,169,24.2,9,30,55,25.3*4B,1747980585000
NMEA,$GPGSV,4,2,16,19,26,146,24.0,12,26,252,22.3,25,19,287,34.4,5,34,242,20.5*40,1747980585000
NMEA,$GPGSV,4,3,16,11,70,9,27.2,196,56,132,25.2,195,66,97,27.2,4,5,32,0.0*4C,1747980585000
NMEA,$GPGSV,4,4,16,13,4,180,0.0,17,3,144,0.0,29,8,317,0.0,193,1,,0.0*79,1747980585000
NMEA,$BDGSV,2,1,8,230,71,112,32.5,208,64,259,32.4,232,63,66,33.4,240,56,165,29.2*6D,1747980585000
NMEA,$BDGSV,2,2,8,213,49,248,30.5,210,1,,32.2,203,44,189,32.2,227,1,,31.7*55,1747980585000
NMEA,$GAGSV,2,1,5,120,56,313,34.7,107,53,63,29.5,102,39,76,27.6,117,30,268,21.8*5C,1747980585000
NMEA,$GAGSV,2,2,5,95,37,238,0.0*42,1747980585000
NMEA,$GPVTG,175.998,T,,M,0.000,N,0.000,K,A*06,1747980585000
NMEA,$RD_RSSI, 707, 833, 0, 0,1747980585000
NMEA,$GPGGA,060946.000,3958.836614,N,11628.662500,E,1,18,0.892,24.001,M,0,M,,*40,1747980586000
NMEA,$GPRMC,060946.000,A,3958.836614,N,11628.662500,E,0.000,175.998,230525,,E,A*2C,1747980586000
NMEA,$GPGLL,3958.836614,N,11628.662500,E,060946.000,A,A*56,1747980586000
NMEA,$GPGSA,A,3,20,6,9,19,12,25,5,196,195,,,,1.767,0.892,1.526*01,1747980586000
NMEA,$BDGSA,A,3,230,208,232,240,213,203,,,,,,,1.767,0.892,1.526*28,1747980586000
NMEA,$GAGSA,A,3,120,107,102,,,,,,,,,,1.767,0.892,1.526*11,1747980586000
NMEA,$GPGSV,4,1,16,20,68,271,32.7,6,47,75,21.2,194,17,169,21.7,9,30,55,24.0*4F,1747980586000
NMEA,$GPGSV,4,2,16,19,26,146,31.1,12,26,252,23.1,25,19,287,34.4,5,34,242,26.7*42,1747980586000
NMEA,$GPGSV,4,3,16,11,70,9,25.8,196,56,132,27.6,195,66,97,25.5,4,5,32,0.0*47,1747980586000
NMEA,$GPGSV,4,4,16,13,4,180,0.0,17,3,144,0.0,29,8,317,0.0,193,1,,0.0*79,1747980586000
NMEA,$BDGSV,2,1,8,230,71,112,31.0,208,64,259,31.6,232,63,66,34.7,240,56,165,26.7*64,1747980586000
NMEA,$BDGSV,2,2,8,213,49,248,30.5,210,1,,32.0,203,44,189,32.7,227,1,,29.6*5A,1747980586000
NMEA,$GAGSV,2,1,5,120,56,313,34.0,107,53,63,29.7,102,39,76,25.7,117,30,268,24.7*50,1747980586000
NMEA,$GAGSV,2,2,5,95,37,238,0.0*42,1747980586000
NMEA,$GPVTG,175.998,T,,M,0.000,N,0.000,K,A*06,1747980586000
NMEA,$RD_RSSI, 782, 944, 0, 0,1747980586000
NMEA,$GPGGA,060947.000,3958.836614,N,11628.662500,E,1,18,0.892,24.001,M,0,M,,*41,1747980587000
NMEA,$GPRMC,060947.000,A,3958.836614,N,11628.662500,E,0.347,175.998,230525,,E,A*2D,1747980587000
NMEA,$GPGLL,3958.836614,N,11628.662500,E,060947.000,A,A*57,1747980587000
NMEA,$GPGSA,A,3,20,6,9,19,12,25,5,196,195,,,,1.767,0.892,1.526*01,1747980587000
NMEA,$BDGSA,A,3,230,208,232,240,213,203,,,,,,,1.767,0.892,1.526*28,1747980587000
NMEA,$GAGSA,A,3,120,107,102,,,,,,,,,,1.767,0.892,1.526*11,1747980587000
NMEA,$GPGSV,4,1,16,20,68,271,30.2,6,47,75,22.3,194,17,169,23.2,9,30,55,23.0*4A,1747980587000
NMEA,$GPGSV,4,2,16,19,26,146,30.5,12,26,252,25.2,25,19,287,34.4,5,34,242,25.5*43,1747980587000
NMEA,$GPGSV,4,3,16,11,70,9,24.2,196,56,132,28.8,195,66,97,27.2,4,5,32,0.0*48,1747980587000
NMEA,$GPGSV,4,4,16,13,4,180,0.0,17,3,144,0.0,29,8,317,0.0,193,1,,0.0*79,1747980587000
NMEA,$BDGSV,2,1,8,230,71,112,31.0,208,64,259,30.7,232,63,66,34.7,240,56,165,24.0*61,1747980587000
NMEA,$BDGSV,2,2,8,213,49,248,31.5,210,1,,34.0,203,44,189,32.7,227,1,,26.8*5C,1747980587000
NMEA,$GAGSV,2,1,5,120,56,313,33.7,107,53,63,28.1,102,39,76,24.6,117,30,268,29.2*5F,1747980587000
NMEA,$GAGSV,2,2,5,95,37,238,0.0*42,1747980587000
NMEA,$GPVTG,175.998,T,,M,0.347,N,0.643,K,A*07,1747980587000
NMEA,$RD_RSSI, 751, 836, 0, 0,1747980587000
NMEA,$GPGGA,060948.000,3958.836614,N,11628.662500,E,1,18,0.891,24.001,M,0,M,,*4D,1747980588000
NMEA,$GPRMC,060948.000,A,3958.836614,N,11628.662500,E,0.539,175.998,230525,,E,A*2D,1747980588000
NMEA,$GPGLL,3958.836614,N,11628.662500,E,060948.000,A,A*58,1747980588000
NMEA,$GPGSA,A,3,20,6,9,19,12,25,5,196,195,,,,1.767,0.891,1.526*02,1747980588000
NMEA,$BDGSA,A,3,230,208,232,240,213,203,,,,,,,1.767,0.891,1.526*2B,1747980588000
NMEA,$GAGSA,A,3,120,107,102,,,,,,,,,,1.767,0.891,1.526*12,1747980588000
NMEA,$GPGSV,4,1,16,20,68,271,30.7,6,47,75,24.1,194,17,169,23.0,9,30,55,23.1*48,1747980588000
NMEA,$GPGSV,4,2,16,19,26,146,30.8,12,26,252,26.3,25,19,287,34.0,5,34,242,24.8*44,1747980588000
NMEA,$GPGSV,4,3,16,11,70,9,25.8,196,56,132,29.5,195,66,97,27.6,4,5,32,0.0*4B,1747980588000
NMEA,$GPGSV,4,4,16,13,4,180,0.0,17,3,144,0.0,29,8,317,0.0,193,1,,0.0*79,1747980588000
NMEA,$BDGSV,2,1,8,230,71,112,31.5,208,64,259,30.8,232,63,66,34.9,240,56,165,23.7*65,1747980588000
NMEA,$BDGSV,2,2,8,213,49,248,31.2,210,1,,33.9,203,44,189,32.7,227,1,,26.3*5E,1747980588000
NMEA,$GAGSV,2,1,5,120,56,313,33.2,107,53,63,26.7,102,39,76,27.7,117,30,268,30.2*58,1747980588000
NMEA,$GAGSV,2,2,5,95,37,238,0.0*42,1747980588000
NMEA,$GPVTG,175.998,T,,M,0.539,N,1.000,K,A*08,1747980588000
NMEA,$RD_RSSI, 754, 929, 0, 0,1747980588000
NMEA,$GPGGA,060949.000,3958.836614,N,11628.662500,E,1,18,0.891,24.001,M,0,M,,*4C,1747980589000
NMEA,$GPRMC,060949.000,A,3958.836614,N,11628.662500,E,0.000,175.998,230525,,E,A*23,1747980589000
NMEA,$GPGLL,3958.836614,N,11628.662500,E,060949.000,A,A*59,1747980589000
NMEA,$GPGSA,A,3,20,6,9,19,12,25,5,196,195,,,,1.767,0.891,1.525*01,1747980589000
NMEA,$BDGSA,A,3,230,208,232,240,213,203,,,,,,,1.767,0.891,1.525*28,1747980589000
NMEA,$GAGSA,A,3,120,107,102,,,,,,,,,,1.767,0.891,1.525*11,1747980589000
NMEA,$GPGSV,4,1,16,20,68,271,30.7,6,47,75,21.6,194,17,169,22.2,9,30,55,23.2*4A,1747980589000
NMEA,$GPGSV,4,2,16,19,26,146,30.7,12,26,252,27.2,25,19,287,33.4,5,34,242,25.6*47,1747980589000
NMEA,$GPGSV,4,3,16,11,70,9,24.0,196,56,132,29.7,195,66,97,28.0,4,5,32,0.0*49,1747980589000
NMEA,$GPGSV,4,4,16,13,4,180,0.0,17,3,144,0.0,29,8,317,0.0,193,1,,0.0*79,1747980589000
NMEA,$BDGSV,2,1,8,230,71,112,30.7,208,64,259,30.7,232,63,66,34.5,240,56,165,22.2*61,1747980589000
NMEA,$BDGSV,2,2,8,213,49,248,30.3,210,1,,33.5,203,44,189,32.4,227,1,,26.7*55,1747980589000
NMEA,$GAGSV,2,1,5,120,56,313,33.7,107,53,63,27.0,102,39,76,27.2,117,30,268,29.6*52,1747980589000
NMEA,$GAGSV,2,2,5,95,37,238,0.0*42,1747980589000
NMEA,$GPVTG,175.998,T,,M,0.000,N,0.000,K,A*06,1747980589000
NMEA,$RD_RSSI, 696, 830, 0, 0,1747980589000
NMEA,$GPGGA,060950.000,3958.836614,N,11628.662500,E,1,18,0.891,24.001,M,0,M,,*44,1747980590000
NMEA,$GPRMC,060950.000,A,3958.836614,N,11628.662500,E,0.439,175.998,230525,,E,A*25,1747980590000
NMEA,$GPGLL,3958.836614,N,11628.662500,E,060950.000,A,A*51,1747980590000
NMEA,$GPGSA,A,3,20,6,9,19,12,25,5,196,195,,,,1.767,0.891,1.525*01,1747980590000
NMEA,$BDGSA,A,3,230,208,232,240,213,203,,,,,,,1.767,0.891,1.525*28,1747980590000
NMEA,$GAGSA,A,3,120,107,102,,,,,,,,,,1.767,0.891,1.525*11,1747980590000
NMEA,$GPGSV,4,1,16,20,68,271,29.3,6,47,75,22.6,194,17,169,22.6,9,30,55,24.2*46,1747980590000
NMEA,$GPGSV,4,2,16,19,26,146,31.0,12,26,252,26.1,25,19,287,33.7,5,34,242,24.8*4F,1747980590000
NMEA,$GPGSV,4,3,16,11,70,9,23.2,196,56,132,30.2,195,66,97,26.8,4,5,32,0.0*47,1747980590000
NMEA,$GPGSV,4,4,16,13,4,180,0.0,17,3,144,0.0,29,8,317,0.0,193,1,,0.0*79,1747980590000
NMEA,$BDGSV,2,1,8,230,71,112,30.6,208,64,259,30.7,232,63,66,34.2,240,56,166,21.5*60,1747980590000
NMEA,$BDGSV,2,2,8,213,49,248,30.8,210,1,,34.5,203,44,189,32.4,227,1,,25.7*5A,1747980590000
NMEA,$GAGSV,2,1,5,120,56,313,34.0,107,53,63,28.0,102,39,76,24.8,117,30,268,28.7*54,1747980590000
NMEA,$GAGSV,2,2,5,95,37,238,0.0*42,1747980590000
NMEA,$GPVTG,175.998,T,,M,0.439,N,0.814,K,A*05,1747980590000
NMEA,$RD_RSSI, 731, 846, 0, 0,1747980590000
NMEA,$GPGGA,060951.000,3958.836614,N,11628.662500,E,1,18,0.891,24.001,M,0,M,,*45,1747980591000
NMEA,$GPRMC,060951.000,A,3958.836614,N,11628.662500,E,0.000,175.998,230525,,E,A*2A,1747980591000
NMEA,$GPGLL,3958.836614,N,11628.662500,E,060951.000,A,A*50,1747980591000
NMEA,$GPGSA,A,3,20,6,9,19,12,25,5,196,195,,,,1.767,0.891,1.525*01,1747980591000
NMEA,$BDGSA,A,3,230,208,232,240,213,203,,,,,,,1.767,0.891,1.525*28,1747980591000
NMEA,$GAGSA,A,3,120,107,102,,,,,,,,,,1.767,0.891,1.525*11,1747980591000
NMEA,$GPGSV,4,1,16,20,68,271,30.1,6,47,75,22.7,194,17,169,21.8,9,30,55,25.2*41,1747980591000
NMEA,$GPGSV,4,2,16,19,26,146,31.0,12,26,252,27.0,25,19,287,34.5,5,34,242,26.6*46,1747980591000
NMEA,$GPGSV,4,3,16,11,70,9,26.2,196,56,132,30.7,195,66,97,27.8,4,5,32,0.0*46,1747980591000
NMEA,$GPGSV,4,4,16,13,4,180,0.0,17,3,144,0.0,29,8,317,0.0,193,1,,0.0*79,1747980591000
NMEA,$BDGSV,2,1,8,230,71,112,29.3,208,64,259,29.6,232,63,66,34.9,240,56,166,21.2*68,1747980591000
NMEA,$BDGSV,2,2,8,213,49,248,31.0,210,1,,34.2,203,44,189,31.7,227,1,,26.2*52,1747980591000
NMEA,$GAGSV,2,1,5,120,56,313,33.7,107,53,63,26.3,102,39,76,22.2,117,30,268,28.6*54,1747980591000
NMEA,$GAGSV,2,2,5,95,37,238,0.0*42,1747980591000
NMEA,$GPVTG,175.998,T,,M,0.000,N,0.000,K,A*06,1747980591000
NMEA,$RD_RSSI, 747, 855, 0, 0,1747980591000
NMEA,$GPGGA,060952.000,3958.836614,N,11628.662500,E,1,18,0.891,24.001,M,0,M,,*46,1747980592000
NMEA,$GPRMC,060952.000,A,3958.836614,N,11628.662500,E,0.664,175.998,230525,,E,A*2D,1747980592000
NMEA,$GPGLL,3958.836614,N,11628.662500,E,060952.000,A,A*53,1747980592000
NMEA,$GPGSA,A,3,20,6,9,19,12,25,5,196,195,,,,1.766,0.891,1.525*00,1747980592000
NMEA,$BDGSA,A,3,230,208,232,240,213,203,,,,,,,1.766,0.891,1.525*29,1747980592000
NMEA,$GAGSA,A,3,120,107,102,,,,,,,,,,1.766,0.891,1.525*10,1747980592000
NMEA,$GPGSV,4,1,16,20,68,271,30.2,6,47,75,22.5,194,17,169,22.6,9,30,54,23.2*4A,1747980592000
NMEA,$GPGSV,4,2,16,19,26,146,30.0,12,26,252,26.1,25,19,287,33.7,5,34,242,26.1*45,1747980592000
NMEA,$GPGSV,4,3,16,11,70,9,25.3,196,56,132,30.5,195,66,97,27.1,4,5,32,0.0*4F,1747980592000
NMEA,$GPGSV,4,4,16,13,4,180,0.0,17,3,144,0.0,29,8,317,0.0,193,1,,0.0*79,1747980592000
NMEA,$BDGSV,2,1,8,230,71,112,28.2,208,64,259,30.2,232,63,66,35.0,240,56,166,22.0*6D,1747980592000
NMEA,$BDGSV,2,2,8,213,49,248,31.2,210,1,,33.4,203,44,189,31.7,227,1,,26.2*51,1747980592000
NMEA,$GAGSV,2,1,5,120,56,313,33.5,107,53,63,27.0,102,39,76,21.3,117,30,268,28.0*50,1747980592000
NMEA,$GAGSV,2,2,5,95,37,238,0.0*42,1747980592000
NMEA,$GPVTG,175.998,T,,M,0.664,N,1.230,K,A*02,1747980592000
NMEA,$RD_RSSI, 720, 868, 0, 0,1747980592000
NMEA,$GPGGA,060953.000,3958.836614,N,11628.662500,E,1,18,0.891,24.001,M,0,M,,*47,1747980593000
NMEA,$GPRMC,060953.000,A,3958.836614,N,11628.662500,E,0.508,175.998,230525,,E,A*25,1747980593000
NMEA,$GPGLL,3958.836614,N,11628.662500,E,060953.000,A,A*52,1747980593000
NMEA,$GPGSA,A,3,20,6,9,19,12,25,5,196,195,,,,1.766,0.891,1.525*00,1747980593000
NMEA,$BDGSA,A,3,230,208,232,240,213,203,,,,,,,1.766,0.891,1.525*29,1747980593000
NMEA,$GAGSA,A,3,120,107,102,,,,,,,,,,1.766,0.891,1.525*10,1747980593000
NMEA,$GPGSV,4,1,16,20,68,271,31.1,6,47,75,22.5,194,17,169,22.5,9,30,54,24.2*4C,1747980593000
NMEA,$GPGSV,4,2,16,19,26,146,30.2,12,26,252,25.7,25,19,287,34.0,5,34,242,26.7*44,1747980593000
NMEA,$GPGSV,4,3,16,11,70,9,24.6,196,56,132,30.6,195,66,97,26.3,4,5,32,0.0*4B,1747980593000
NMEA,$GPGSV,4,4,16,13,4,180,0.0,17,3,144,0.0,29,8,317,0.0,193,1,,0.0*79,1747980593000
NMEA,$BDGSV,2,1,8,230,71,112,28.7,208,64,259,29.2,232,63,66,35.0,240,56,166,21.1*62,1747980593000
NMEA,$BDGSV,2,2,8,213,49,248,30.8,210,1,,33.5,203,44,189,31.7,227,1,,26.1*58,1747980593000
NMEA,$GAGSV,2,1,5,120,56,313,33.7,107,53,63,27.0,102,39,76,23.7,117,30,268,29.6*53,1747980593000
NMEA,$GAGSV,2,2,5,95,37,238,0.0*42,1747980593000
NMEA,$GPVTG,175.998,T,,M,0.508,N,0.941,K,A*07,1747980593000
NMEA,$RD_RSSI, 744, 848, 0, 0,1747980593000
NMEA,$GPGGA,060954.000,3958.836614,N,11628.662500,E,1,18,0.891,24.001,M,0,M,,*40,1747980594000
NMEA,$GPRMC,060954.000,A,3958.836614,N,11628.662500,E,0.475,175.998,230525,,E,A*29,1747980594000
NMEA,$GPGLL,3958.836614,N,11628.662500,E,060954.000,A,A*55,1747980594000
NMEA,$GPGSA,A,3,20,6,9,19,12,25,5,196,195,,,,1.766,0.891,1.524*01,1747980594000
NMEA,$BDGSA,A,3,230,208,232,240,213,203,,,,,,,1.766,0.891,1.524*28,1747980594000
NMEA,$GAGSA,A,3,120,107,102,,,,,,,,,,1.766,0.891,1.524*11,1747980594000
NMEA,$GPGSV,4,1,16,20,68,271,31.2,6,47,75,23.2,194,17,169,22.2,9,30,54,22.6*4C,1747980594000
NMEA,$GPGSV,4,2,16,19,26,146,29.8,12,26,252,24.2,25,19,287,34.4,5,34,242,28.1*4E,1747980594000
NMEA,$GPGSV,4,3,16,11,70,9,23.7,196,56,132,30.7,195,66,97,25.6,4,5,32,0.0*4A,1747980594000
NMEA,$GPGSV,4,4,16,13,4,180,0.0,17,3,144,0.0,29,8,317,0.0,193,1,,0.0*79,1747980594000
NMEA,$BDGSV,2,1,8,230,71,112,28.0,208,64,259,30.2,232,63,66,35.0,240,56,166,21.1*6D,1747980594000
NMEA,$BDGSV,2,2,8,213,49,248,31.1,210,1,,33.7,203,44,189,32.5,227,1,,26.3*51,1747980594000
NMEA,$GAGSV,2,1,5,120,56,313,33.5,107,53,63,27.2,102,39,76,23.2,117,30,268,29.6*56,1747980594000
NMEA,$GAGSV,2,2,5,95,37,238,0.0*42,1747980594000
NMEA,$GPVTG,175.998,T,,M,0.475,N,0.880,K,A*00,1747980594000
NMEA,$RD_RSSI, 724, 868, 0, 0,1747980594000
NMEA,$GPGGA,060955.000,3958.836614,N,11628.662500,E,1,18,0.891,24.001,M,0,M,,*41,1747980595000
NMEA,$GPRMC,060955.000,A,3958.836614,N,11628.662500,E,0.319,175.998,230525,,E,A*25,1747980595000
NMEA,$GPGLL,3958.836614,N,11628.662500,E,060955.000,A,A*54,1747980595000
NMEA,$GPGSA,A,3,20,6,9,19,12,25,5,196,195,,,,1.766,0.891,1.524*01,1747980595000
NMEA,$BDGSA,A,3,230,208,232,240,213,203,,,,,,,1.766,0.891,1.524*28,1747980595000
NMEA,$GAGSA,A,3,120,107,102,,,,,,,,,,1.766,0.891,1.524*11,1747980595000
NMEA,$GPGSV,4,1,16,20,68,271,31.2,6,47,75,23.3,194,17,169,22.1,9,30,54,25.5*4A,1747980595000
NMEA,$GPGSV,4,2,16,19,26,146,29.3,12,26,252,24.0,25,19,287,34.2,5,34,242,27.8*47,1747980595000
NMEA,$GPGSV,4,3,16,11,70,10,25.8,196,56,132,30.0,195,66,97,25.2,4,5,32,0.0*78,1747980595000
NMEA,$GPGSV,4,4,16,13,4,180,0.0,17,3,144,0.0,29,8,317,0.0,193,1,,0.0*79,1747980595000
NMEA,$BDGSV,2,1,8,230,71,112,28.2,208,64,259,29.6,232,63,66,34.7,240,56,166,20.8*6D,1747980595000
NMEA,$BDGSV,2,2,8,213,49,248,32.0,210,1,,33.5,203,44,189,32.7,227,1,,26.8*58,1747980595000
NMEA,$GAGSV,2,1,5,120,56,313,34.0,107,53,63,26.6,102,39,76,23.0,117,30,268,30.1*5C,1747980595000
NMEA,$GAGSV,2,2,5,95,37,238,0.0*42,1747980595000
NMEA,$GPVTG,175.998,T,,M,0.319,N,0.592,K,A*03,1747980595000
NMEA,$RD_RSSI, 702, 816, 0, 0,1747980595000
NMEA,$GPGGA,060956.000,3958.836614,N,11628.662500,E,1,18,0.891,24.001,M,0,M,,*42,1747980596000
NMEA,$GPRMC,060956.000,A,3958.836614,N,11628.662500,E,0.000,175.998,230525,,E,A*2D,1747980596000
NMEA,$GPGLL,3958.836614,N,11628.662500,E,060956.000,A,A*57,1747980596000
NMEA,$GPGSA,A,3,20,6,9,19,12,25,5,196,195,,,,1.766,0.891,1.524*01,1747980596000
NMEA,$BDGSA,A,3,230,208,232,240,213,203,,,,,,,1.766,0.891,1.524*28,1747980596000
NMEA,$GAGSA,A,3,120,107,102,,,,,,,,,,1.766,0.891,1.524*11,1747980596000
NMEA,$GPGSV,4,1,16,20,68,271,30.7,6,47,75,21.2,194,17,169,21.8,9,30,54,25.5*47,1747980596000
NMEA,$GPGSV,4,2,16,19,26,146,29.2,12,26,252,24.0,25,19,287,34.4,5,34,242,28.8*4F,1747980596000
NMEA,$GPGSV,4,3,16,11,70,10,24.0,196,56,132,29.7,195,66,97,25.3,4,5,32,0.0*7F,1747980596000
NMEA,$GPGSV,4,4,16,13,4,180,0.0,17,3,144,0.0,29,8,317,0.0,193,1,,0.0*79,1747980596000
NMEA,$BDGSV,2,1,8,230,71,112,26.7,208,64,259,29.1,232,63,66,34.5,240,56,166,20.7*6C,1747980596000
NMEA,$BDGSV,2,2,8,213,49,248,31.6,210,1,,33.7,203,44,189,32.0,227,1,,27.1*50,1747980596000
NMEA,$GAGSV,2,1,5,120,56,313,34.0,107,53,63,27.2,102,39,76,21.2,117,30,268,30.3*5B,1747980596000
NMEA,$GAGSV,2,2,5,95,37,238,0.0*42,1747980596000
NMEA,$GPVTG,175.998,T,,M,0.000,N,0.000,K,A*06,1747980596000
NMEA,$RD_RSSI, 689, 851, 0, 0,1747980596000
NMEA,$GPGGA,060957.000,3958.836614,N,11628.662500,E,1,18,0.891,24.001,M,0,M,,*43,1747980597000
NMEA,$GPRMC,060957.000,A,3958.836614,N,11628.662500,E,0.000,175.998,230525,,E,A*2C,1747980597000
NMEA,$GPGLL,3958.836614,N,11628.662500,E,060957.000,A,A*56,1747980597000
NMEA,$GPGSA,A,3,20,6,9,19,12,25,5,196,195,,,,1.765,0.891,1.524*02,1747980597000
NMEA,$BDGSA,A,3,230,208,232,240,213,203,,,,,,,1.765,0.891,1.524*2B,1747980597000
NMEA,$GAGSA,A,3,120,107,102,,,,,,,,,,1.765,0.891,1.524*12,1747980597000
NMEA,$GPGSV,4,1,16,20,68,271,32.2,6,47,75,23.3,194,17,169,18.0,9,30,54,25.1*45,1747980597000
NMEA,$GPGSV,4,2,16,19,26,146,29.8,12,26,252,24.3,25,19,287,34.2,5,34,242,28.1*49,1747980597000
NMEA,$GPGSV,4,3,16,11,70,10,25.5,196,56,132,29.7,195,66,97,26.2,4,5,32,0.0*79,1747980597000
NMEA,$GPGSV,4,4,16,13,4,180,0.0,17,3,144,0.0,29,8,317,0.0,193,1,,0.0*79,1747980597000
NMEA,$BDGSV,2,1,8,230,71,112,27.6,208,64,259,28.7,232,63,65,35.0,240,56,166,21.1*6B,1747980597000
NMEA,$BDGSV,2,2,8,213,49,248,30.8,210,1,,33.7,203,44,189,31.5,227,1,,27.2*5A,1747980597000
NMEA,$GAGSV,2,1,5,120,56,313,34.5,107,53,63,25.5,102,39,76,21.7,117,30,268,29.8*5D,1747980597000
NMEA,$GAGSV,2,2,5,95,37,238,0.0*42,1747980597000
NMEA,$GPVTG,175.998,T,,M,0.000,N,0.000,K,A*06,1747980597000
NMEA,$RD_RSSI, 725, 833, 0, 0,1747980597000
NMEA,$GPGGA,060958.000,3958.836614,N,11628.662500,E,1,18,0.891,24.001,M,0,M,,*4C,1747980598000
NMEA,$GPRMC,060958.000,A,3958.836614,N,11628.662500,E,0.000,175.998,230525,,E,A*23,1747980598000
NMEA,$GPGLL,3958.836614,N,11628.662500,E,060958.000,A,A*59,1747980598000
NMEA,$GPGSA,A,3,20,6,9,19,12,25,5,196,195,,,,1.765,0.891,1.524*02,1747980598000
NMEA,$BDGSA,A,3,230,208,232,240,213,203,,,,,,,1.765,0.891,1.524*2B,1747980598000
NMEA,$GAGSA,A,3,120,107,102,,,,,,,,,,1.765,0.891,1.524*12,1747980598000
NMEA,$GPGSV,4,1,16,20,68,271,31.7,6,47,75,25.8,194,17,169,18.5,9,30,54,26.8*41,1747980598000
NMEA,$GPGSV,4,2,16,19,26,146,29.8,12,26,252,24.2,25,19,287,34.7,5,34,242,27.7*44,1747980598000
NMEA,$GPGSV,4,3,16,11,70,10,27.7,196,56,132,30.7,195,66,97,24.8,4,4,32,0.0*78,1747980598000
NMEA,$GPGSV,4,4,16,13,4,180,0.0,17,3,144,0.0,29,8,317,0.0,193,1,,0.0*79,1747980598000
NMEA,$BDGSV,2,1,8,230,71,112,30.2,208,64,259,28.1,232,63,65,35.2,240,56,166,20.6*6B,1747980598000
NMEA,$BDGSV,2,2,8,213,49,248,31.8,210,1,,34.0,203,44,189,31.7,227,1,,26.2*58,1747980598000
NMEA,$GAGSV,2,1,5,120,56,313,34.7,107,53,63,24.2,102,39,76,22.7,117,30,268,30.0*5A,1747980598000
NMEA,$GAGSV,2,2,5,95,37,238,0.0*42,1747980598000
NMEA,$GPVTG,175.998,T,,M,0.000,N,0.000,K,A*06,1747980598000
NMEA,$RD_RSSI, 744, 847, 0, 0,1747980598000
NMEA,$GPGGA,060959.000,3958.836614,N,11628.662500,E,1,18,0.891,24.001,M,0,M,,*4D,1747980599000
NMEA,$GPRMC,060959.000,A,3958.836614,N,11628.662500,E,0.341,175.998,230525,,E,A*24,1747980599000
NMEA,$GPGLL,3958.836614,N,11628.662500,E,060959.000,A,A*58,1747980599000
NMEA,$GPGSA,A,3,20,6,9,19,12,25,5,196,195,,,,1.765,0.891,1.524*02,1747980599000
NMEA,$BDGSA,A,3,230,208,232,240,213,203,,,,,,,1.765,0.891,1.524*2B,1747980599000
NMEA,$GAGSA,A,3,120,107,102,,,,,,,,,,1.765,0.891,1.524*12,1747980599000
NMEA,$GPGSV,4,1,16,20,68,271,31.8,6,47,75,25.7,194,17,169,18.7,9,30,54,25.8*40,1747980599000
NMEA,$GPGSV,4,2,16,19,26,146,29.3,12,26,252,23.2,25,19,287,34.9,5,34,242,28.8*46,1747980599000
NMEA,$GPGSV,4,3,16,11,70,10,26.0,196,56,132,30.5,195,66,97,24.8,4,4,32,0.0*7C,1747980599000
NMEA,$GPGSV,4,4,16,13,4,180,0.0,17,3,144,0.0,29,8,317,0.0,193,1,,0.0*79,1747980599000
NMEA,$BDGSV,2,1,8,230,71,112,29.7,208,64,259,29.5,232,63,65,34.7,240,56,166,21.1*61,1747980599000
NMEA,$BDGSV,2,2,8,213,49,248,31.5,210,1,,33.7,203,44,189,31.2,227,1,,27.2*51,1747980599000
NMEA,$GAGSV,2,1,5,120,56,313,34.4,107,53,63,26.7,102,39,76,21.8,117,30,268,30.1*53,1747980599000
NMEA,$GAGSV,2,2,5,95,37,238,0.0*42,1747980599000
NMEA,$GPVTG,175.998,T,,M,0.341,N,0.632,K,A*07,1747980599000
NMEA,$RD_RSSI, 758, 831, 0, 0,1747980599000
NMEA,$GPGGA,061000.000,3958.836614,N,11628.662500,E,1,18,0.891,24.001,M,0,M,,*49,1747980600000
NMEA,$GPRMC,061000.000,A,3958.836614,N,11628.662500,E,0.205,175.998,230525,,E,A*21,1747980600000
NMEA,$GPGLL,3958.836614,N,11628.662500,E,061000.000,A,A*5C,1747980600000
NMEA,$GPGSA,A,3,20,6,9,19,12,25,5,196,195,,,,1.765,0.891,1.523*05,1747980600000
NMEA,$BDGSA,A,3,230,208,232,240,213,203,,,,,,,1.765,0.891,1.523*2C,1747980600000
NMEA,$GAGSA,A,3,120,107,102,,,,,,,,,,1.765,0.891,1.523*15,1747980600000
NMEA,$GPGSV,4,1,16,20,68,271,32.7,6,47,75,25.2,194,17,169,18.7,9,30,54,22.3*45,1747980600000
NMEA,$GPGSV,4,2,16,19,26,146,29.7,12,26,252,22.8,25,19,287,34.5,5,34,242,29.7*4B,1747980600000
NMEA,$GPGSV,4,3,16,11,70,10,26.5,196,56,132,29.7,195,66,97,26.2,4,4,32,0.0*7B,1747980600000
NMEA,$GPGSV,4,4,16,13,4,180,0.0,17,3,144,0.0,29,8,317,0.0,193,1,,0.0*79,1747980600000
NMEA,$BDGSV,2,1,8,230,71,112,29.2,208,64,259,30.7,232,63,65,34.9,240,56,166,21.6*67,1747980600000
NMEA,$BDGSV,2,2,8,213,49,248,30.8,210,1,,33.2,203,44,189,31.6,227,1,,26.6*59,1747980600000
NMEA,$GAGSV,2,1,5,120,56,313,34.0,107,53,63,27.8,102,39,76,24.2,117,30,268,30.5*52,1747980600000
NMEA,$GAGSV,2,2,5,95,37,238,0.0*42,1747980600000
NMEA,$GPVTG,175.998,T,,M,0.205,N,0.381,K,A*0B,1747980600000
NMEA,$RD_RSSI, 737, 828, 0, 0,1747980600000
NMEA,$GPGGA,061001.000,3958.836614,N,11628.662500,E,1,18,0.891,24.001,M,0,M,,*48,1747980601000
NMEA,$GPRMC,061001.000,A,3958.836614,N,11628.662500,E,0.469,175.998,230525,,E,A*2C,1747980601000
NMEA,$GPGLL,3958.836614,N,11628.662500,E,061001.000,A,A*5D,1747980601000
NMEA,$GPGSA,A,3,20,6,9,19,12,25,5,196,195,,,,1.765,0.891,1.523*05,1747980601000
NMEA,$BDGSA,A,3,230,208,232,240,213,203,,,,,,,1.765,0.891,1.523*2C,1747980601000
NMEA,$GAGSA,A,3,120,107,102,,,,,,,,,,1.765,0.891,1.523*15,1747980601000
NMEA,$GPGSV,4,1,16,20,68,271,33.2,6,47,75,25.8,194,17,169,18.2,9,30,54,23.2*4E,1747980601000
NMEA,$GPGSV,4,2,16,19,26,146,29.2,12,26,252,22.6,25,19,287,34.2,5,34,242,29.1*41,1747980601000
