$GNGGA,060931.00,3958.83186360,N,11628.66503816,E,4,28,0.6,35.5605,M,-8.1427,M,1.0,1824*70
$GNRMC,060931.00,D,3958.83186360,N,11628.66503816,E,0.009,278.0,230525,7.3,W,R,S*5D
$GPGSV,2,1,07,06,47,075,44,09,30,055,39,19,26,146,38,20,68,271,42,1*6D
$GPGSV,2,2,07,11,70,009,36,05,34,241,39,12,26,252,22,1*55
$GPGSV,2,1,07,06,47,075,33,09,30,055,34,19,26,146,29,20,68,271,35,4*65
$GPGSV,2,2,07,11,70,009,35,05,34,241,33,12,26,252,27,4*5C
$GPGSV,1,1,03,06,47,075,31,09,30,055,37,11,70,009,33,8*5B
$GLGSV,1,1,04,86,38,323,29,69,15,028,31,85,60,065,47,71,42,184,45,1*74
$GLGSV,1,1,03,86,38,323,31,85,60,065,32,71,42,184,31,3*4A
$GBGSV,4,1,14,03,44,189,44,07,58,193,41,08,64,259,39,10,64,220,44,1*7C
$GBGSV,4,2,14,20,48,195,47,29,49,311,37,38,73,273,43,40,56,165,43,1*78
$GBGSV,4,3,14,01,36,139,39,30,72,112,38,32,63,066,44,59,38,145,39,1*77
$GBGSV,4,4,14,27,19,121,34,13,49,248,30,1*79
$GBGSV,4,1,13,03,44,189,31,07,58,193,28,08,64,259,34,10,64,220,32,8*73
$GBGSV,4,2,13,20,48,195,29,29,49,311,26,38,73,273,22,40,56,165,39,8*74
$GBGSV,4,3,13,30,72,112,28,32,63,066,33,59,38,145,31,27,19,121,30,8*79
$GBGSV,4,4,13,13,49,248,29,8*47
$GBGSV,2,1,06,03,44,189,44,07,58,193,43,08,64,259,41,10,64,220,43,B*00
$GBGSV,2,2,06,01,36,139,37,13,49,248,37,B*0D
$GAGSV,2,1,05,07,36,145,37,08,39,076,35,13,53,063,40,26,56,313,33,1*73
$GAGSV,2,2,05,23,30,268,32,1*4F
$GAGSV,2,1,05,07,36,145,40,08,39,076,41,13,53,063,47,26,56,313,35,2*72
$GAGSV,2,2,05,23,30,268,37,2*49
$GAGSV,2,1,05,07,36,145,40,08,39,076,34,13,53,063,42,26,56,313,39,7*7C
$GAGSV,2,2,05,23,30,268,16,7*4F
$GNGGA,060932.00,3958.83186686,N,11628.66503914,E,4,27,0.6,35.5578,M,-8.1427,M,1.0,1824*7B
$GNRMC,060932.00,D,3958.83186686,N,11628.66503914,E,0.010,279.8,230525,7.3,W,R,S*51
$GPGSV,2,1,07,06,47,075,44,09,30,055,39,19,26,146,38,20,68,271,42,1*6D
$GPGSV,2,2,07,11,70,009,36,05,34,241,38,12,26,252,22,1*54
$GPGSV,2,1,07,06,47,075,33,09,30,055,34,19,26,146,29,20,68,271,35,4*65
$GPGSV,2,2,07,11,70,009,35,05,34,241,33,12,26,252,27,4*5C
$GPGSV,1,1,03,06,47,075,31,09,30,055,37,11,70,009,33,8*5B
$GLGSV,1,1,04,86,38,323,29,69,15,028,30,85,60,065,47,71,42,184,45,1*75
$GLGSV,1,1,03,86,38,323,30,85,60,065,32,71,42,184,31,3*4B
$GBGSV,4,1,14,03,44,189,44,07,58,193,41,08,64,259,40,10,64,220,44,1*72
$GBGSV,4,2,14,20,48,195,47,29,49,311,37,38,73,273,43,40,56,165,43,1*78
$GBGSV,4,3,14,01,36,139,39,30,72,112,38,32,63,066,44,59,38,145,39,1*77
$GBGSV,4,4,14,27,19,121,33,13,49,248,30,1*7E
$GBGSV,4,1,13,03,44,189,31,07,58,193,28,08,64,259,34,10,64,220,32,8*73
$GBGSV,4,2,13,20,48,195,29,29,49,311,27,38,73,273,22,40,56,165,39,8*75
$GBGSV,4,3,13,30,72,112,28,32,63,066,33,59,38,145,31,27,19,121,30,8*79
$GBGSV,4,4,13,13,49,248,29,8*47
$GBGSV,2,1,06,03,44,189,43,07,58,193,43,08,64,259,40,10,64,220,42,B*07
$GBGSV,2,2,06,01,36,139,37,13,49,248,37,B*0D
$GAGSV,2,1,05,07,36,145,36,08,39,076,35,13,53,063,40,26,56,313,33,1*72
$GAGSV,2,2,05,23,30,268,32,1*4F
$GAGSV,2,1,05,07,36,145,40,08,39,076,41,13,53,063,47,26,56,313,35,2*72
$GAGSV,2,2,05,23,30,268,37,2*49
$GAGSV,2,1,05,07,36,145,40,08,39,076,35,13,53,063,42,26,56,313,39,7*7D
$GAGSV,2,2,05,23,30,268,15,7*4C
$GNGGA,060933.00,3958.83186665,N,11628.66503941,E,4,27,0.6,35.5554,M,-8.1427,M,1.0,1824*79
$GNRMC,060933.00,D,3958.83186665,N,11628.66503941,E,0.008,280.9,230525,7.3,W,R,S*53
$GPGSV,2,1,07,06,47,075,44,09,30,055,39,19,26,146,38,20,68,271,42,1*6D
$GPGSV,2,2,07,11,70,009,36,05,34,241,38,12,26,252,21,1*57
$GPGSV,2,1,07,06,47,075,33,09,30,055,34,19,26,146,29,20,68,271,35,4*65
$GPGSV,2,2,07,11,70,009,35,05,34,241,33,12,26,252,26,4*5D
$GPGSV,1,1,03,06,47,075,31,09,30,055,37,11,70,009,33,8*5B
$GLGSV,1,1,04,86,38,323,27,69,15,028,30,85,60,065,47,71,42,184,45,1*7B
$GLGSV,1,1,03,86,38,323,30,85,60,065,32,71,42,184,31,3*4B
$GBGSV,4,1,14,03,44,189,44,07,58,193,41,08,64,259,40,10,64,220,44,1*72
$GBGSV,4,2,14,20,48,195,47,29,49,311,37,38,73,273,43,40,56,165,43,1*78
$GBGSV,4,3,14,01,36,139,39,30,72,112,38,32,63,066,44,59,38,145,38,1*76
$GBGSV,4,4,14,27,19,121,33,13,49,248,30,1*7E
$GBGSV,4,1,13,03,44,189,30,07,58,193,28,08,64,259,34,10,64,220,32,8*72
$GBGSV,4,2,13,20,48,195,29,29,49,311,27,38,73,273,22,40,56,165,39,8*75
$GBGSV,4,3,13,30,72,112,29,32,63,066,33,59,38,145,31,27,19,121,30,8*78
$GBGSV,4,4,13,13,49,248,29,8*47
$GBGSV,2,1,06,03,44,189,43,07,58,193,42,08,64,259,40,10,64,220,42,B*06
$GBGSV,2,2,06,01,36,139,36,13,49,248,37,B*0C
$GAGSV,2,1,05,07,36,145,37,08,39,076,35,13,53,063,40,26,56,313,33,1*73
$GAGSV,2,2,05,23,30,268,33,1*4E
$GAGSV,2,1,05,07,36,145,40,08,39,076,41,13,53,063,46,26,56,313,35,2*73
$GAGSV,2,2,05,23,30,268,37,2*49
$GAGSV,2,1,05,07,36,145,40,08,39,076,35,13,53,063,42,26,56,313,39,7*7D
$GAGSV,2,2,05,23,30,268,13,7*4A
$GNGGA,060934.00,3958.83186797,N,11628.66503664,E,4,27,0.6,35.5408,M,-8.1427,M,1.0,1824*72
$GNRMC,060934.00,D,3958.83186797,N,11628.66503664,E,0.009,284.4,230525,7.3,W,R,S*58
$GPGSV,2,1,07,06,47,075,44,09,30,055,39,19,26,146,38,20,68,271,42,1*6D
$GPGSV,2,2,07,11,70,009,36,05,34,242,38,12,26,252,21,1*54
$GPGSV,2,1,07,06,47,075,33,09,30,055,34,19,26,146,29,20,68,271,35,4*65
$GPGSV,2,2,07,11,70,009,36,05,34,242,33,12,26,252,26,4*5D
$GPGSV,1,1,03,06,47,075,31,09,30,055,37,11,70,009,33,8*5B
$GLGSV,1,1,04,86,38,323,27,69,15,028,29,85,60,065,47,71,42,184,45,1*73
$GLGSV,1,1,03,86,38,323,30,85,60,065,32,71,42,184,31,3*4B
$GBGSV,4,1,14,03,44,189,44,07,58,193,41,08,64,259,40,10,64,220,44,1*72
$GBGSV,4,2,14,20,48,195,47,29,49,311,37,38,73,273,43,40,56,165,43,1*78
$GBGSV,4,3,14,01,36,139,40,30,72,112,38,32,63,066,44,59,38,145,39,1*79
$GBGSV,4,4,14,27,19,121,33,13,49,248,30,1*7E
$GBGSV,4,1,13,03,44,189,31,07,58,193,28,08,64,259,34,10,64,220,31,8*70
$GBGSV,4,2,13,20,48,195,28,29,49,311,28,38,73,273,23,40,56,165,39,8*7A
$GBGSV,4,3,13,30,72,112,29,32,63,066,33,59,38,145,31,27,19,121,30,8*78
$GBGSV,4,4,13,13,49,248,28,8*46
$GBGSV,2,1,06,03,44,189,43,07,58,193,42,08,64,259,40,10,64,220,42,B*06
$GBGSV,2,2,06,01,36,139,37,13,49,248,37,B*0D
$GAGSV,2,1,05,07,36,145,37,08,39,076,35,13,53,063,40,26,56,313,32,1*72
$GAGSV,2,2,05,23,30,268,32,1*4F
$GAGSV,2,1,05,07,36,145,40,08,39,076,41,13,53,063,47,26,56,313,35,2*72
$GAGSV,2,2,05,23,30,268,37,2*49
$GAGSV,2,1,05,07,36,145,40,08,39,076,34,13,53,063,42,26,56,313,39,7*7C
$GAGSV,2,2,05,23,30,268,12,7*4B
$GNGGA,060935.00,3958.83186782,N,11628.66503939,E,4,27,0.6,35.5426,M,-8.1427,M,1.0,1824*7C
$GNRMC,060935.00,D,3958.83186782,N,11628.66503939,E,0.010,292.1,230525,7.3,W,R,S*50
$GPGSV,2,1,07,06,47,075,44,09,30,055,39,19,26,146,38,20,68,271,41,1*6E
$GPGSV,2,2,07,11,70,009,36,05,34,242,38,12,26,252,20,1*55
$GPGSV,2,1,07,06,47,075,33,09,30,055,34,19,26,146,29,20,68,271,35,4*65
$GPGSV,2,2,07,11,70,009,36,05,34,242,33,12,26,252,26,4*5D
$GPGSV,1,1,03,06,47,075,31,09,30,055,37,11,70,009,33,8*5B
$GLGSV,1,1,04,86,38,323,25,69,15,028,29,85,60,065,47,71,42,184,45,1*71
$GLGSV,1,1,03,86,38,323,31,85,60,065,32,71,42,184,31,3*4A
$GBGSV,4,1,14,03,44,189,44,07,58,193,41,08,64,259,40,10,64,220,44,1*72
$GBGSV,4,2,14,20,48,195,47,29,49,311,37,38,73,273,43,40,56,165,43,1*78
$GBGSV,4,3,14,01,36,139,40,30,72,112,38,32,63,066,44,59,38,145,38,1*78
$GBGSV,4,4,14,27,19,121,33,13,49,248,30,1*7E
$GBGSV,4,1,13,03,44,189,31,07,58,193,28,08,64,259,34,10,64,220,31,8*70
$GBGSV,4,2,13,20,48,195,28,29,49,311,28,38,73,273,23,40,56,165,39,8*7A
$GBGSV,4,3,13,30,72,112,29,32,63,066,33,59,38,145,31,27,19,121,30,8*78
$GBGSV,4,4,13,13,49,248,29,8*47
$GBGSV,2,1,06,03,44,189,43,07,58,193,42,08,64,259,40,10,64,220,42,B*06
$GBGSV,2,2,06,01,36,139,37,13,49,248,37,B*0D
$GAGSV,2,1,05,07,36,145,37,08,39,076,35,13,53,063,40,26,56,313,33,1*73
$GAGSV,2,2,05,23,30,268,32,1*4F
$GAGSV,2,1,05,07,36,145,40,08,39,076,41,13,53,063,47,26,56,313,35,2*72
$GAGSV,2,2,05,23,30,268,38,2*46
$GAGSV,1,1,04,07,36,145,40,08,39,076,35,13,53,063,42,26,56,313,39,7*7F
$GNGGA,060936.00,3958.83186699,N,11628.66503735,E,4,27,0.6,35.5496,M,-8.1427,M,1.0,1824*7D
$GNRMC,060936.00,D,3958.83186699,N,11628.66503735,E,0.017,309.8,230525,7.3,W,R,S*57
$GPGSV,2,1,07,06,47,075,44,09,30,055,39,19,26,146,38,20,68,271,41,1*6E
$GPGSV,2,2,07,11,70,009,36,05,34,242,38,12,26,252,19,1*5F
$GPGSV,2,1,07,06,47,075,33,09,30,055,33,19,26,146,29,20,68,271,35,4*62
$GPGSV,2,2,07,11,70,009,36,05,34,242,33,12,26,252,26,4*5D
$GPGSV,1,1,03,06,47,075,31,09,30,055,37,11,70,009,32,8*5A
$GLGSV,1,1,04,86,38,323,25,69,15,028,29,85,60,065,47,71,42,184,44,1*70
$GLGSV,1,1,03,86,38,323,30,85,60,065,32,71,42,184,30,3*4A
$GBGSV,4,1,14,03,44,189,44,07,58,193,41,08,64,259,40,10,64,220,44,1*72
$GBGSV,4,2,14,20,49,195,47,29,49,311,37,38,73,273,43,40,56,165,44,1*7E
$GBGSV,4,3,14,01,36,139,40,30,72,112,38,32,63,066,44,59,38,145,38,1*78
$GBGSV,4,4,14,27,19,121,33,13,49,248,31,1*7F
$GBGSV,4,1,13,03,44,189,31,07,58,193,28,08,64,259,34,10,64,220,31,8*70
$GBGSV,4,2,13,20,49,195,29,29,49,311,28,38,73,273,24,40,56,165,39,8*7D
$GBGSV,4,3,13,30,72,112,29,32,63,066,33,59,38,145,31,27,19,121,30,8*78
$GBGSV,4,4,13,13,49,248,29,8*47
$GBGSV,2,1,06,03,44,189,43,07,58,193,42,08,64,259,40,10,64,220,42,B*06
$GBGSV,2,2,06,01,36,139,36,13,49,248,37,B*0C
$GAGSV,2,1,05,07,36,145,37,08,39,076,35,13,53,063,40,26,56,313,33,1*73
$GAGSV,2,2,05,23,30,268,33,1*4E
$GAGSV,2,1,05,07,36,145,40,08,39,076,41,13,53,063,47,26,56,313,36,2*71
$GAGSV,2,2,05,23,30,268,38,2*46
$GAGSV,2,1,05,07,36,145,40,08,39,076,35,13,53,063,42,26,56,313,39,7*7D
$GAGSV,2,2,05,23,30,268,14,7*4D
$GNGGA,060937.00,3958.83186573,N,11628.66503990,E,4,27,0.6,35.5536,M,-8.1427,M,1.0,1824*71
$GNRMC,060937.00,D,3958.83186573,N,11628.66503990,E,0.013,310.5,230525,7.3,W,R,S*51
$GPGSV,2,1,07,06,47,075,43,09,30,055,39,19,26,146,38,20,68,271,41,1*69
$GPGSV,2,2,07,11,70,009,36,05,34,242,38,12,26,252,19,1*5F
$GPGSV,2,1,07,06,47,075,33,09,30,055,33,19,26,146,28,20,68,271,35,4*63
$GPGSV,2,2,07,11,70,009,35,05,34,242,33,12,26,252,26,4*5E
$GPGSV,1,1,03,06,47,075,32,09,30,055,37,11,70,009,32,8*59
$GLGSV,1,1,04,86,38,323,25,69,15,028,29,85,60,065,47,71,42,184,44,1*70
$GLGSV,1,1,03,86,38,323,30,85,60,065,32,71,42,184,30,3*4A
$GBGSV,4,1,14,03,44,189,44,07,58,193,41,08,64,259,40,10,64,220,44,1*72
$GBGSV,4,2,14,20,49,195,47,29,49,311,37,38,73,273,43,40,56,165,44,1*7E
$GBGSV,4,3,14,01,36,139,40,30,72,112,39,32,63,066,44,59,38,145,38,1*79
$GBGSV,4,4,14,27,19,121,33,13,49,248,31,1*7F
$GBGSV,4,1,13,03,44,189,31,07,58,193,28,08,64,259,34,10,64,220,32,8*73
$GBGSV,4,2,13,20,49,195,29,29,49,311,27,38,73,273,24,40,56,165,39,8*72
$GBGSV,4,3,13,30,72,112,29,32,63,066,34,59,38,145,31,27,19,121,30,8*7F
$GBGSV,4,4,13,13,49,248,29,8*47
$GBGSV,2,1,06,03,44,189,43,07,58,193,42,08,64,259,40,10,64,220,42,B*06
$GBGSV,2,2,06,01,36,139,36,13,49,248,37,B*0C
$GAGSV,2,1,05,07,36,145,37,08,39,076,35,13,53,063,40,26,56,313,33,1*73
$GAGSV,2,2,05,23,30,268,33,1*4E
$GAGSV,2,1,05,07,36,145,40,08,39,076,41,13,53,063,47,26,56,313,35,2*72
$GAGSV,2,2,05,23,30,268,38,2*46
$GAGSV,2,1,05,07,36,145,40,08,39,076,35,13,53,063,42,26,56,313,38,7*7C
$GAGSV,2,2,05,23,30,268,17,7*4E
$GNGGA,060938.00,3958.83186373,N,11628.66503981,E,4,27,0.6,35.5594,M,-8.1427,M,1.0,1824*70
$GNRMC,060938.00,D,3958.83186373,N,11628.66503981,E,0.007,271.6,230525,7.3,W,R,S*58
$GPGSV,2,1,07,06,47,075,43,09,30,055,39,19,26,146,38,20,68,271,41,1*69
$GPGSV,2,2,07,11,70,009,36,05,34,242,37,12,26,252,18,1*51
$GPGSV,2,1,07,06,47,075,33,09,30,055,33,19,26,146,29,20,68,271,35,4*62
$GPGSV,2,2,07,11,70,009,35,05,34,242,33,12,26,252,25,4*5D
$GPGSV,1,1,03,06,47,075,32,09,30,055,37,11,70,009,32,8*59
$GLGSV,1,1,04,86,38,323,26,69,15,028,29,85,60,065,47,71,42,184,44,1*73
$GLGSV,1,1,03,86,38,323,30,85,60,065,33,71,42,184,30,3*4B
$GBGSV,4,1,14,03,44,189,44,07,58,193,41,08,64,259,40,10,64,220,43,1*75
$GBGSV,4,2,14,20,49,195,47,29,49,311,37,38,73,273,43,40,56,165,44,1*7E
$GBGSV,4,3,14,01,36,139,40,30,72,112,39,32,63,066,44,59,38,145,38,1*79
$GBGSV,4,4,14,27,19,121,33,13,49,248,31,1*7F
$GBGSV,4,1,13,03,44,189,31,07,58,193,28,08,64,259,34,10,64,220,31,8*70
$GBGSV,4,2,13,20,49,195,29,29,49,311,27,38,73,273,24,40,56,165,39,8*72
$GBGSV,4,3,13,30,72,112,29,32,63,066,33,59,38,145,31,27,19,121,30,8*78
$GBGSV,4,4,13,13,49,248,29,8*47
$GBGSV,2,1,06,03,44,189,43,07,58,193,42,08,64,259,40,10,64,220,42,B*06
$GBGSV,2,2,06,01,36,139,36,13,49,248,37,B*0C
$GAGSV,2,1,05,07,36,145,36,08,39,076,35,13,53,063,40,26,56,313,33,1*72
$GAGSV,2,2,05,23,30,268,33,1*4E
$GAGSV,2,1,05,07,36,145,40,08,39,076,41,13,53,063,47,26,56,313,35,2*72
$GAGSV,2,2,05,23,30,268,38,2*46
$GAGSV,2,1,05,07,36,145,40,08,39,076,35,13,53,063,42,26,56,313,38,7*7C
$GAGSV,2,2,05,23,30,268,18,7*41
$GNGGA,060939.00,3958.83186333,N,11628.66503962,E,4,27,0.6,35.5581,M,-8.1427,M,1.0,1824*7C
$GNRMC,060939.00,D,3958.83186333,N,11628.66503962,E,0.002,244.9,230525,7.3,W,R,S*5C
$GPGSV,2,1,07,06,47,075,43,09,30,055,40,19,26,146,38,20,68,271,41,1*67
$GPGSV,2,2,07,11,70,009,36,05,34,242,37,12,26,252,17,1*5E
$GPGSV,2,1,06,06,47,075,33,09,30,055,32,20,68,271,35,11,70,009,36,4*6D
$GPGSV,2,2,06,05,34,242,34,12,26,252,25,4*63
$GPGSV,1,1,03,06,47,075,31,09,30,055,37,11,70,009,32,8*5A
$GLGSV,1,1,04,86,38,323,26,69,15,028,30,85,60,065,47,71,42,184,44,1*7B
$GLGSV,1,1,03,86,38,323,30,85,60,065,33,71,42,184,29,3*43
$GBGSV,4,1,14,03,44,189,43,07,58,193,41,08,64,259,40,10,64,220,43,1*72
$GBGSV,4,2,14,20,49,195,47,29,49,311,36,38,73,273,43,40,56,165,43,1*78
$GBGSV,4,3,14,01,36,139,40,30,72,112,39,32,63,066,43,59,38,145,38,1*7E
$GBGSV,4,4,14,27,19,121,33,13,49,248,30,1*7E
$GBGSV,4,1,13,03,44,189,31,07,58,193,28,08,64,259,34,10,64,220,31,8*70
$GBGSV,4,2,13,20,49,195,29,29,49,311,27,38,73,273,23,40,56,165,39,8*75
$GBGSV,4,3,13,30,72,112,29,32,63,066,33,59,38,145,31,27,19,121,30,8*78
$GBGSV,4,4,13,13,49,248,29,8*47
$GBGSV,2,1,06,03,44,189,43,07,58,193,42,08,64,259,41,10,64,220,42,B*07
$GBGSV,2,2,06,01,36,139,36,13,49,248,37,B*0C
$GAGSV,2,1,05,07,36,145,36,08,39,076,35,13,53,063,40,26,56,313,33,1*72
$GAGSV,2,2,05,23,30,268,33,1*4E
$GAGSV,2,1,05,07,36,145,40,08,39,076,41,13,53,063,47,26,56,313,35,2*72
$GAGSV,2,2,05,23,30,268,38,2*46
$GAGSV,2,1,05,07,36,145,41,08,39,076,35,13,53,063,42,26,56,313,38,7*7D
$GAGSV,2,2,05,23,30,268,20,7*4A
$GNGGA,060940.00,3958.83186578,N,11628.66503935,E,4,28,0.6,35.5541,M,-8.1427,M,1.0,1824*7A
$GNRMC,060940.00,D,3958.83186578,N,11628.66503935,E,0.007,282.1,230525,7.3,W,R,S*5E
$GPGSV,2,1,07,06,47,075,43,09,30,055,40,19,26,146,38,20,68,271,41,1*67
$GPGSV,2,2,07,11,70,009,35,05,34,242,37,12,26,252,17,1*5D
$GPGSV,2,1,07,06,47,075,33,09,30,055,32,19,26,146,28,20,68,271,35,4*62
$GPGSV,2,2,07,11,70,009,36,05,34,242,34,12,26,252,26,4*5A
$GPGSV,1,1,03,06,47,075,32,09,30,055,37,11,70,009,32,8*59
$GLGSV,1,1,04,86,38,323,26,69,15,028,30,85,60,065,46,71,42,184,44,1*7A
$GLGSV,1,1,03,86,38,323,30,85,60,065,33,71,42,184,31,3*4A
$GBGSV,4,1,14,03,44,189,43,07,58,193,41,08,64,259,40,10,64,220,43,1*72
$GBGSV,4,2,14,20,49,195,47,29,49,311,37,38,73,273,43,40,56,165,44,1*7E
$GBGSV,4,3,14,01,36,139,39,30,72,112,39,32,63,066,43,59,38,145,39,1*71
$GBGSV,4,4,14,27,19,121,32,13,49,248,31,1*7E
$GBGSV,4,1,13,03,44,189,31,07,58,193,28,08,64,259,34,10,64,220,31,8*70
$GBGSV,4,2,13,20,49,195,30,29,49,311,28,38,73,273,23,40,56,165,39,8*72
$GBGSV,4,3,13,30,72,112,27,32,63,066,33,59,38,145,31,27,19,121,29,8*7E
$GBGSV,4,4,13,13,49,248,29,8*47
$GBGSV,2,1,06,03,44,189,43,07,58,193,42,08,64,259,40,10,64,220,42,B*06
$GBGSV,2,2,06,01,36,139,36,13,49,248,38,B*03
$GAGSV,2,1,05,07,36,145,36,08,39,076,36,13,53,063,40,26,56,313,33,1*71
$GAGSV,2,2,05,23,30,268,33,1*4E
$GAGSV,2,1,05,07,36,145,40,08,39,076,41,13,53,063,47,26,56,313,36,2*71
$GAGSV,2,2,05,23,30,268,37,2*49
$GAGSV,2,1,05,07,36,145,41,08,39,076,35,13,53,063,42,26,56,313,38,7*7D
$GAGSV,2,2,05,23,30,268,21,7*4B
$GNGGA,060941.00,3958.83186524,N,11628.66503911,E,4,28,0.6,35.5593,M,-8.1427,M,1.0,1824*7B
$GNRMC,060941.00,D,3958.83186524,N,11628.66503911,E,0.011,294.2,230525,7.3,W,R,S*53
$GPGSV,2,1,07,06,47,075,43,09,30,055,40,19,26,146,38,20,68,271,41,1*67
$GPGSV,2,2,07,11,70,009,35,05,34,242,37,12,26,252,18,1*52
$GPGSV,2,1,07,06,47,075,32,09,30,055,32,19,26,146,29,20,68,271,35,4*62
$GPGSV,2,2,07,11,70,009,35,05,34,242,34,12,26,252,26,4*59
$GPGSV,1,1,03,06,47,075,32,09,30,055,37,11,70,009,32,8*59
$GLGSV,1,1,04,86,38,323,26,69,15,028,31,85,60,065,46,71,42,184,44,1*7B
$GLGSV,1,1,03,86,38,323,30,85,60,065,33,71,42,184,31,3*4A
$GBGSV,4,1,14,03,44,189,43,07,58,193,41,08,64,259,39,10,64,220,43,1*7C
$GBGSV,4,2,14,20,49,195,47,29,49,311,37,38,73,273,43,40,56,165,44,1*7E
$GBGSV,4,3,14,01,36,139,39,30,72,112,39,32,63,066,44,59,38,145,39,1*76
$GBGSV,4,4,14,27,19,121,32,13,49,248,32,1*7D
$GBGSV,4,1,13,03,44,189,31,07,58,193,29,08,64,259,34,10,64,220,31,8*71
$GBGSV,4,2,13,20,49,195,30,29,49,311,28,38,73,273,23,40,56,165,39,8*72
$GBGSV,4,3,13,30,72,112,28,32,63,066,33,59,38,145,31,27,19,121,30,8*79
$GBGSV,4,4,13,13,49,248,29,8*47
$GBGSV,2,1,06,03,44,189,43,07,58,193,43,08,64,259,40,10,64,220,42,B*07
$GBGSV,2,2,06,01,36,139,36,13,49,248,38,B*03
$GAGSV,2,1,05,07,36,145,36,08,39,076,36,13,53,063,40,26,56,313,33,1*71
$GAGSV,2,2,05,23,30,268,33,1*4E
$GAGSV,2,1,05,07,36,145,40,08,39,076,41,13,53,063,47,26,56,313,36,2*71
$GAGSV,2,2,05,23,30,268,37,2*49
$GAGSV,2,1,05,07,36,145,40,08,39,076,35,13,53,063,42,26,56,313,38,7*7C
$GAGSV,2,2,05,23,30,268,23,7*49
$GNGGA,060942.00,3958.83186364,N,11628.66503969,E,4,28,0.6,35.5633,M,-8.1427,M,1.0,1824*7C
$GNRMC,060942.00,D,3958.83186364,N,11628.66503969,E,0.010,286.1,230525,7.3,W,R,S*5C
$GPGSV,2,1,07,06,47,075,42,09,30,055,39,19,26,146,38,20,68,271,41,1*68
$GPGSV,2,2,07,11,70,009,35,05,34,242,37,12,26,252,20,1*59
$GPGSV,2,1,06,06,47,075,32,09,30,055,32,20,68,271,35,11,70,009,35,4*6F
$GPGSV,2,2,06,05,34,242,34,12,26,252,26,4*60
$GPGSV,1,1,03,06,47,075,32,09,30,055,37,11,70,009,32,8*59
$GLGSV,1,1,04,86,38,323,26,69,15,028,31,85,60,065,46,71,42,184,44,1*7B
$GLGSV,1,1,03,86,38,323,30,85,60,065,33,71,42,184,31,3*4A
$GBGSV,4,1,14,03,44,189,43,07,58,193,41,08,64,259,39,10,64,220,43,1*7C
$GBGSV,4,2,14,20,49,195,47,29,49,311,37,38,73,273,43,40,56,165,44,1*7E
$GBGSV,4,3,14,01,36,139,39,30,72,112,39,32,63,066,43,59,38,145,39,1*71
$GBGSV,4,4,14,27,19,121,32,13,49,248,32,1*7D
$GBGSV,4,1,13,03,44,189,31,07,58,193,29,08,64,259,34,10,64,220,31,8*71
$GBGSV,4,2,13,20,49,195,30,29,49,311,28,38,73,273,23,40,56,165,39,8*72
$GBGSV,4,3,13,30,72,112,28,32,63,066,33,59,38,145,31,27,19,121,29,8*71
$GBGSV,4,4,13,13,49,248,29,8*47
$GBGSV,2,1,06,03,44,189,44,07,58,193,43,08,64,259,40,10,64,220,42,B*00
$GBGSV,2,2,06,01,36,139,36,13,49,248,38,B*03
$GAGSV,2,1,05,07,36,145,36,08,39,076,35,13,53,063,40,26,56,313,33,1*72
$GAGSV,2,2,05,23,30,268,33,1*4E
$GAGSV,2,1,05,07,36,145,40,08,39,076,41,13,53,063,47,26,56,313,36,2*71
$GAGSV,2,2,05,23,30,268,37,2*49
$GAGSV,2,1,05,07,36,145,40,08,39,076,35,13,53,063,42,26,56,313,38,7*7C
$GAGSV,2,2,05,23,30,268,24,7*4E
$GNGGA,060943.00,3958.83186538,N,11628.66504143,E,4,27,0.6,35.5525,M,-8.1427,M,1.0,1824*7E
$GNRMC,060943.00,D,3958.83186538,N,11628.66504143,E,0.009,295.4,230525,7.3,W,R,S*5A
$GPGSV,2,1,07,06,47,075,42,09,30,055,40,19,26,146,38,20,68,271,41,1*66
$GPGSV,2,2,07,11,70,009,35,05,34,242,37,12,26,252,20,1*59
$GPGSV,2,1,07,06,47,075,32,09,30,055,32,19,26,146,29,20,68,271,35,4*62
$GPGSV,2,2,07,11,70,009,36,05,34,242,34,12,26,252,25,4*59
$GPGSV,1,1,03,06,47,075,31,09,30,055,38,11,70,009,32,8*55
$GLGSV,1,1,04,86,38,323,26,69,15,028,32,85,60,065,46,71,42,184,44,1*78
$GLGSV,1,1,03,86,38,323,29,85,60,065,33,71,42,184,31,3*42
$GBGSV,4,1,14,03,44,189,43,07,58,193,42,08,64,259,39,10,64,220,43,1*7F
$GBGSV,4,2,14,20,49,195,47,29,49,311,37,38,73,273,43,40,56,165,44,1*7E
$GBGSV,4,3,14,01,36,139,39,30,72,112,39,32,63,066,44,59,38,145,39,1*76
$GBGSV,4,4,14,27,19,121,33,13,49,248,32,1*7C
$GBGSV,4,1,13,03,44,189,31,07,58,193,29,08,64,259,34,10,64,220,32,8*72
$GBGSV,4,2,13,20,49,195,30,29,49,311,28,38,73,273,24,40,56,165,39,8*75
$GBGSV,4,3,13,30,72,112,28,32,63,066,34,59,38,145,31,27,19,121,29,8*76
$GBGSV,4,4,13,13,49,248,30,8*4F
$GBGSV,2,1,06,03,44,189,44,07,58,193,43,08,64,259,40,10,64,220,42,B*00
$GBGSV,2,2,06,01,36,139,36,13,49,248,38,B*03
$GAGSV,2,1,05,07,36,145,36,08,39,076,35,13,53,063,40,26,56,313,33,1*72
$GAGSV,2,2,05,23,30,268,33,1*4E
$GAGSV,2,1,05,07,36,145,40,08,39,076,41,13,53,063,47,26,56,313,36,2*71
$GAGSV,2,2,05,23,30,268,37,2*49
$GAGSV,2,1,05,07,36,145,40,08,39,076,34,13,53,063,42,26,56,313,38,7*7D
$GAGSV,2,2,05,23,30,268,24,7*4E
$GNGGA,060944.00,3958.83186508,N,11628.66503682,E,4,27,0.6,35.5496,M,-8.1427,M,1.0,1824*7E
$GNRMC,060944.00,D,3958.83186508,N,11628.66503682,E,0.009,286.9,230525,7.3,W,R,S*5C
$GPGSV,2,1,07,06,47,075,42,09,30,055,40,19,26,146,39,20,68,271,41,1*67
$GPGSV,2,2,07,11,70,009,35,05,34,242,37,12,26,252,21,1*58
$GPGSV,2,1,07,06,47,075,32,09,30,055,32,19,26,146,28,20,68,271,35,4*63
$GPGSV,2,2,07,11,70,009,35,05,34,242,34,12,26,252,25,4*5A
$GPGSV,1,1,03,06,47,075,31,09,30,055,37,11,70,009,32,8*5A
$GLGSV,1,1,04,86,38,323,26,69,15,028,32,85,60,065,46,71,42,184,44,1*78
$GLGSV,1,1,03,86,38,323,29,85,60,065,33,71,42,184,31,3*42
$GBGSV,4,1,14,03,44,189,43,07,58,193,42,08,64,259,39,10,64,220,43,1*7F
$GBGSV,4,2,14,20,49,195,47,29,49,311,37,38,73,273,43,40,56,165,44,1*7E
$GBGSV,4,3,14,01,36,139,39,30,71,112,39,32,63,066,44,59,38,145,39,1*75
$GBGSV,4,4,14,27,19,121,33,13,49,248,31,1*7F
$GBGSV,4,1,13,03,44,189,31,07,58,193,29,08,64,259,34,10,64,220,32,8*72
$GBGSV,4,2,13,20,49,195,30,29,49,311,28,38,73,273,23,40,56,165,39,8*72
$GBGSV,4,3,13,30,71,112,27,32,63,066,34,59,38,145,32,27,19,121,29,8*79
$GBGSV,4,4,13,13,49,248,29,8*47
$GBGSV,2,1,06,03,44,189,44,07,58,193,43,08,64,259,40,10,64,220,42,B*00
$GBGSV,2,2,06,01,36,139,37,13,49,248,38,B*02
$GAGSV,2,1,05,07,36,145,36,08,39,076,35,13,53,063,40,26,56,313,33,1*72
$GAGSV,2,2,05,23,30,268,33,1*4E
$GAGSV,2,1,05,07,36,145,40,08,39,076,41,13,53,063,47,26,56,313,36,2*71
$GAGSV,2,2,05,23,30,268,37,2*49
$GAGSV,2,1,05,07,36,145,41,08,39,076,34,13,53,063,42,26,56,313,38,7*7C
$GAGSV,2,2,05,23,30,268,24,7*4E
$GNGGA,060945.00,3958.83186447,N,11628.66503831,E,4,27,0.6,35.5469,M,-8.1427,M,1.0,1824*73
$GNRMC,060945.00,D,3958.83186447,N,11628.66503831,E,0.007,294.8,230525,7.3,W,R,S*5D
$GPGSV,2,1,07,06,47,075,42,09,30,055,40,19,26,146,39,20,68,271,41,1*67
$GPGSV,2,2,07,11,70,009,35,05,34,242,37,12,26,252,21,1*58
$GPGSV,2,1,07,06,47,075,31,09,30,055,32,19,26,146,29,20,68,271,35,4*61
$GPGSV,2,2,07,11,70,009,35,05,34,242,34,12,26,252,25,4*5A
$GPGSV,1,1,03,06,47,075,32,09,30,055,37,11,70,009,32,8*59
$GLGSV,1,1,04,86,38,323,26,69,15,028,32,85,60,065,46,71,42,184,44,1*78
$GLGSV,1,1,03,86,38,323,29,85,60,065,33,71,42,184,32,3*41
$GBGSV,4,1,14,03,44,189,43,07,58,193,42,08,64,259,40,10,64,220,43,1*71
$GBGSV,4,2,14,20,49,195,47,29,49,311,37,38,73,273,44,40,56,165,44,1*79
$GBGSV,4,3,14,01,36,139,39,30,71,112,39,32,63,066,44,59,38,145,39,1*75
$GBGSV,4,4,14,27,19,121,32,13,49,248,31,1*7E
$GBGSV,4,1,14,03,44,189,31,07,58,193,29,08,64,259,34,10,64,220,32,8*75
$GBGSV,4,2,14,20,49,195,30,29,49,311,28,38,73,273,23,40,56,165,39,8*75
$GBGSV,4,3,14,01,36,139,30,30,71,112,28,32,63,066,34,59,38,145,32,8*79
$GBGSV,4,4,14,27,19,121,29,13,49,248,30,8*7C
$GBGSV,2,1,06,03,44,189,44,07,58,193,43,08,64,259,40,10,64,220,42,B*00
$GBGSV,2,2,06,01,36,139,37,13,49,248,38,B*02
$GAGSV,2,1,05,07,36,145,36,08,39,076,35,13,53,063,40,26,56,313,33,1*72
$GAGSV,2,2,05,23,30,268,32,1*4F
$GAGSV,2,1,05,07,36,145,40,08,39,076,41,13,53,063,47,26,56,313,35,2*72
$GAGSV,2,2,05,23,30,268,37,2*49
$GAGSV,2,1,05,07,36,145,41,08,39,076,34,13,53,063,42,26,56,313,38,7*7C
$GAGSV,2,2,05,23,30,268,24,7*4E
$GNGGA,060946.00,3958.83186833,N,11628.66504261,E,4,27,0.6,35.5421,M,-8.1427,M,1.0,1824*7B
$GNRMC,060946.00,D,3958.83186833,N,11628.66504261,E,0.008,291.0,230525,7.3,W,R,S*5B
$GPGSV,2,1,07,06,47,075,42,09,30,055,40,19,26,146,38,20,68,271,41,1*66
$GPGSV,2,2,07,11,70,009,35,05,34,242,37,12,26,252,22,1*5B
$GPGSV,2,1,06,06,47,075,31,09,30,055,32,20,68,271,36,11,70,009,35,4*6F
$GPGSV,2,2,06,05,34,242,34,12,26,252,25,4*63
$GPGSV,1,1,03,06,47,075,32,09,30,055,38,11,70,009,32,8*56
$GLGSV,1,1,04,86,38,323,27,69,15,028,31,85,60,066,46,71,42,184,45,1*78
$GLGSV,1,1,03,86,38,323,29,85,60,066,33,71,42,184,32,3*42
$GBGSV,4,1,14,03,44,189,43,07,58,193,42,08,64,259,40,10,64,220,43,1*71
$GBGSV,4,2,14,20,49,195,47,29,49,311,36,38,73,273,44,40,56,165,44,1*78
$GBGSV,4,3,14,01,36,139,39,30,71,112,39,32,63,066,44,59,38,145,39,1*75
$GBGSV,4,4,14,27,19,121,32,13,49,248,31,1*7E
$GBGSV,4,1,14,03,44,189,31,07,58,193,29,08,64,259,34,10,64,220,32,8*75
$GBGSV,4,2,14,20,49,195,30,29,49,311,29,38,73,273,24,40,56,165,39,8*73
$GBGSV,4,3,14,01,36,139,30,30,71,112,28,32,63,066,34,59,38,145,31,8*7A
$GBGSV,4,4,14,27,19,121,29,13,49,248,29,8*74
$GBGSV,2,1,06,03,44,189,44,07,58,193,43,08,64,259,40,10,64,220,42,B*00
$GBGSV,2,2,06,01,36,139,36,13,49,248,38,B*03
$GAGSV,2,1,05,07,36,145,36,08,39,076,35,13,53,063,40,26,56,313,33,1*72
$GAGSV,2,2,05,23,30,268,33,1*4E
$GAGSV,2,1,05,07,36,145,40,08,39,076,41,13,53,063,47,26,56,313,35,2*72
$GAGSV,2,2,05,23,30,268,37,2*49
$GAGSV,2,1,05,07,36,145,41,08,39,076,34,13,53,063,41,26,56,313,38,7*7F
$GAGSV,2,2,05,23,30,268,25,7*4F
$GNGGA,060947.00,3958.83186725,N,11628.66504117,E,4,27,0.6,35.5496,M,-8.1427,M,1.0,1824*7C
$GNRMC,060947.00,D,3958.83186725,N,11628.66504117,E,0.007,295.7,230525,7.3,W,R,S*5C
$GPGSV,2,1,07,06,47,075,42,09,30,055,39,19,26,146,37,20,68,271,41,1*67
$GPGSV,2,2,07,11,70,009,36,05,34,242,37,12,26,252,23,1*59
$GPGSV,2,1,06,06,47,075,31,09,30,055,33,20,68,271,35,11,70,009,34,4*6C
$GPGSV,2,2,06,05,34,242,34,12,26,252,26,4*60
$GPGSV,1,1,03,06,47,075,32,09,30,055,37,11,70,009,31,8*5A
$GLGSV,1,1,04,86,38,323,31,69,15,028,31,85,60,066,46,71,42,184,45,1*7F
$GLGSV,1,1,03,86,38,323,29,85,60,066,33,71,42,184,31,3*41
$GBGSV,4,1,14,03,44,189,44,07,58,193,42,08,64,259,40,10,64,220,44,1*71
$GBGSV,4,2,14,20,49,195,47,29,49,311,37,38,73,273,44,40,56,165,44,1*79
$GBGSV,4,3,14,01,36,139,39,30,71,112,39,32,63,066,44,59,38,145,40,1*7B
$GBGSV,4,4,14,27,19,121,32,13,49,248,30,1*7F
$GBGSV,4,1,14,03,44,189,31,07,58,193,29,08,64,259,34,10,64,220,32,8*75
$GBGSV,4,2,14,20,49,195,30,29,49,311,28,38,73,273,25,40,56,165,39,8*73
$GBGSV,4,3,14,01,36,139,30,30,71,112,29,32,63,066,34,59,38,145,31,8*7B
$GBGSV,4,4,14,27,19,121,29,13,49,248,29,8*74
$GBGSV,2,1,06,03,44,189,44,07,58,193,43,08,64,259,41,10,64,220,42,B*01
$GBGSV,2,2,06,01,36,139,36,13,49,248,38,B*03
$GAGSV,2,1,05,07,36,145,36,08,39,076,36,13,53,063,40,26,56,313,33,1*71
$GAGSV,2,2,05,23,30,268,33,1*4E
$GAGSV,2,1,05,07,36,145,39,08,39,076,41,13,53,063,47,26,56,313,36,2*7F
$GAGSV,2,2,05,23,30,268,37,2*49
$GAGSV,2,1,05,07,36,145,41,08,39,076,35,13,53,063,41,26,56,313,38,7*7E
$GAGSV,2,2,05,23,30,268,25,7*4F
$GNGGA,060948.00,3958.83186947,N,11628.66503919,E,4,27,0.6,35.5464,M,-8.1427,M,1.0,1824*75
$GNRMC,060948.00,D,3958.83186947,N,11628.66503919,E,0.004,279.5,230525,7.3,W,R,S*5B
$GPGSV,2,1,07,06,47,075,42,09,30,055,39,19,26,146,37,20,68,271,41,1*67
$GPGSV,2,2,07,11,70,009,36,05,34,242,38,12,26,252,24,1*51
$GPGSV,2,1,07,06,47,075,31,09,30,055,33,19,26,146,28,20,68,271,36,4*62
$GPGSV,2,2,07,11,70,009,34,05,34,242,34,12,26,252,25,4*5B
$GPGSV,1,1,03,06,47,075,33,09,30,055,37,11,70,009,31,8*5B
$GLGSV,1,1,04,86,38,323,32,69,15,028,31,85,60,066,46,71,42,184,45,1*7C
$GLGSV,1,1,03,86,38,323,29,85,60,066,33,71,42,184,31,3*41
$GBGSV,4,1,14,03,44,189,44,07,58,193,42,08,64,259,40,10,64,220,44,1*71
$GBGSV,4,2,14,20,49,195,47,29,49,311,37,38,73,273,44,40,56,165,44,1*79
$GBGSV,4,3,14,01,36,139,39,30,71,112,39,32,63,066,43,59,38,145,39,1*72
$GBGSV,4,4,14,27,19,121,32,13,49,248,30,1*7F
$GBGSV,4,1,14,03,44,189,30,07,58,193,29,08,64,259,34,10,64,220,31,8*77
$GBGSV,4,2,14,20,49,195,29,29,49,311,28,38,73,273,25,40,56,165,39,8*7B
$GBGSV,4,3,14,01,36,139,30,30,71,112,29,32,63,066,34,59,38,145,31,8*7B
$GBGSV,4,4,14,27,19,121,28,13,49,248,29,8*75
$GBGSV,2,1,06,03,44,189,44,07,58,193,43,08,64,259,41,10,64,220,42,B*01
$GBGSV,2,2,06,01,36,139,36,13,49,248,38,B*03
$GAGSV,2,1,05,07,36,145,36,08,39,076,36,13,53,063,40,26,56,313,33,1*71
$GAGSV,2,2,05,23,30,268,33,1*4E
$GAGSV,2,1,05,07,36,145,39,08,39,076,41,13,53,063,47,26,56,313,36,2*7F
$GAGSV,2,2,05,23,30,268,37,2*49
$GAGSV,2,1,05,07,36,145,41,08,39,076,34,13,53,063,41,26,56,313,38,7*7F
$GAGSV,2,2,05,23,30,268,25,7*4F
$GNGGA,060949.00,3958.83186574,N,11628.66504003,E,4,27,0.6,35.5565,M,-8.1427,M,1.0,1824*7D
$GNRMC,060949.00,D,3958.83186574,N,11628.66504003,E,0.004,252.6,230525,7.3,W,R,S*59
$GPGSV,2,1,07,06,47,075,42,09,30,055,39,19,26,146,36,20,68,271,42,1*65
$GPGSV,2,2,07,11,70,009,36,05,34,242,38,12,26,252,25,1*50
$GPGSV,2,1,07,06,47,075,31,09,30,055,33,19,26,146,28,20,68,271,36,4*62
$GPGSV,2,2,07,11,70,009,33,05,34,242,34,12,26,252,25,4*5C
$GPGSV,1,1,03,06,47,075,33,09,30,055,38,11,70,009,31,8*54
$GLGSV,1,1,04,86,38,323,31,69,15,028,32,85,60,066,47,71,42,184,44,1*7C
$GLGSV,1,1,03,86,38,323,29,85,60,066,34,71,42,184,31,3*46
$GBGSV,4,1,14,03,44,189,44,07,58,193,42,08,64,259,40,10,64,220,43,1*76
$GBGSV,4,2,14,20,49,195,47,29,49,311,37,38,73,273,44,40,56,165,44,1*79
$GBGSV,4,3,14,01,36,139,39,30,71,112,39,32,63,066,43,59,38,145,39,1*72
$GBGSV,4,4,14,27,19,121,32,13,49,248,30,1*7F
$GBGSV,4,1,14,03,44,189,30,07,58,193,29,08,64,259,34,10,64,220,31,8*77
$GBGSV,4,2,14,20,49,195,29,29,49,311,27,38,73,273,24,40,56,165,39,8*75
$GBGSV,4,3,14,01,36,139,30,30,71,112,30,32,63,066,34,59,38,145,31,8*73
$GBGSV,4,4,14,27,19,121,28,13,49,248,29,8*75
$GBGSV,2,1,06,03,44,189,44,07,58,193,44,08,64,259,41,10,64,220,42,B*06
$GBGSV,2,2,06,01,36,139,36,13,49,248,39,B*02
$GAGSV,2,1,05,07,36,145,36,08,39,076,36,13,53,063,40,26,56,313,32,1*70
$GAGSV,2,2,05,23,30,268,33,1*4E
$GAGSV,2,1,05,07,36,145,40,08,39,076,42,13,53,063,47,26,56,313,36,2*72
$GAGSV,2,2,05,23,30,268,37,2*49
$GAGSV,2,1,05,07,36,145,41,08,39,076,35,13,53,063,42,26,56,313,38,7*7D
$GAGSV,2,2,05,23,30,268,25,7*4F
$GNGGA,060950.00,3958.83186431,N,11628.66503842,E,4,28,0.6,35.5616,M,-8.1427,M,1.0,1824*77
$GNRMC,060950.00,D,3958.83186431,N,11628.66503842,E,0.004,247.0,230525,7.3,W,R,S*59
$GPGSV,2,1,07,06,47,075,42,09,30,055,39,19,26,146,36,20,68,271,42,1*65
$GPGSV,2,2,07,11,70,009,37,05,34,242,38,12,26,252,25,1*51
$GPGSV,2,1,06,06,47,075,31,09,30,055,33,20,68,271,36,11,70,009,33,4*68
$GPGSV,2,2,06,05,34,242,35,12,26,252,25,4*62
$GPGSV,1,1,03,06,47,075,33,09,30,055,37,11,70,009,31,8*5B
$GLGSV,1,1,04,86,38,323,31,69,15,028,31,85,60,066,46,71,42,184,44,1*7E
$GLGSV,1,1,03,86,38,323,29,85,60,066,34,71,42,184,32,3*45
$GBGSV,4,1,14,03,44,189,44,07,58,193,42,08,64,259,40,10,64,220,43,1*76
$GBGSV,4,2,14,20,49,195,47,29,49,311,37,38,73,273,43,40,56,165,43,1*79
$GBGSV,4,3,14,01,36,139,39,30,71,112,38,32,63,066,43,59,38,145,39,1*73
$GBGSV,4,4,14,27,19,121,32,13,49,248,30,1*7F
$GBGSV,4,1,14,03,44,189,31,07,58,193,29,08,64,259,34,10,64,220,31,8*76
$GBGSV,4,2,14,20,49,195,29,29,49,311,28,38,73,273,24,40,56,165,39,8*7A
$GBGSV,4,3,14,01,36,139,28,30,71,112,29,32,63,066,34,59,38,145,31,8*72
$GBGSV,4,4,14,27,19,121,28,13,49,248,30,8*7D
$GBGSV,2,1,06,03,44,189,44,07,58,193,44,08,64,259,41,10,64,220,43,B*07
$GBGSV,2,2,06,01,36,139,36,13,49,248,39,B*02
$GAGSV,2,1,05,07,36,145,36,08,39,076,36,13,53,063,40,26,56,313,32,1*70
$GAGSV,2,2,05,23,30,268,33,1*4E
$GAGSV,2,1,05,07,36,145,39,08,39,076,42,13,53,063,47,26,56,313,36,2*7C
$GAGSV,2,2,05,23,30,268,37,2*49
$GAGSV,2,1,05,07,36,145,41,08,39,076,35,13,53,063,41,26,56,313,38,7*7E
$GAGSV,2,2,05,23,30,268,26,7*4C
$GNGGA,060951.00,3958.83186745,N,11628.66503643,E,4,28,0.6,35.5543,M,-8.1427,M,1.0,1824*7A
$GNRMC,060951.00,D,3958.83186745,N,11628.66503643,E,0.004,263.2,230525,7.3,W,R,S*53
$GPGSV,2,1,07,06,47,075,42,09,30,055,39,19,26,146,36,20,68,271,42,1*65
$GPGSV,2,2,07,11,70,009,37,05,34,242,39,12,26,252,26,1*53
$GPGSV,2,1,06,06,47,075,31,09,30,055,33,20,68,271,36,11,70,009,33,4*68
$GPGSV,2,2,06,05,34,242,34,12,26,252,25,4*63
$GPGSV,1,1,03,06,47,075,33,09,30,055,38,11,70,009,31,8*54
$GLGSV,1,1,04,86,38,323,30,69,15,028,31,85,60,066,47,71,42,184,44,1*7E
$GLGSV,1,1,04,86,38,323,29,69,15,028,22,85,60,066,34,71,42,184,32,3*73
$GBGSV,4,1,14,03,44,189,44,07,58,193,42,08,64,259,40,10,64,220,43,1*76
$GBGSV,4,2,14,20,49,195,47,29,49,311,36,38,73,273,43,40,56,166,43,1*7B
$GBGSV,4,3,14,01,36,139,39,30,71,112,38,32,63,066,43,59,38,145,39,1*73
$GBGSV,4,4,14,27,19,121,33,13,49,248,30,1*7E
$GBGSV,4,1,14,03,44,189,31,07,58,193,29,08,64,259,35,10,64,220,31,8*77
$GBGSV,4,2,14,20,49,195,29,29,49,311,29,38,73,273,23,40,56,166,39,8*7F
$GBGSV,4,3,14,01,36,139,30,30,71,112,30,32,63,066,34,59,38,145,31,8*73
$GBGSV,4,4,14,27,19,121,28,13,49,248,30,8*7D
$GBGSV,2,1,06,03,44,189,44,07,58,193,44,08,64,259,41,10,64,220,42,B*06
$GBGSV,2,2,06,01,36,139,36,13,49,248,39,B*02
$GAGSV,2,1,05,07,36,145,36,08,39,076,36,13,53,063,40,26,56,313,32,1*70
$GAGSV,2,2,05,23,30,268,33,1*4E
$GAGSV,2,1,05,07,36,145,40,08,39,076,42,13,53,063,47,26,56,313,36,2*72
$GAGSV,2,2,05,23,30,268,37,2*49
$GAGSV,2,1,05,07,36,145,41,08,39,076,35,13,53,063,41,26,56,313,38,7*7E
$GAGSV,2,2,05,23,30,268,27,7*4D
$GNGGA,060952.00,3958.83186615,N,11628.66504304,E,4,28,0.6,35.5579,M,-8.1427,M,1.0,1824*75
$GNRMC,060952.00,D,3958.83186615,N,11628.66504304,E,0.005,231.9,230525,7.3,W,R,S*58
$GPGSV,2,1,07,06,47,075,42,09,30,055,39,19,26,146,36,20,68,271,43,1*64
$GPGSV,2,2,07,11,70,009,37,05,34,242,38,12,26,252,27,1*53
$GPGSV,2,1,06,06,47,075,31,09,30,055,33,20,68,271,37,11,70,009,33,4*69
$GPGSV,2,2,06,05,34,242,35,12,26,252,25,4*62
$GPGSV,1,1,03,06,47,075,33,09,30,055,38,11,70,009,31,8*54
$GLGSV,1,1,04,86,38,323,31,69,15,028,31,85,60,066,47,71,42,184,44,1*7F
$GLGSV,1,1,04,86,38,323,29,69,15,028,20,85,60,066,34,71,42,184,32,3*71
$GBGSV,4,1,14,03,44,189,44,07,58,193,42,08,64,259,40,10,64,220,43,1*76
$GBGSV,4,2,14,20,49,195,47,29,49,311,37,38,73,273,44,40,56,166,43,1*7D
$GBGSV,4,3,14,01,36,139,39,30,71,112,39,32,63,066,43,59,38,145,39,1*72
$GBGSV,4,4,14,27,19,121,33,13,49,248,30,1*7E
$GBGSV,4,1,14,03,44,189,31,07,58,193,29,08,64,259,35,10,64,220,31,8*77
$GBGSV,4,2,14,20,49,195,29,29,49,311,29,38,73,273,23,40,56,166,39,8*7F
$GBGSV,4,3,14,01,36,139,30,30,71,112,30,32,63,066,34,59,38,145,31,8*73
$GBGSV,4,4,14,27,19,121,28,13,49,248,30,8*7D
$GBGSV,2,1,06,03,44,189,44,07,58,193,44,08,64,259,41,10,64,220,42,B*06
$GBGSV,2,2,06,01,36,139,36,13,49,248,39,B*02
$GAGSV,2,1,05,07,36,145,36,08,39,076,36,13,53,063,40,26,56,313,32,1*70
$GAGSV,2,2,05,23,30,268,33,1*4E
$GAGSV,2,1,05,07,36,145,39,08,39,076,42,13,53,063,47,26,56,313,36,2*7C
$GAGSV,2,2,05,23,30,268,37,2*49
$GAGSV,2,1,05,07,36,145,41,08,39,076,35,13,53,063,41,26,56,313,38,7*7E
$GAGSV,2,2,05,23,30,268,27,7*4D
$GNGGA,060953.00,3958.83186497,N,11628.66504077,E,4,28,0.6,35.5568,M,-8.1427,M,1.0,1824*7B
$GNRMC,060953.00,D,3958.83186497,N,11628.66504077,E,0.003,235.2,230525,7.3,W,R,S*5F
$GPGSV,2,1,07,06,47,075,42,09,30,054,40,19,26,146,36,20,68,271,43,1*6B
$GPGSV,2,2,07,11,70,009,37,05,34,242,38,12,26,252,30,1*55
$GPGSV,2,1,06,06,47,075,31,09,30,054,33,20,68,271,37,11,70,009,33,4*68
$GPGSV,2,2,06,05,34,242,35,12,26,252,25,4*62
$GPGSV,1,1,03,06,47,075,33,09,30,054,38,11,70,009,31,8*55
$GLGSV,1,1,04,86,39,323,31,69,14,028,31,85,60,066,47,71,42,184,45,1*7E
$GLGSV,1,1,03,86,39,323,29,85,60,066,34,71,42,184,32,3*44
$GBGSV,4,1,14,03,44,189,44,07,58,193,42,08,64,259,40,10,64,220,43,1*76
$GBGSV,4,2,14,20,49,195,47,29,49,311,37,38,73,273,44,40,56,166,43,1*7D
$GBGSV,4,3,14,01,36,139,39,30,71,112,39,32,63,066,43,59,38,145,39,1*72
$GBGSV,4,4,14,27,19,121,33,13,49,248,30,1*7E
$GBGSV,4,1,14,03,44,189,31,07,58,193,30,08,64,259,35,10,64,220,31,8*7F
$GBGSV,4,2,14,20,49,195,29,29,49,311,28,38,73,273,24,40,56,166,39,8*79
$GBGSV,4,3,14,01,36,139,30,30,71,112,29,32,63,066,34,59,38,145,31,8*7B
$GBGSV,4,4,14,27,19,121,28,13,49,248,30,8*7D
$GBGSV,2,1,06,03,44,189,44,07,58,193,44,08,64,259,41,10,64,220,42,B*06
$GBGSV,2,2,06,01,36,139,36,13,49,248,39,B*02
$GAGSV,2,1,05,07,36,145,36,08,39,076,36,13,53,063,40,26,56,313,32,1*70
$GAGSV,2,2,05,23,30,268,33,1*4E
$GAGSV,2,1,05,07,36,145,39,08,39,076,42,13,53,063,47,26,56,313,36,2*7C
$GAGSV,2,2,05,23,30,268,37,2*49
$GAGSV,2,1,05,07,36,145,41,08,39,076,35,13,53,063,42,26,56,313,38,7*7D
$GAGSV,2,2,05,23,30,268,28,7*42
$GNGGA,060954.00,3958.83186431,N,11628.66503672,E,4,28,0.6,35.5645,M,-8.1427,M,1.0,1824*78
$GNRMC,060954.00,D,3958.83186431,N,11628.66503672,E,0.003,245.7,230525,7.3,W,R,S*52
$GPGSV,2,1,07,06,47,075,41,09,30,054,40,19,26,146,36,20,68,271,43,1*68
$GPGSV,2,2,07,11,70,009,36,05,34,242,38,12,26,252,30,1*54
$GPGSV,2,1,06,06,47,075,31,09,30,054,33,20,68,271,36,11,70,009,33,4*69
$GPGSV,2,2,06,05,34,242,35,12,26,252,23,4*64
$GPGSV,1,1,03,06,47,075,33,09,30,054,38,11,70,009,31,8*55
$GLGSV,1,1,04,86,39,323,31,69,14,028,31,85,60,066,47,71,42,184,45,1*7E
$GLGSV,1,1,03,86,39,323,29,85,60,066,34,71,42,184,31,3*47
$GBGSV,4,1,14,03,44,189,44,07,58,193,42,08,64,259,40,10,64,220,43,1*76
$GBGSV,4,2,14,20,49,195,47,29,49,311,37,38,73,273,43,40,56,166,43,1*7A
$GBGSV,4,3,14,01,36,139,39,30,71,112,39,32,63,066,43,59,38,145,39,1*72
$GBGSV,4,4,14,27,19,121,33,13,49,248,30,1*7E
$GBGSV,4,1,14,03,44,189,30,07,58,193,29,08,64,259,35,10,64,220,31,8*76
$GBGSV,4,2,14,20,49,195,28,29,49,311,28,38,73,273,24,40,56,166,39,8*78
$GBGSV,4,3,14,01,36,139,30,30,71,112,30,32,63,066,34,59,38,145,31,8*73
$GBGSV,4,4,14,27,19,121,28,13,49,248,30,8*7D
$GBGSV,2,1,06,03,44,189,44,07,58,193,44,08,64,259,41,10,64,220,43,B*07
$GBGSV,2,2,06,01,36,139,36,13,49,248,39,B*02
$GAGSV,2,1,05,07,36,145,36,08,39,076,35,13,53,063,40,26,56,313,32,1*73
$GAGSV,2,2,05,23,30,268,33,1*4E
$GAGSV,2,1,05,07,36,145,39,08,39,076,42,13,53,063,47,26,56,313,36,2*7C
$GAGSV,2,2,05,23,30,268,37,2*49
$GAGSV,2,1,05,07,36,145,41,08,39,076,35,13,53,063,42,26,56,313,39,7*7C
$GAGSV,2,2,05,23,30,268,30,7*4B
$GNGGA,060955.00,3958.83186630,N,11628.66503847,E,4,29,0.6,35.5519,M,-8.1427,M,1.0,1824*79
$GNRMC,060955.00,D,3958.83186630,N,11628.66503847,E,0.003,230.0,230525,7.3,W,R,S*5D
$GPGSV,2,1,07,06,47,075,41,09,30,054,40,19,26,146,35,20,68,271,43,1*6B
$GPGSV,2,2,07,11,70,009,36,05,34,242,38,12,26,252,31,1*55
$GPGSV,2,1,07,06,47,075,31,09,30,054,34,19,26,146,28,20,68,271,36,4*64
$GPGSV,2,2,07,11,70,009,33,05,34,242,35,12,26,252,21,4*59
$GPGSV,1,1,03,06,47,075,33,09,30,054,38,11,70,009,31,8*55
$GLGSV,1,1,04,86,39,323,31,69,14,028,31,85,60,066,47,71,42,184,45,1*7E
$GLGSV,1,1,03,86,39,323,29,85,60,066,34,71,42,184,32,3*44
$GBGSV,4,1,14,03,44,189,44,07,58,193,42,08,64,259,40,10,64,220,43,1*76
$GBGSV,4,2,14,20,49,195,47,29,49,311,37,38,73,273,44,40,56,166,43,1*7D
$GBGSV,4,3,14,01,36,139,39,30,71,112,39,32,63,066,43,59,38,145,39,1*72
$GBGSV,4,4,14,27,19,121,34,13,49,248,30,1*79
$GBGSV,4,1,14,03,44,189,30,07,58,193,30,08,64,259,34,10,64,220,32,8*7C
$GBGSV,4,2,14,20,49,195,28,29,49,311,28,38,73,273,24,40,56,166,39,8*78
$GBGSV,4,3,14,01,36,139,30,30,71,112,30,32,63,066,34,59,38,145,31,8*73
$GBGSV,4,4,14,27,19,121,28,13,49,248,30,8*7D
$GBGSV,2,1,06,03,44,189,44,07,58,193,44,08,64,259,41,10,64,220,43,B*07
$GBGSV,2,2,06,01,36,139,36,13,49,248,39,B*02
$GAGSV,2,1,05,07,36,145,36,08,39,076,35,13,53,063,40,26,56,313,32,1*73
$GAGSV,2,2,05,23,30,268,33,1*4E
$GAGSV,2,1,05,07,36,145,39,08,39,076,42,13,53,063,47,26,56,313,36,2*7C
$GAGSV,2,2,05,23,30,268,37,2*49
$GAGSV,2,1,05,07,36,145,41,08,39,076,35,13,53,063,42,26,56,313,39,7*7C
$GAGSV,2,2,05,23,30,268,30,7*4B
$GNGGA,060956.00,3958.83186362,N,11628.66503753,E,4,29,0.6,35.5596,M,-8.1427,M,1.0,1824*75
$GNRMC,060956.00,D,3958.83186362,N,11628.66503753,E,0.004,271.7,230525,7.3,W,R,S*53
$GPGSV,2,1,07,06,47,075,41,09,30,054,40,19,26,146,35,20,68,271,43,1*6B
$GPGSV,2,2,07,11,70,009,36,05,34,242,38,12,26,252,31,1*55
$GPGSV,2,1,06,06,47,075,30,09,30,054,34,20,68,271,37,11,70,009,33,4*6E
$GPGSV,2,2,06,05,34,242,35,12,26,252,22,4*65
$GPGSV,1,1,03,06,47,075,33,09,30,054,38,11,70,009,31,8*55
$GLGSV,1,1,04,86,39,323,31,69,14,028,30,85,60,066,47,71,42,184,45,1*7F
$GLGSV,1,1,03,86,39,323,29,85,60,066,34,71,42,184,31,3*47
$GBGSV,4,1,14,03,44,189,44,07,58,193,42,08,64,259,40,10,64,220,43,1*76
$GBGSV,4,2,14,20,49,195,47,29,49,311,37,38,73,273,44,40,56,166,43,1*7D
$GBGSV,4,3,14,01,36,139,39,30,71,112,39,32,63,066,44,59,38,145,39,1*75
$GBGSV,4,4,14,27,19,121,34,13,49,248,31,1*78
$GBGSV,4,1,14,03,44,189,30,07,58,193,30,08,64,259,34,10,64,220,31,8*7F
$GBGSV,4,2,14,20,49,195,28,29,49,311,29,38,73,273,25,40,56,166,39,8*78
$GBGSV,4,3,14,01,36,139,29,30,71,112,30,32,63,066,34,59,38,145,31,8*7B
$GBGSV,4,4,14,27,19,121,28,13,49,248,30,8*7D
$GBGSV,2,1,06,03,44,189,44,07,58,193,44,08,64,259,41,10,64,220,43,B*07
$GBGSV,2,2,06,01,36,139,36,13,49,248,39,B*02
$GAGSV,2,1,05,07,36,145,37,08,39,076,35,13,53,063,40,26,56,313,32,1*72
$GAGSV,2,2,05,23,30,268,33,1*4E
$GAGSV,2,1,05,07,36,145,39,08,39,076,42,13,53,063,47,26,56,313,36,2*7C
$GAGSV,2,2,05,23,30,268,37,2*49
$GAGSV,2,1,05,07,36,145,41,08,39,076,35,13,53,063,41,26,56,313,39,7*7F
$GAGSV,2,2,05,23,30,268,30,7*4B
$GNGGA,060957.00,3958.83186596,N,11628.66503932,E,4,28,0.6,35.5511,M,-8.1427,M,1.0,1824*7E
$GNRMC,060957.00,D,3958.83186596,N,11628.66503932,E,0.004,242.2,230525,7.3,W,R,S*53
$GPGSV,2,1,07,06,47,075,41,09,30,054,40,19,26,146,36,20,68,271,43,1*68
$GPGSV,2,2,07,11,70,009,36,05,34,242,38,12,26,252,31,1*55
$GPGSV,2,1,06,06,47,075,30,09,30,054,34,20,68,271,36,11,70,009,33,4*6F
$GPGSV,2,2,06,05,34,242,35,12,26,252,21,4*66
$GPGSV,1,1,03,06,47,075,33,09,30,054,38,11,70,009,31,8*55
$GLGSV,1,1,04,86,39,323,31,69,14,028,29,85,60,066,47,71,42,184,45,1*77
$GLGSV,1,1,03,86,39,323,29,85,60,066,34,71,42,184,31,3*47
$GBGSV,4,1,14,03,44,189,44,07,58,193,42,08,64,259,40,10,64,220,43,1*76
$GBGSV,4,2,14,20,49,195,47,29,49,311,37,38,73,273,44,40,56,166,44,1*7A
$GBGSV,4,3,14,01,36,139,39,30,71,112,39,32,63,066,44,59,38,145,38,1*74
$GBGSV,4,4,14,27,19,121,34,13,49,248,31,1*78
$GBGSV,4,1,14,03,44,189,30,07,58,193,30,08,64,259,34,10,64,220,31,8*7F
$GBGSV,4,2,14,20,49,195,28,29,49,311,28,38,73,273,25,40,56,166,39,8*79
$GBGSV,4,3,14,01,36,139,30,30,71,112,30,32,63,066,34,59,38,145,31,8*73
$GBGSV,4,4,14,27,19,121,28,13,49,248,30,8*7D
$GBGSV,2,1,06,03,44,189,44,07,58,193,44,08,64,259,41,10,64,220,43,B*07
$GBGSV,2,2,06,01,36,139,36,13,49,248,39,B*02
$GAGSV,2,1,05,07,36,145,37,08,39,076,36,13,53,063,40,26,56,313,32,1*71
$GAGSV,2,2,05,23,30,268,33,1*4E
$GAGSV,2,1,05,07,36,145,39,08,39,076,42,13,53,063,47,26,56,313,36,2*7C
$GAGSV,2,2,05,23,30,268,37,2*49
$GAGSV,2,1,05,07,36,145,41,08,39,076,35,13,53,063,42,26,56,313,39,7*7C
$GAGSV,2,2,05,23,30,268,30,7*4B
$GNGGA,060958.00,3958.83186622,N,11628.66503678,E,4,28,0.6,35.5470,M,-8.1427,M,1.0,1824*7A
$GNRMC,060958.00,D,3958.83186622,N,11628.66503678,E,0.006,284.9,230525,7.3,W,R,S*52
$GPGSV,2,1,07,06,47,075,41,09,30,054,40,19,26,146,35,20,68,271,43,1*6B
$GPGSV,2,2,07,11,70,009,37,05,34,242,38,12,26,252,32,1*57
$GPGSV,2,1,06,06,47,075,30,09,30,054,34,20,68,271,37,11,70,009,33,4*6E
$GPGSV,2,2,06,05,34,242,35,12,26,252,21,4*66
$GPGSV,1,1,03,06,47,075,34,09,30,054,38,11,70,009,31,8*52
$GLGSV,1,1,04,86,39,323,31,69,14,028,31,85,60,066,47,71,42,184,45,1*7E
$GLGSV,1,1,03,86,39,323,29,85,60,066,33,71,42,184,31,3*40
$GBGSV,4,1,14,03,44,189,44,07,58,193,42,08,64,259,40,10,64,220,43,1*76
$GBGSV,4,2,14,20,49,195,47,29,49,311,37,38,73,273,44,40,56,166,44,1*7A
$GBGSV,4,3,14,01,36,139,39,30,71,112,39,32,63,065,43,59,38,145,38,1*70
$GBGSV,4,4,14,27,19,121,34,13,49,248,31,1*78
$GBGSV,4,1,14,03,44,189,30,07,58,193,30,08,64,259,34,10,64,220,31,8*7F
$GBGSV,4,2,14,20,49,195,28,29,49,311,28,38,73,273,24,40,56,166,39,8*78
$GBGSV,4,3,14,01,36,139,30,30,71,112,30,32,63,065,34,59,38,145,31,8*70
$GBGSV,4,4,14,27,19,121,28,13,49,248,29,8*75
$GBGSV,2,1,06,03,44,189,44,07,58,193,44,08,64,259,41,10,64,220,43,B*07
$GBGSV,2,2,06,01,36,139,36,13,49,248,39,B*02
$GAGSV,2,1,05,07,36,145,36,08,39,076,35,13,53,063,40,26,56,313,32,1*73
$GAGSV,2,2,05,23,30,268,33,1*4E
$GAGSV,2,1,05,07,36,145,39,08,39,076,42,13,53,063,47,26,56,313,36,2*7C
$GAGSV,2,2,05,23,30,268,37,2*49
$GAGSV,2,1,05,07,36,145,41,08,39,076,35,13,53,063,41,26,56,313,39,7*7F
$GAGSV,2,2,05,23,30,268,31,7*4A
$GNGGA,060959.00,3958.83186413,N,11628.66503774,E,4,29,0.6,35.5540,M,-8.1427,M,1.0,1824*75
$GNRMC,060959.00,D,3958.83186413,N,11628.66503774,E,0.004,290.1,230525,7.3,W,R,S*51
$GPGSV,2,1,07,06,47,075,41,09,30,054,40,19,26,146,36,20,68,271,43,1*68
$GPGSV,2,2,07,11,70,009,37,05,34,242,38,12,26,252,32,1*57
$GPGSV,2,1,06,06,47,075,29,09,30,054,34,20,68,271,36,11,70,009,33,4*67
$GPGSV,2,2,06,05,34,242,35,12,26,252,22,4*65
$GPGSV,1,1,03,06,47,075,33,09,30,054,38,11,70,009,31,8*55
$GLGSV,1,1,04,86,39,323,30,69,14,028,31,85,60,066,47,71,42,184,45,1*7F
$GLGSV,1,1,03,86,39,323,29,85,60,066,33,71,42,184,31,3*40
$GBGSV,4,1,14,03,44,189,44,07,58,193,42,08,64,259,40,10,64,220,43,1*76
$GBGSV,4,2,14,20,49,195,47,29,49,311,37,38,73,273,44,40,56,166,44,1*7A
$GBGSV,4,3,14,01,36,139,40,30,71,112,39,32,63,065,43,59,38,145,39,1*7F
$GBGSV,4,4,14,27,19,121,35,13,49,248,31,1*79
$GBGSV,4,1,14,03,44,189,30,07,58,193,30,08,64,259,34,10,64,220,31,8*7F
$GBGSV,4,2,14,20,49,195,28,29,49,311,28,38,73,273,24,40,56,166,39,8*78
$GBGSV,4,3,14,01,36,139,29,30,71,112,30,32,63,065,34,59,38,145,31,8*78
$GBGSV,4,4,14,27,19,121,28,13,49,248,30,8*7D
$GBGSV,2,1,06,03,44,189,44,07,58,193,44,08,64,259,41,10,64,220,43,B*07
$GBGSV,2,2,06,01,36,139,36,13,49,248,39,B*02
$GAGSV,2,1,05,07,36,145,36,08,39,076,36,13,53,063,40,26,56,313,32,1*70
$GAGSV,2,2,05,23,30,268,33,1*4E
$GAGSV,2,1,05,07,36,145,39,08,39,076,42,13,53,063,47,26,56,313,35,2*7F
$GAGSV,2,2,05,23,30,268,37,2*49
$GAGSV,2,1,05,07,36,145,41,08,39,076,35,13,53,063,41,26,56,313,39,7*7F
$GAGSV,2,2,05,23,30,268,30,7*4B
$GNGGA,061000.00,3958.83186659,N,11628.66503900,E,4,29,0.6,35.5551,M,-8.1427,M,1.0,1824*70
$GNRMC,061000.00,D,3958.83186659,N,11628.66503900,E,0.002,295.2,230525,7.3,W,R,S*54
$GPGSV,2,1,07,06,47,075,41,09,30,054,40,19,26,146,35,20,68,271,43,1*6B
$GPGSV,2,2,07,11,70,009,37,05,34,242,38,12,26,252,32,1*57
$GPGSV,2,1,06,06,47,075,29,09,30,054,34,20,68,271,37,11,70,009,33,4*66
$GPGSV,2,2,06,05,34,242,35,12,26,252,22,4*65
$GPGSV,1,1,03,06,47,075,33,09,30,054,38,11,70,009,31,8*55
$GLGSV,1,1,04,86,39,323,30,69,14,028,31,85,60,066,47,71,42,184,45,1*7F
$GLGSV,1,1,03,86,39,323,29,85,60,066,33,71,42,184,31,3*40
$GBGSV,4,1,14,03,44,189,44,07,58,193,42,08,64,259,40,10,64,220,43,1*76
$GBGSV,4,2,14,20,49,195,47,29,49,311,37,38,73,273,44,40,56,166,44,1*7A
$GBGSV,4,3,14,01,36,139,40,30,71,112,39,32,63,065,43,59,38,145,39,1*7F
$GBGSV,4,4,14,27,19,121,35,13,49,248,32,1*7A
$GBGSV,4,1,14,03,44,189,30,07,58,193,30,08,64,259,35,10,64,220,31,8*7E
$GBGSV,4,2,14,20,49,195,28,29,49,311,28,38,73,273,25,40,56,166,39,8*79
$GBGSV,4,3,14,01,36,139,29,30,71,112,30,32,63,065,34,59,38,145,31,8*78
$GBGSV,4,4,14,27,19,121,28,13,49,248,30,8*7D
$GBGSV,2,1,06,03,44,189,44,07,58,193,44,08,64,259,41,10,64,220,43,B*07
$GBGSV,2,2,06,01,36,139,36,13,49,248,39,B*02
$GAGSV,2,1,05,07,36,145,36,08,39,076,36,13,53,063,40,26,56,313,32,1*70
$GAGSV,2,2,05,23,30,268,33,1*4E
$GAGSV,2,1,05,07,36,145,39,08,39,076,42,13,53,063,47,26,56,313,35,2*7F
$GAGSV,2,2,05,23,30,268,37,2*49
$GAGSV,2,1,05,07,36,145,41,08,39,076,35,13,53,063,41,26,56,313,39,7*7F
$GAGSV,2,2,05,23,30,268,30,7*4B
$GNGGA,061001.00,3958.83186553,N,11628.66504005,E,4,28,0.6,35.5559,M,-8.1427,M,1.0,1824*7A
$GNRMC,061001.00,D,3958.83186553,N,11628.66504005,E,0.005,241.8,230525,7.3,W,R,S*53
$GPGSV,2,1,07,06,47,075,41,09,30,054,40,19,26,146,36,20,68,271,43,1*68
$GPGSV,2,2,07,11,70,009,38,05,34,242,38,12,26,252,32,1*58
$GPGSV,2,1,06,06,47,075,29,09,30,054,34,20,68,271,36,11,70,009,32,4*66
$GPGSV,2,2,06,05,34,242,35,12,26,252,22,4*65
$GPGSV,1,1,03,06,47,075,34,09,30,054,38,11,70,009,30,8*53
$GLGSV,1,1,04,86,39,323,28,69,14,028,31,85,60,066,47,71,42,184,45,1*76
$GLGSV,1,1,03,86,39,323,29,85,60,066,33,71,42,184,31,3*40
$GBGSV,4,1,14,03,44,189,44,07,58,193,42,08,64,259,41,10,64,220,44,1*70
$GBGSV,4,2,14,20,49,195,47,29,49,311,38,38,73,273,44,40,56,166,44,1*75
$GBGSV,4,3,14,01,36,139,40,30,71,112,39,32,63,065,44,59,38,145,39,1*78
$GBGSV,4,4,14,27,19,121,35,13,49,248,32,1*7A
$GBGSV,4,1,14,03,44,189,31,07,58,193,30,08,64,259,35,10,64,220,32,8*7C
$GBGSV,4,2,14,20,49,195,28,29,49,311,29,38,73,273,25,40,56,166,39,8*78
$GBGSV,4,3,14,01,36,139,29,30,71,112,30,32,63,065,34,59,38,145,31,8*78
$GBGSV,4,4,14,27,19,121,28,13,49,248,30,8*7D
$GBGSV,2,1,06,03,44,189,44,07,58,193,44,08,64,259,42,10,64,220,43,B*04
$GBGSV,2,2,06,01,36,139,36,13,49,248,39,B*02
$GAGSV,2,1,05,07,36,145,36,08,39,076,36,13,53,063,40,26,56,313,32,1*70
$GAGSV,2,2,05,23,30,268,33,1*4E
$GAGSV,2,1,05,07,36,145,39,08,39,076,42,13,53,063,47,26,56,313,35,2*7F
$GAGSV,2,2,05,23,30,268,37,2*49
$GAGSV,2,1,05,07,36,145,41,08,39,076,35,13,53,063,41,26,56,313,39,7*7F
$GAGSV,2,2,05,23,30,268,30,7*4B
$GNGGA,061002.00,3958.83186834,N,11628.66503988,E,4,28,0.6,35.5519,M,-8.1427,M,1.0,1824*7A
$GNRMC,061002.00,D,3958.83186834,N,11628.66503988,E,0.002,232.5,230525,7.3,W,R,S*59
$GPGSV,2,1,07,06,47,075,41,09,30,054,40,19,26,146,36,20,68,271,43,1*68
$GPGSV,2,2,07,11,70,009,38,05,34,242,38,12,26,252,32,1*58
$GPGSV,2,1,06,06,47,075,28,09,30,054,34,20,68,271,36,11,70,009,33,4*66
$GPGSV,2,2,06,05,34,242,35,12,26,252,22,4*65
$GPGSV,1,1,03,06,47,075,33,09,30,054,38,11,70,009,30,8*54
$GLGSV,1,1,04,86,39,323,27,69,14,028,31,85,60,066,47,71,42,184,45,1*79
$GLGSV,1,1,03,86,39,323,29,85,60,066,33,71,42,184,31,3*40
$GBGSV,4,1,14,03,44,189,44,07,58,193,42,08,64,259,40,10,64,220,44,1*71
$GBGSV,4,2,14,20,49,195,47,29,49,311,38,38,73,273,44,40,56,166,44,1*75
$GBGSV,4,3,14,01,36,139,40,30,71,112,39,32,63,065,44,59,38,145,39,1*78
$GBGSV,4,4,14,27,19,122,36,13,49,248,32,1*7A
$GBGSV,4,1,14,03,44,189,31,07,58,193,30,08,64,259,34,10,64,220,31,8*7E
$GBGSV,4,2,14,20,49,195,28,29,49,311,29,38,73,273,25,40,56,166,39,8*78
$GBGSV,4,3,14,01,36,139,28,30,71,112,31,32,63,065,34,59,38,145,32,8*7B
$GBGSV,4,4,14,27,19,122,28,13,49,248,30,8*7E
$GBGSV,2,1,06,03,44,189,44,07,58,193,44,08,64,259,41,10,64,220,42,B*06
$GBGSV,2,2,06,01,36,139,36,13,49,248,39,B*02
$GAGSV,2,1,05,07,36,145,36,08,39,076,35,13,53,063,40,26,56,313,32,1*73
$GAGSV,2,2,05,23,30,268,33,1*4E
$GAGSV,2,1,05,07,36,145,39,08,39,076,42,13,53,063,47,26,56,313,36,2*7C
$GAGSV,2,2,05,23,30,268,37,2*49
$GAGSV,2,1,05,07,36,145,41,08,39,076,35,13,53,063,41,26,56,313,39,7*7F
$GAGSV,2,2,05,23,30,268,30,7*4B
$GNGGA,061003.00,3958.83186742,N,11628.66503702,E,4,28,0.6,35.5498,M,-8.1427,M,1.0,1824*71
$GNRMC,061003.00,D,3958.83186742,N,11628.66503702,E,0.005,272.3,230525,7.3,W,R,S*5F
$GPGSV,2,1,07,06,47,075,41,09,30,054,41,19,26,146,36,20,68,271,43,1*69
$GPGSV,2,2,07,11,70,009,38,05,34,242,38,12,26,252,32,1*58
$GPGSV,2,1,06,06,47,075,28,09,30,054,34,20,68,271,37,11,70,009,33,4*67
$GPGSV,2,2,06,05,34,242,35,12,26,252,21,4*66
$GPGSV,1,1,03,06,47,075,34,09,30,054,38,11,70,009,30,8*53
$GLGSV,1,1,04,86,39,323,27,69,14,028,32,85,60,066,46,71,42,184,45,1*7B
$GLGSV,1,1,03,86,39,323,28,85,60,066,33,71,42,184,31,3*41
$GBGSV,4,1,14,03,44,189,44,07,58,193,42,08,64,259,40,10,64,220,44,1*71
$GBGSV,4,2,14,20,49,195,47,29,49,311,38,38,73,273,44,40,56,166,44,1*75
$GBGSV,4,3,14,01,36,139,40,30,71,112,39,32,63,065,44,59,38,145,39,1*78
$GBGSV,4,4,14,27,19,122,36,13,49,248,33,1*7B
$GBGSV,4,1,14,03,44,189,31,07,58,193,30,08,64,259,34,10,64,220,31,8*7E
$GBGSV,4,2,14,20,49,195,29,29,49,311,29,38,73,273,25,40,56,166,39,8*79
$GBGSV,4,3,14,01,36,139,30,30,71,112,31,32,63,065,34,59,38,145,32,8*72
$GBGSV,4,4,14,27,19,122,28,13,49,248,30,8*7E
$GBGSV,2,1,06,03,44,189,44,07,58,193,44,08,64,259,41,10,64,220,42,B*06
$GBGSV,2,2,06,01,36,139,36,13,49,248,39,B*02
$GAGSV,2,1,05,07,36,145,36,08,39,076,36,13,53,063,40,26,56,313,32,1*70
$GAGSV,2,2,05,23,30,268,33,1*4E
$GAGSV,2,1,05,07,36,145,39,08,39,076,42,13,53,063,47,26,56,313,36,2*7C
$GAGSV,2,2,05,23,30,268,37,2*49
$GAGSV,2,1,05,07,36,145,41,08,39,076,35,13,53,063,41,26,56,313,39,7*7F
$GAGSV,2,2,05,23,30,268,30,7*4B
$GNGGA,061004.00,3958.83186723,N,11628.66503932,E,4,28,0.6,35.5511,M,-8.1427,M,1.0,1824*7C
$GNRMC,061004.00,D,3958.83186723,N,11628.66503932,E,0.005,286.0,230525,7.3,W,R,S*5A
$GPGSV,2,1,07,06,47,075,41,09,30,054,40,19,26,146,36,20,68,271,43,1*68
$GPGSV,2,2,07,11,70,009,38,05,34,242,39,12,26,252,31,1*5A
$GPGSV,2,1,07,06,47,075,28,09,30,054,34,19,26,146,29,20,68,271,37,4*6C
$GPGSV,2,2,07,11,70,009,33,05,34,242,34,12,26,252,23,4*5A
$GPGSV,1,1,03,06,47,075,34,09,30,054,38,11,70,009,30,8*53
$GLGSV,1,1,04,86,39,323,24,69,14,028,32,85,60,066,46,71,42,184,45,1*78
$GLGSV,1,1,03,86,39,323,28,85,60,066,34,71,42,184,31,3*46
$GBGSV,4,1,14,03,44,189,44,07,58,193,42,08,64,259,40,10,64,220,44,1*71
$GBGSV,4,2,14,20,49,195,47,29,49,311,38,38,73,273,44,40,56,166,44,1*75
$GBGSV,4,3,14,01,36,139,40,30,71,112,39,32,63,065,44,59,38,145,39,1*78
$GBGSV,4,4,14,27,19,122,35,13,49,248,33,1*78
$GBGSV,4,1,14,03,44,189,31,07,58,193,30,08,64,259,34,10,64,220,31,8*7E
$GBGSV,4,2,14,20,49,195,28,29,49,311,29,38,73,273,25,40,56,166,39,8*78
$GBGSV,4,3,14,01,36,139,29,30,71,112,30,32,63,065,34,59,38,145,31,8*78
$GBGSV,4,4,14,27,19,122,28,13,49,248,30,8*7E
$GBGSV,2,1,06,03,44,189,44,07,58,193,44,08,64,259,41,10,64,220,42,B*06
$GBGSV,2,2,06,01,36,139,36,13,49,248,39,B*02
$GAGSV,2,1,05,07,36,145,36,08,39,076,36,13,53,063,40,26,56,313,32,1*70
$GAGSV,2,2,05,23,30,268,33,1*4E
$GAGSV,2,1,05,07,36,145,39,08,39,076,42,13,53,063,47,26,56,313,35,2*7F
$GAGSV,2,2,05,23,30,268,37,2*49
$GAGSV,2,1,05,07,36,145,41,08,39,076,35,13,53,063,41,26,56,313,40,7*71
$GAGSV,2,2,05,23,30,268,30,7*4B
$GNGGA,061005.00,3958.83186625,N,11628.66503891,E,4,28,0.6,35.5508,M,-8.1427,M,1.0,1824*7A
$GNRMC,061005.00,D,3958.83186625,N,11628.66503891,E,0.004,279.6,230525,7.3,W,R,S*53
$GPGSV,2,1,07,06,47,075,41,09,30,054,40,19,26,146,35,20,68,271,43,1*6B
$GPGSV,2,2,07,11,70,009,38,05,34,242,39,12,26,252,32,1*59
$GPGSV,2,1,07,06,47,075,28,09,30,054,34,19,26,146,28,20,68,271,36,4*6C
$GPGSV,2,2,07,11,70,009,33,05,34,242,35,12,26,252,22,4*5A
$GPGSV,1,1,03,06,47,075,34,09,30,054,38,11,70,009,30,8*53
$GLGSV,1,1,04,86,39,323,26,69,14,028,33,85,60,066,46,71,42,184,45,1*7B
$GLGSV,1,1,03,86,39,323,29,85,60,066,34,71,42,184,31,3*47
$GBGSV,4,1,14,03,44,189,44,07,58,193,42,08,64,259,40,10,64,220,44,1*71
$GBGSV,4,2,14,20,49,195,47,29,49,311,38,38,73,273,44,40,56,166,44,1*75
$GBGSV,4,3,14,01,36,139,40,30,71,112,39,32,63,065,44,59,38,145,39,1*78
$GBGSV,4,4,14,27,19,122,36,13,49,248,33,1*7B
$GBGSV,4,1,14,03,44,189,31,07,58,193,29,08,64,259,35,10,64,220,31,8*77
$GBGSV,4,2,14,20,49,195,28,29,49,311,30,38,73,273,25,40,56,166,39,8*70
$GBGSV,4,3,14,01,36,139,30,30,71,112,30,32,63,065,35,59,38,145,31,8*71
$GBGSV,4,4,14,27,19,122,28,13,49,248,30,8*7E
$GBGSV,2,1,06,03,44,189,43,07,58,193,44,08,64,259,41,10,64,220,42,B*01
$GBGSV,2,2,06,01,36,139,35,13,49,248,39,B*01
$GAGSV,2,1,05,07,36,145,36,08,39,076,36,13,53,063,40,26,56,313,32,1*70
$GAGSV,2,2,05,23,30,268,34,1*49
$GAGSV,2,1,05,07,36,145,39,08,39,076,42,13,53,063,47,26,56,313,36,2*7C
$GAGSV,2,2,05,23,30,268,37,2*49
$GAGSV,2,1,05,07,36,145,41,08,39,076,35,13,53,063,41,26,56,313,40,7*71
$GAGSV,2,2,05,23,30,268,30,7*4B
$GNGGA,061006.00,3958.83186753,N,11628.66503872,E,4,28,0.6,35.5440,M,-8.1427,M,1.0,1824*79
$GNRMC,061006.00,D,3958.83186753,N,11628.66503872,E,0.004,296.5,230525,7.3,W,R,S*5F
$GPGSV,2,1,07,06,47,075,40,09,30,054,40,19,26,146,36,20,68,271,43,1*69
$GPGSV,2,2,07,11,70,009,37,05,34,242,38,12,26,252,32,1*57
$GPGSV,2,1,07,06,47,075,27,09,30,054,34,19,26,146,29,20,68,271,36,4*62
$GPGSV,2,2,07,11,70,009,33,05,34,242,35,12,26,252,25,4*5D
$GPGSV,1,1,03,06,47,075,34,09,30,054,38,11,70,009,30,8*53
$GLGSV,1,1,04,86,39,323,24,69,14,028,32,85,60,066,46,71,42,184,45,1*78
$GLGSV,1,1,03,86,39,323,28,85,60,066,34,71,42,184,32,3*45
$GBGSV,4,1,14,03,44,189,44,07,58,193,42,08,64,259,40,10,64,220,44,1*71
$GBGSV,4,2,14,20,49,195,47,29,49,311,38,38,73,273,44,40,56,166,44,1*75
$GBGSV,4,3,14,01,36,139,40,30,71,112,39,32,63,065,44,59,38,145,39,1*78
$GBGSV,4,4,14,27,19,122,36,13,49,248,32,1*7A
$GBGSV,4,1,14,03,44,189,31,07,58,193,30,08,64,259,35,10,64,220,31,8*7F
$GBGSV,4,2,14,20,49,195,28,29,49,311,29,38,73,273,25,40,56,166,39,8*78
$GBGSV,4,3,14,01,36,139,30,30,71,112,31,32,63,065,35,59,38,145,31,8*70
$GBGSV,4,4,14,27,19,122,28,13,49,248,30,8*7E
$GBGSV,2,1,06,03,44,189,43,07,58,193,43,08,64,259,41,10,64,220,42,B*06
$GBGSV,2,2,06,01,36,139,35,13,49,248,38,B*00
$GAGSV,2,1,05,07,36,145,36,08,39,076,35,13,53,063,40,26,56,313,32,1*73
$GAGSV,2,2,05,23,30,268,33,1*4E
$GAGSV,2,1,05,07,36,145,39,08,39,076,42,13,53,063,47,26,56,313,36,2*7C
$GAGSV,2,2,05,23,30,268,37,2*49
$GAGSV,2,1,05,07,36,145,41,08,39,076,35,13,53,063,41,26,56,313,40,7*71
$GAGSV,2,2,05,23,30,268,31,7*4A
$GNGGA,061007.00,3958.83186816,N,11628.66504247,E,4,28,0.6,35.5507,M,-8.1427,M,1.0,1824*7F
$GNRMC,061007.00,D,3958.83186816,N,11628.66504247,E,0.003,298.1,230525,7.3,W,R,S*56
$GPGSV,2,1,07,06,47,075,41,09,30,054,40,19,26,146,35,20,68,271,43,1*6B
$GPGSV,2,2,07,11,70,009,37,05,34,242,39,12,26,252,32,1*56
$GPGSV,2,1,07,06,47,075,28,09,30,054,34,19,26,146,29,20,68,271,37,4*6C
$GPGSV,2,2,07,11,70,009,33,05,34,242,35,12,26,252,25,4*5D
$GPGSV,1,1,03,06,47,075,34,09,30,054,39,11,70,009,30,8*52
$GLGSV,1,1,04,86,39,323,26,69,14,028,32,85,60,066,46,71,42,184,45,1*7A
$GLGSV,1,1,03,86,39,323,28,85,60,066,34,71,42,184,32,3*45
$GBGSV,4,1,14,03,44,189,44,07,58,193,42,08,64,259,40,10,64,220,44,1*71
$GBGSV,4,2,14,20,49,195,47,29,49,311,39,38,73,273,44,40,56,166,44,1*74
$GBGSV,4,3,14,01,36,139,40,30,71,112,39,32,63,065,44,59,38,145,39,1*78
$GBGSV,4,4,14,27,19,122,37,13,49,248,33,1*7A
$GBGSV,4,1,14,03,44,189,31,07,58,193,30,08,64,259,35,10,64,220,32,8*7C
$GBGSV,4,2,14,20,49,195,28,29,49,311,30,38,73,273,25,40,56,166,39,8*70
$GBGSV,4,3,14,01,36,139,29,30,71,112,31,32,63,065,35,59,38,145,31,8*78
$GBGSV,4,4,14,27,19,122,27,13,49,248,30,8*71
$GBGSV,2,1,06,03,44,189,43,07,58,193,44,08,64,259,41,10,64,220,42,B*01
$GBGSV,2,2,06,01,36,139,35,13,49,248,39,B*01
$GAGSV,2,1,05,07,36,145,36,08,39,076,35,13,53,063,40,26,56,313,32,1*73
$GAGSV,2,2,05,23,30,268,33,1*4E
$GAGSV,2,1,05,07,36,145,39,08,39,076,42,13,53,063,47,26,56,313,36,2*7C
$GAGSV,2,2,05,23,30,268,37,2*49
$GAGSV,2,1,05,07,36,145,41,08,39,076,36,13,53,063,41,26,56,313,40,7*72
$GAGSV,2,2,05,23,30,268,31,7*4A
$GNGGA,061008.00,3958.83186810,N,11628.66503709,E,4,28,0.6,35.5489,M,-8.1427,M,1.0,1824*79
$GNRMC,061008.00,D,3958.83186810,N,11628.66503709,E,0.002,302.5,230525,7.3,W,R,S*50
$GPGSV,2,1,07,06,47,075,41,09,30,054,40,19,26,146,36,20,68,271,43,1*68
$GPGSV,2,2,07,11,70,009,37,05,34,242,39,12,26,252,32,1*56
$GPGSV,2,1,06,06,47,075,28,09,30,054,34,20,68,271,37,11,70,009,33,4*67
$GPGSV,2,2,06,05,34,242,35,12,26,252,25,4*62
$GPGSV,1,1,03,06,47,075,34,09,30,054,38,11,70,009,31,8*52
$GLGSV,1,1,04,86,39,323,26,69,14,028,32,85,60,066,46,71,42,184,45,1*7A
$GLGSV,1,1,03,86,39,323,28,85,60,066,34,71,42,184,32,3*45
$GBGSV,4,1,14,03,44,189,44,07,58,193,42,08,64,260,40,10,64,220,43,1*7C
$GBGSV,4,2,14,20,49,195,47,29,49,311,39,38,73,273,44,40,56,166,44,1*74
$GBGSV,4,3,14,01,36,139,40,30,71,112,39,32,63,065,44,59,38,145,39,1*78
$GBGSV,4,4,14,27,19,122,37,13,49,248,32,1*7B
$GBGSV,4,1,14,03,44,189,31,07,58,193,30,08,64,260,34,10,64,220,31,8*74
$GBGSV,4,2,14,20,49,195,27,29,49,311,29,38,73,273,25,40,56,166,39,8*77
$GBGSV,4,3,14,01,36,139,29,30,71,112,31,32,63,065,35,59,38,145,32,8*7B
$GBGSV,4,4,14,27,19,122,28,13,49,248,30,8*7E
$GBGSV,2,1,06,03,44,189,43,07,58,193,44,08,64,260,41,10,64,220,42,B*0B
$GBGSV,2,2,06,01,36,139,35,13,49,248,39,B*01
$GAGSV,2,1,05,07,36,145,36,08,39,076,35,13,53,063,40,26,56,313,32,1*73
$GAGSV,2,2,05,23,30,268,33,1*4E
$GAGSV,2,1,05,07,36,145,39,08,39,076,42,13,53,063,47,26,56,313,36,2*7C
$GAGSV,2,2,05,23,30,268,36,2*48
$GAGSV,2,1,05,07,36,145,41,08,39,076,36,13,53,063,41,26,56,313,40,7*72
$GAGSV,2,2,05,23,30,268,30,7*4B
$GNGGA,061009.00,3958.83186737,N,11628.66504187,E,4,28,0.6,35.5463,M,-8.1427,M,1.0,1824*71
$GNRMC,061009.00,D,3958.83186737,N,11628.66504187,E,0.003,251.7,230525,7.3,W,R,S*58
$GPGSV,2,1,07,06,47,075,41,09,30,054,40,19,26,146,35,20,68,271,43,1*6B
$GPGSV,2,2,07,11,70,009,37,05,34,242,39,12,26,252,32,1*56
$GPGSV,2,1,06,06,47,075,27,09,30,054,34,20,68,271,36,11,70,009,33,4*69
$GPGSV,2,2,06,05,34,242,35,12,26,252,25,4*62
$GPGSV,1,1,03,06,47,075,34,09,30,054,39,11,70,009,30,8*52
$GLGSV,1,1,04,86,39,323,26,69,14,028,32,85,60,066,46,71,42,184,45,1*7A
$GLGSV,1,1,03,86,39,323,28,85,60,066,34,71,42,184,32,3*45
$GBGSV,4,1,14,03,44,189,44,07,58,193,42,08,64,260,40,10,64,220,44,1*7B
$GBGSV,4,2,14,20,49,195,47,29,49,311,39,38,73,274,44,40,56,166,44,1*73
$GBGSV,4,3,14,01,36,139,40,30,71,112,39,32,63,065,44,59,38,145,39,1*78
$GBGSV,4,4,14,27,19,122,37,13,49,248,32,1*7B
$GBGSV,4,1,14,03,44,189,31,07,58,193,30,08,64,260,34,10,64,220,32,8*77
$GBGSV,4,2,14,20,49,195,28,29,49,311,30,38,73,274,25,40,56,166,39,8*77
$GBGSV,4,3,14,01,36,139,30,30,71,112,31,32,63,065,35,59,38,145,31,8*70
