NMEA,GNSS_20B_W24.42.1_Q FL_22B_W24.01.5,1745469801000
NMEA,$RD_RSSI, 717, 778, 0, 0,1745469801000
NMEA,$GPGGA,044330.317,3954.610534,N,11627.117604,E,1,08,2.263,47.023,M,0,M,,*40,1745469801000
NMEA,$GPRMC,044330.317,A,3954.610534,N,11627.117604,E,0.823,300.683,240425,,E,A*24,1745469810317
NMEA,$GPGLL,3954.610534,N,11627.117604,E,044330.317,A,A*54,1745469810317
NMEA,$GPGSA,A,3,19,14,194,22,6,,,,,,,,6.543,2.263,6.139*39,1745469810317
NMEA,$BDGSA,A,3,207,,,,,,,,,,,,6.543,2.263,6.139*1A,1745469810317
NMEA,$GAGSA,A,3,130,96,,,,,,,,,,,6.543,2.263,6.139*12,1745469810317
NMEA,$GPGSV,4,1,15,22,70,213,40.9,19,57,315,28.8,14,52,180,36.5,194,51,148,29.2*4A,1745469810317
NMEA,$GPGSV,4,2,15,6,43,251,42.9,1,21,52,0.0,3,41,61,0.0,4,1,111,0.0*73,1745469810317
NMEA,$GPGSV,4,3,15,11,12,241,0.0,17,72,30,0.0,24,7,299,0.0,193,1,,0.0*47,1745469810317
NMEA,$GPGSV,4,4,15,195,70,85,0.0,196,23,142,0.0,47,1,,0.0*5E,1745469810317
NMEA,$BDGSV,4,1,16,207,84,341,32.7,210,72,306,18.7,213,19,191,28.7,209,12,214,25.0*6A,1745469810317
NMEA,$BDGSV,4,2,16,203,42,189,27.8,201,35,140,0.0,202,30,222,0.0,204,26,123,0.0*50,1745469810317
NMEA,$BDGSV,4,3,16,205,14,246,0.0,206,4,201,0.0,216,1,194,0.0,220,8,163,0.0*5D,1745469810317
NMEA,$BDGSV,4,4,16,227,23,73,0.0,229,39,284,0.0,230,68,25,0.0,232,30,111,0.0*69,1745469810317
NMEA,$GAGSV,2,1,8,130,79,348,32.7,96,73,251,39.2,128,37,242,20.3,119,36,158,25.3*6D,1745469810317
NMEA,$GAGSV,2,2,8,105,32,47,0.0,107,15,296,0.0,110,14,151,0.0,124,63,323,0.0*69,1745469810317
NMEA,$GPVTG,300.683,T,,M,0.823,N,1.525,K,A*09,1745469810317
NMEA,$RD_RSSI, 690, 824, 0, 0,1745469810317
NMEA,$GPGGA,044331.317,3954.612723,N,11627.120799,E,1,09,2.146,27.539,M,0,M,,*4B,1745469810317
NMEA,$GPRMC,044331.317,A,3954.612723,N,11627.120799,E,0.629,300.683,240425,,E,A*26,1745469811317
NMEA,$GPGLL,3954.612723,N,11627.120799,E,044331.317,A,A*52,1745469811317
NMEA,$GPGSA,A,3,195,19,14,194,22,6,,,,,,,6.472,2.146,6.106*0F,1745469811317
NMEA,$BDGSA,A,3,207,210,,,,,,,,,,,6.472,2.146,6.106*22,1745469811317
NMEA,$GAGSA,A,3,119,,,,,,,,,,,,6.472,2.146,6.106*1D,1745469811317
NMEA,$GPGSV,4,1,15,195,70,85,23.1,19,57,315,29.2,14,52,180,36.9,194,51,148,30.6*4C,1745469811317
NMEA,$GPGSV,4,2,15,3,41,61,28.2,1,21,52,19.1,22,70,213,40.4,6,43,251,42.2*4A,1745469811317
NMEA,$GPGSV,4,3,15,4,1,111,0.0,11,12,241,0.0,17,72,30,0.0,24,7,299,0.0*79,1745469811317
NMEA,$GPGSV,4,4,15,193,1,,0.0,196,23,142,0.0,47,1,,0.0*63,1745469811317
NMEA,$BDGSV,4,1,16,207,84,341,33.2,210,72,306,18.7,213,19,191,28.5,209,12,214,24.7*6A,1745469811317
NMEA,$BDGSV,4,2,16,203,42,189,28.0,201,35,140,0.0,202,30,222,0.0,204,26,123,0.0*57,1745469811317
NMEA,$BDGSV,4,3,16,205,14,246,0.0,206,4,201,0.0,216,1,194,0.0,220,8,163,0.0*5D,1745469811317
NMEA,$BDGSV,4,4,16,227,23,73,0.0,229,39,284,0.0,230,68,25,0.0,232,30,111,0.0*69,1745469811317
NMEA,$GAGSV,2,1,8,130,79,348,32.7,96,73,251,39.4,128,37,242,18.2,119,36,158,25.5*67,1745469811317
NMEA,$GAGSV,2,2,8,110,14,151,21.6,105,32,47,0.0,107,15,296,0.0,124,63,323,0.0*5C,1745469811317
NMEA,$GPVTG,300.683,T,,M,0.629,N,1.166,K,A*0E,1745469811317
NMEA,$RD_RSSI, 722, 810, 0, 0,1745469811317
NMEA,$GPGGA,044332.317,3954.610832,N,11627.116682,E,1,11,1.997,25.794,M,0,M,,*42,1745469812317
NMEA,$GPRMC,044332.317,A,3954.610832,N,11627.116682,E,1.145,66.377,240425,,E,A*17,1745469812317
NMEA,$GPGLL,3954.610832,N,11627.116682,E,044332.317,A,A*52,1745469812317
NMEA,$GPGSA,A,3,19,14,22,6,,,,,,,,,3.693,1.997,3.105*07,1745469812317
NMEA,$BDGSA,A,3,207,210,240,229,245,,,,,,,,3.693,1.997,3.105*17,1745469812317
NMEA,$GAGSA,A,3,128,119,,,,,,,,,,,3.693,1.997,3.105*2F,1745469812317
NMEA,$GPGSV,4,1,15,195,70,85,25.6,19,57,315,29.2,14,52,180,35.0,194,51,148,32.0*43,1745469812317
NMEA,$GPGSV,4,2,15,3,41,61,26.5,1,21,52,17.0,22,70,213,39.2,6,43,251,41.0*45,1745469812317
NMEA,$GPGSV,4,3,15,4,1,111,0.0,11,12,241,0.0,17,72,30,0.0,24,7,299,0.0*79,1745469812317
NMEA,$GPGSV,4,4,15,193,1,,0.0,196,23,142,0.0,47,1,,0.0*63,1745469812317
NMEA,$BDGSV,4,1,16,207,84,341,33.2,210,72,306,21.8,213,19,191,29.7,209,12,214,24.0*6B,1745469812317
NMEA,$BDGSV,4,2,16,203,42,189,28.1,240,72,52,33.0,229,39,284,40.2,236,39,231,28.3*5E,1745469812317
NMEA,$BDGSV,4,3,16,245,32,294,33.0,201,35,140,0.0,202,30,222,0.0,204,26,123,0.0*56,1745469812317
NMEA,$BDGSV,4,4,16,205,14,246,0.0,206,4,201,0.0,216,1,194,0.0,220,8,163,0.0*5A,1745469812317
NMEA,$GAGSV,2,1,8,130,79,349,31.1,96,73,251,39.7,128,37,242,10.8,119,36,158,24.0*66,1745469812317
NMEA,$GAGSV,2,2,8,110,14,151,17.8,105,32,47,0.0,107,15,296,0.0,124,63,323,0.0*57,1745469812317
NMEA,$GPVTG,66.377,T,,M,1.145,N,2.122,K,A*3C,1745469812317
NMEA,$RD_RSSI, 724, 793, 0, 0,1745469812317
NMEA,$GPGGA,044333.317,3954.611904,N,11627.115256,E,1,12,1.771,21.495,M,0,M,,*4B,1745469813317
NMEA,$GPRMC,044333.317,A,3954.611904,N,11627.115256,E,0.771,66.377,240425,,E,A*1D,1745469813317
NMEA,$GPGLL,3954.611904,N,11627.115256,E,044333.317,A,A*58,1745469813317
NMEA,$GPGSA,A,3,195,14,194,22,6,,,,,,,,3.576,1.771,3.106*03,1745469813317
NMEA,$BDGSA,A,3,207,210,240,238,229,245,,,,,,,3.576,1.771,3.106*23,1745469813317
NMEA,$GAGSA,A,3,128,,,,,,,,,,,,3.576,1.771,3.106*1B,1745469813317
NMEA,$GPGSV,4,1,15,17,72,31,22.3,195,70,85,23.0,19,57,315,25.2,14,52,180,36.2*48,1745469813317
NMEA,$GPGSV,4,2,15,194,51,148,31.2,3,41,61,27.7,1,21,52,11.6,22,70,213,39.7*44,1745469813317
NMEA,$GPGSV,4,3,15,6,43,251,40.2,196,23,142,22.7,4,1,111,0.0,11,12,241,0.0*74,1745469813317
NMEA,$GPGSV,4,4,15,24,7,299,0.0,193,1,,0.0,47,1,,0.0*68,1745469813317
NMEA,$BDGSV,4,1,16,207,84,341,32.2,210,72,306,20.5,213,19,191,28.7,209,12,214,23.7*67,1745469813317
NMEA,$BDGSV,4,2,16,203,42,189,29.6,240,72,52,34.7,238,43,176,24.7,229,39,284,41.4*54,1745469813317
NMEA,$BDGSV,4,3,16,236,39,231,31.2,245,32,294,29.6,201,35,140,0.0,202,30,222,0.0*64,1745469813317
NMEA,$BDGSV,4,4,16,204,26,123,0.0,205,14,246,0.0,206,4,201,0.0,216,1,194,0.0*64,1745469813317
NMEA,$GAGSV,2,1,8,130,79,349,32.2,96,73,251,39.5,128,37,242,9.8,119,36,158,23.1*5A,1745469813317
NMEA,$GAGSV,2,2,8,110,14,151,17.5,105,32,47,0.0,107,15,296,0.0,124,63,323,0.0*5A,1745469813317
NMEA,$GPVTG,66.377,T,,M,0.771,N,1.429,K,A*31,1745469813317
NMEA,$RD_RSSI, 709, 797, 0, 0,1745469813317
NMEA,$GPGGA,044334.317,3954.608626,N,11627.110125,E,1,16,0.983,22.806,M,0,M,,*4A,1745469814317
NMEA,$GPRMC,044334.317,A,3954.608626,N,11627.110125,E,0.242,66.377,240425,,E,A*1A,1745469814317
NMEA,$GPGLL,3954.608626,N,11627.110125,E,044334.317,A,A*5A,1745469814317
NMEA,$GPGSA,A,3,17,195,19,14,194,22,6,,,,,,1.888,0.983,1.612*01,1745469814317
NMEA,$BDGSA,A,3,207,210,240,238,229,245,227,,,,,,1.888,0.983,1.612*18,1745469814317
NMEA,$GAGSA,A,3,130,96,,,,,,,,,,,1.888,0.983,1.612*11,1745469814317
NMEA,$GPGSV,4,1,15,17,72,31,20.2,196,23,142,21.0,195,70,85,22.3,19,57,315,24.2*7F,1745469814317
NMEA,$GPGSV,4,2,15,14,52,180,36.5,194,51,148,32.5,3,41,61,24.6,1,21,52,12.6*40,1745469814317
NMEA,$GPGSV,4,3,15,11,12,241,17.2,22,70,213,39.9,6,43,251,40.9,4,1,111,0.0*70,1745469814317
NMEA,$GPGSV,4,4,15,24,7,299,0.0,193,1,,0.0,47,1,,0.0*68,1745469814317
NMEA,$BDGSV,4,1,16,207,84,341,33.2,210,72,306,21.7,209,12,214,25.1,203,42,189,29.6*63,1745469814317
NMEA,$BDGSV,4,2,16,240,72,52,35.4,238,43,176,27.6,229,39,284,42.2,236,39,231,31.2*56,1745469814317
NMEA,$BDGSV,4,3,16,245,32,294,32.7,227,23,73,19.5,201,35,140,0.0,202,30,222,0.0*5D,1745469814317
NMEA,$BDGSV,4,4,16,204,26,123,0.0,205,14,246,0.0,206,4,201,0.0,213,19,191,0.0*5D,1745469814317
NMEA,$GAGSV,2,1,8,130,79,349,32.5,96,73,251,39.9,119,36,158,23.6,110,14,151,17.7*6D,1745469814317
NMEA,$GAGSV,2,2,8,105,32,47,0.0,107,15,296,0.0,124,63,323,0.0,128,37,242,0.0*62,1745469814317
NMEA,$GPVTG,66.377,T,,M,0.242,N,0.449,K,A*33,1745469814317
NMEA,$RD_RSSI, 681, 727, 0, 0,1745469814317
NMEA,$GPGGA,044335.316,3954.606138,N,11627.106125,E,1,16,0.963,31.588,M,0,M,,*4C,1745469815316
NMEA,$GPRMC,044335.316,A,3954.606138,N,11627.106125,E,0.351,66.377,240425,,E,A*18,1745469815316
NMEA,$GPGLL,3954.606138,N,11627.106125,E,044335.316,A,A*5B,1745469815316
NMEA,$GPGSA,A,3,17,195,19,14,194,22,6,,,,,,1.878,0.963,1.612*00,1745469815316
NMEA,$BDGSA,A,3,207,210,240,238,229,245,227,,,,,,1.878,0.963,1.612*19,1745469815316
NMEA,$GAGSA,A,3,128,119,,,,,,,,,,,1.878,0.963,1.612*2F,1745469815316
NMEA,$GPGSV,4,1,15,17,72,31,19.1,195,70,85,24.5,19,57,315,24.5,14,52,180,36.7*43,1745469815316
NMEA,$GPGSV,4,2,15,194,51,148,33.7,3,41,61,22.7,1,21,52,12.0,11,12,241,17.7*4C,1745469815316
NMEA,$GPGSV,4,3,15,22,70,213,39.5,6,43,251,40.4,196,23,142,19.3,4,1,111,0.0*42,1745469815316
NMEA,$GPGSV,4,4,15,24,7,299,0.0,193,1,,0.0,47,1,,0.0*68,1745469815316
NMEA,$BDGSV,4,1,16,207,84,341,32.7,210,72,306,20.7,213,19,191,0.5,209,12,214,25.5*5C,1745469815316
NMEA,$BDGSV,4,2,16,203,42,189,29.5,240,72,52,35.5,238,43,176,29.5,229,39,284,42.5*59,1745469815316
NMEA,$BDGSV,4,3,16,236,39,231,29.7,245,32,294,33.5,227,23,73,23.5,201,35,140,0.0*67,1745469815316
NMEA,$BDGSV,4,4,16,202,30,222,0.0,204,26,123,0.0,205,14,246,0.0,206,4,201,0.0*5D,1745469815316
NMEA,$GAGSV,2,1,8,130,79,349,32.2,96,73,251,39.5,128,38,242,25.7,119,36,158,22.3*67,1745469815316
NMEA,$GAGSV,2,2,8,110,14,151,17.7,105,32,47,0.0,107,15,296,0.0,124,63,323,0.0*58,1745469815316
NMEA,$GPVTG,66.377,T,,M,0.351,N,0.650,K,A*3A,1745469815316
NMEA,$RD_RSSI, 721, 794, 0, 0,1745469815316
NMEA,$GPGGA,044336.316,3954.604038,N,11627.103429,E,1,14,1.455,38.409,M,0,M,,*4A,1745469816316
NMEA,$GPRMC,044336.316,A,3954.604038,N,11627.103429,E,1.149,35.554,240425,,E,A*1F,1745469816316
NMEA,$GPGLL,3954.604038,N,11627.103429,E,044336.316,A,A*57,1745469816316
NMEA,$GPGSA,A,3,17,19,14,194,22,6,,,,,,,3.161,1.455,2.806*3F,1745469816316
NMEA,$BDGSA,A,3,207,210,240,238,229,245,,,,,,,3.161,1.455,2.806*2C,1745469816316
NMEA,$GAGSA,A,3,128,119,,,,,,,,,,,3.161,1.455,2.806*2D,1745469816316
NMEA,$GPGSV,4,1,15,17,72,31,19.7,195,70,85,28.7,19,57,315,25.1,14,52,180,37.2*4A,1745469816316
NMEA,$GPGSV,4,2,15,194,51,148,32.7,3,41,61,24.2,1,21,52,12.6,11,12,241,20.8*43,1745469816316
NMEA,$GPGSV,4,3,15,22,70,213,39.5,6,43,251,39.4,196,23,142,19.0,4,1,111,0.0*4F,1745469816316
NMEA,$GPGSV,4,4,15,24,7,299,0.0,193,1,,0.0,47,1,,0.0*68,1745469816316
NMEA,$BDGSV,4,1,16,207,84,341,33.0,210,72,306,19.1,213,19,191,0.5,209,12,214,25.7*54,1745469816316
NMEA,$BDGSV,4,2,16,203,42,189,30.8,240,72,52,34.7,238,43,176,29.5,229,39,284,42.0*5A,1745469816316
NMEA,$BDGSV,4,3,16,236,39,231,29.3,245,32,294,34.2,227,23,73,27.7,201,35,140,0.0*65,1745469816316
NMEA,$BDGSV,4,4,16,202,30,222,0.0,204,26,123,0.0,205,14,246,0.0,206,4,201,0.0*5D,1745469816316
NMEA,$GAGSV,2,1,8,130,79,349,33.7,96,73,251,40.9,128,38,242,23.3,119,36,158,23.0*61,1745469816316
NMEA,$GAGSV,2,2,8,110,14,151,12.5,105,32,47,0.0,107,15,296,0.0,124,63,323,0.0*5F,1745469816316
NMEA,$GPVTG,35.554,T,,M,1.149,N,2.128,K,A*3B,1745469816316
NMEA,$RD_RSSI, 741, 814, 0, 0,1745469816316
NMEA,$GPGGA,044337.316,3954.603292,N,11627.101437,E,1,14,1.087,43.299,M,0,M,,*4B,1745469817316
NMEA,$GPRMC,044337.316,A,3954.603292,N,11627.101437,E,0.609,35.554,240425,,E,A*14,1745469817316
NMEA,$GPGLL,3954.603292,N,11627.101437,E,044337.316,A,A*5E,1745469817316
NMEA,$GPGSA,A,3,17,14,194,22,6,,,,,,,,1.959,1.087,1.630*35,1745469817316
NMEA,$BDGSA,A,3,207,210,240,238,229,245,227,,,,,,1.959,1.087,1.630*19,1745469817316
NMEA,$GAGSA,A,3,130,96,,,,,,,,,,,1.959,1.087,1.630*10,1745469817316
NMEA,$GPGSV,4,1,15,17,72,31,20.1,195,70,85,26.5,19,57,315,29.7,14,52,180,36.0*43,1745469817316
NMEA,$GPGSV,4,2,15,194,51,148,33.7,3,41,61,25.5,1,21,52,12.1,11,12,241,18.6*46,1745469817316
NMEA,$GPGSV,4,3,15,22,70,213,38.2,6,43,251,39.7,196,23,142,18.3,4,1,111,0.0*48,1745469817316
NMEA,$GPGSV,4,4,15,24,7,299,0.0,193,1,,0.0,47,1,,0.0*68,1745469817316
NMEA,$BDGSV,4,1,16,207,84,341,32.9,210,72,306,19.7,213,19,191,24.6,209,12,214,26.3*68,1745469817316
NMEA,$BDGSV,4,2,16,203,42,189,30.7,240,72,52,32.9,238,43,176,32.2,229,39,284,41.7*54,1745469817316
NMEA,$BDGSV,4,3,16,236,39,231,28.6,245,32,294,33.5,227,23,73,24.1,201,35,140,0.0*64,1745469817316
NMEA,$BDGSV,4,4,16,202,30,222,0.0,204,26,123,0.0,205,14,246,0.0,206,4,201,0.0*5D,1745469817316
NMEA,$GAGSV,2,1,8,130,79,349,33.5,96,73,251,40.5,128,38,242,21.7,119,36,158,26.8*64,1745469817316
NMEA,$GAGSV,2,2,8,110,14,151,14.8,105,32,47,0.0,107,15,296,0.0,124,63,323,0.0*54,1745469817316
NMEA,$GPVTG,35.554,T,,M,0.609,N,1.129,K,A*3B,1745469817316
NMEA,$RD_RSSI, 805, 830, 0, 0,1745469817316
NMEA,$GPGGA,044338.316,3954.602522,N,11627.100106,E,1,15,1.056,47.306,M,0,M,,*41,1745469818316
NMEA,$GPRMC,044338.316,A,3954.602522,N,11627.100106,E,0.390,35.554,240425,,E,A*15,1745469818316
NMEA,$GPGLL,3954.602522,N,11627.100106,E,044338.316,A,A*5A,1745469818316
NMEA,$GPGSA,A,3,17,195,14,194,22,6,,,,,,,1.929,1.056,1.614*05,1745469818316
NMEA,$BDGSA,A,3,207,210,240,238,229,245,227,,,,,,1.929,1.056,1.614*14,1745469818316
NMEA,$GAGSA,A,3,130,96,,,,,,,,,,,1.929,1.056,1.614*1D,1745469818316
NMEA,$GPGSV,4,1,15,17,72,31,19.8,195,70,85,23.2,19,57,315,35.7,14,52,180,34.2*4F,1745469818316
NMEA,$GPGSV,4,2,15,194,51,148,33.5,3,41,61,24.7,1,21,52,12.1,11,12,241,20.3*49,1745469818316
NMEA,$GPGSV,4,3,15,22,70,213,37.7,6,43,251,38.0,196,23,142,18.3,4,1,111,0.0*44,1745469818316
NMEA,$GPGSV,4,4,15,24,7,299,0.0,193,1,,0.0,47,1,,0.0*68,1745469818316
NMEA,$BDGSV,4,1,16,207,84,341,33.9,210,72,306,21.7,213,19,191,25.8,209,12,214,26.3*6D,1745469818316
NMEA,$BDGSV,4,2,16,203,42,189,28.3,240,72,52,32.7,238,43,176,32.2,229,39,284,40.7*56,1745469818316
NMEA,$BDGSV,4,3,16,236,39,231,26.6,245,32,294,35.2,227,23,73,24.0,201,35,140,0.0*6A,1745469818316
NMEA,$BDGSV,4,4,16,202,30,222,0.0,204,26,123,0.0,205,14,246,0.0,206,4,201,0.0*5D,1745469818316
NMEA,$GAGSV,2,1,8,130,79,349,35.2,96,73,251,39.0,128,38,242,18.7,119,36,158,27.2*6F,1745469818316
NMEA,$GAGSV,2,2,8,110,14,151,14.5,105,32,47,0.0,107,15,296,0.0,124,63,323,0.0*59,1745469818316
NMEA,$GPVTG,35.554,T,,M,0.390,N,0.723,K,A*33,1745469818316
NMEA,$RD_RSSI, 720, 817, 0, 0,1745469818316
NMEA,$GPGGA,044339.316,3954.602466,N,11627.099550,E,1,14,1.119,50.328,M,0,M,,*46,1745469819316
NMEA,$GPRMC,044339.316,A,3954.602466,N,11627.099550,E,0.000,35.554,240425,,E,A*19,1745469819316
NMEA,$GPGLL,3954.602466,N,11627.099550,E,044339.316,A,A*5C,1745469819316
NMEA,$GPGSA,A,3,17,195,14,194,3,22,6,,,,,,2.360,1.119,2.078*37,1745469819316
NMEA,$BDGSA,A,3,207,210,240,238,229,245,,,,,,,2.360,1.119,2.078*22,1745469819316
NMEA,$GAGSA,A,3,119,,,,,,,,,,,,2.360,1.119,2.078*18,1745469819316
NMEA,$GPGSV,4,1,15,17,72,31,17.2,195,70,85,23.2,19,57,315,35.7,14,52,180,34.5*4C,1745469819316
NMEA,$GPGSV,4,2,15,194,51,148,35.9,3,41,61,23.3,1,21,52,14.5,11,12,241,20.2*43,1745469819316
NMEA,$GPGSV,4,3,15,22,70,213,38.5,6,43,251,37.2,196,23,142,18.0,4,1,111,0.0*47,1745469819316
NMEA,$GPGSV,4,4,15,24,7,299,0.0,193,1,,0.0,47,1,,0.0*68,1745469819316
NMEA,$BDGSV,4,1,16,207,84,341,34.0,210,72,306,23.2,209,12,214,26.5,203,42,189,28.3*62,1745469819316
NMEA,$BDGSV,4,2,16,240,72,52,31.1,238,43,176,32.0,229,39,284,40.5,236,39,231,26.2*56,1745469819316
NMEA,$BDGSV,4,3,16,245,32,294,34.7,227,23,73,26.1,201,35,140,0.0,202,30,222,0.0*53,1745469819316
NMEA,$BDGSV,4,4,16,204,26,123,0.0,205,14,246,0.0,206,4,201,0.0,213,19,191,0.0*5D,1745469819316
NMEA,$GAGSV,2,1,8,130,79,349,35.0,96,73,251,38.5,128,38,242,18.5,119,36,158,25.1*6A,1745469819316
NMEA,$GAGSV,2,2,8,110,14,151,15.6,105,32,47,0.0,107,15,296,0.0,124,63,323,0.0*5B,1745469819316
NMEA,$GPVTG,35.554,T,,M,0.000,N,0.000,K,A*3F,1745469819316
NMEA,$RD_RSSI, 810, 825, 0, 0,1745469819316
NMEA,$GPGGA,044340.316,3954.601577,N,11627.098376,E,1,14,1.068,54.353,M,0,M,,*46,1745469820316
NMEA,$GPRMC,044340.316,A,3954.601577,N,11627.098376,E,0.367,35.554,240425,,E,A*14,1745469820316
NMEA,$GPGLL,3954.601577,N,11627.098376,E,044340.316,A,A*53,1745469820316
NMEA,$GPGSA,A,3,17,195,14,194,22,6,,,,,,,1.935,1.068,1.614*05,1745469820316
NMEA,$BDGSA,A,3,207,210,240,238,229,245,227,,,,,,1.935,1.068,1.614*14,1745469820316
NMEA,$GAGSA,A,3,119,,,,,,,,,,,,1.935,1.068,1.614*19,1745469820316
NMEA,$GPGSV,4,1,15,17,72,31,18.8,195,70,85,24.7,19,57,315,32.2,14,52,180,36.7*49,1745469820316
NMEA,$GPGSV,4,2,15,194,51,148,35.2,3,41,61,25.2,1,21,52,16.2,11,12,241,25.7*4A,1745469820316
NMEA,$GPGSV,4,3,15,22,70,213,39.2,6,43,251,38.0,196,23,142,18.2,4,1,111,0.0*4E,1745469820316
NMEA,$GPGSV,4,4,15,24,7,299,0.0,193,1,,0.0,47,1,,0.0*68,1745469820316
NMEA,$BDGSV,4,1,16,207,84,341,33.9,210,72,306,25.2,213,19,191,25.5,209,12,214,27.6*65,1745469820316
NMEA,$BDGSV,4,2,16,203,42,189,32.2,240,72,52,33.7,238,43,176,28.2,229,39,284,40.5*54,1745469820316
NMEA,$BDGSV,4,3,16,236,39,231,26.7,245,32,294,32.5,227,23,73,24.8,201,35,140,0.0*63,1745469820316
NMEA,$BDGSV,4,4,16,202,30,222,0.0,204,26,123,0.0,205,14,246,0.0,206,4,201,0.0*5D,1745469820316
NMEA,$GAGSV,2,1,8,130,79,349,33.0,96,73,251,40.7,128,38,242,23.3,119,36,158,25.1*6F,1745469820316
NMEA,$GAGSV,2,2,8,110,14,151,16.1,105,32,47,0.0,107,15,296,0.0,124,63,323,0.0*5F,1745469820316
NMEA,$GPVTG,35.554,T,,M,0.367,N,0.680,K,A*33,1745469820316
NMEA,$RD_RSSI, 733, 787, 0, 0,1745469820316
NMEA,$GPGGA,044341.316,3954.600167,N,11627.096861,E,1,16,0.920,60.210,M,0,M,,*47,1745469821316
NMEA,$GPRMC,044341.316,A,3954.600167,N,11627.096861,E,1.254,230.061,240425,,E,A*26,1745469821316
NMEA,$GPGLL,3954.600167,N,11627.096861,E,044341.316,A,A*55,1745469821316
NMEA,$GPGSA,A,3,17,195,19,14,194,3,22,6,,,,,1.805,0.920,1.552*39,1745469821316
NMEA,$BDGSA,A,3,207,210,240,238,229,245,227,,,,,,1.805,0.920,1.552*13,1745469821316
NMEA,$GAGSA,A,3,119,,,,,,,,,,,,1.805,0.920,1.552*1E,1745469821316
NMEA,$GPGSV,4,1,15,17,72,31,20.8,195,70,85,23.0,19,57,315,32.4,14,52,180,36.2*41,1745469821316
NMEA,$GPGSV,4,2,15,194,51,148,35.5,3,41,61,26.7,1,21,52,17.1,11,12,241,26.5*48,1745469821316
NMEA,$GPGSV,4,3,15,22,70,213,40.2,6,43,251,38.5,196,23,142,18.3,4,1,111,0.0*44,1745469821316
NMEA,$GPGSV,4,4,15,24,7,299,0.0,193,1,,0.0,47,1,,0.0*68,1745469821316
NMEA,$BDGSV,4,1,16,207,84,341,32.5,210,72,306,24.2,209,12,214,26.6,203,42,189,32.2*6F,1745469821316
NMEA,$BDGSV,4,2,16,240,72,52,33.7,238,43,176,28.8,229,39,284,38.7,236,39,231,24.7*5B,1745469821316
NMEA,$BDGSV,4,3,16,245,32,294,31.3,227,23,73,24.5,201,35,140,0.0,202,30,222,0.0*54,1745469821316
NMEA,$BDGSV,4,4,16,204,26,123,0.0,205,14,246,0.0,206,4,201,0.0,213,19,191,0.0*5D,1745469821316
NMEA,$GAGSV,2,1,8,130,79,349,31.2,96,73,251,41.4,128,38,242,24.2,119,36,158,25.0*6A,1745469821316
NMEA,$GAGSV,2,2,8,110,13,151,16.5,105,32,47,0.0,107,15,296,0.0,124,63,323,0.0*5C,1745469821316
NMEA,$GPVTG,230.061,T,,M,1.254,N,2.323,K,A*09,1745469821316
NMEA,$RD_RSSI, 716, 801, 0, 0,1745469821316
NMEA,$GPGGA,044342.316,3954.599090,N,11627.095015,E,1,16,0.920,64.900,M,0,M,,*48,1745469822316
NMEA,$GPRMC,044342.316,A,3954.599090,N,11627.095015,E,0.062,230.061,240425,,E,A*21,1745469822316
NMEA,$GPGLL,3954.599090,N,11627.095015,E,044342.316,A,A*54,1745469822316
NMEA,$GPGSA,A,3,17,195,19,14,194,3,22,6,,,,,1.805,0.920,1.552*39,1745469822316
NMEA,$BDGSA,A,3,207,210,240,238,229,245,227,,,,,,1.805,0.920,1.552*13,1745469822316
NMEA,$GAGSA,A,3,119,,,,,,,,,,,,1.805,0.920,1.552*1E,1745469822316
NMEA,$GPGSV,4,1,15,17,72,31,19.7,195,70,85,19.2,19,57,315,33.5,14,52,180,36.7*4A,1745469822316
NMEA,$GPGSV,4,2,15,194,51,148,37.5,3,41,61,29.3,1,21,52,18.2,11,12,241,26.7*4F,1745469822316
NMEA,$GPGSV,4,3,15,22,70,213,40.2,6,43,251,40.0,196,23,142,18.0,4,1,111,0.0*4D,1745469822316
NMEA,$GPGSV,4,4,15,24,7,299,0.0,193,1,,0.0,47,1,,0.0*68,1745469822316
NMEA,$BDGSV,4,1,16,207,84,341,32.7,210,72,306,23.0,209,12,214,26.2,203,42,189,31.7*6A,1745469822316
NMEA,$BDGSV,4,2,16,240,72,52,32.7,238,43,176,27.8,229,39,284,39.5,236,39,231,29.8*54,1745469822316
NMEA,$BDGSV,4,3,16,245,32,294,28.3,227,23,73,24.7,201,35,140,0.0,202,30,222,0.0*5E,1745469822316
NMEA,$BDGSV,4,4,16,204,26,123,0.0,205,14,246,0.0,206,4,201,0.0,213,19,191,0.0*5D,1745469822316
NMEA,$GAGSV,2,1,8,130,79,349,30.5,96,73,251,40.9,128,38,242,24.8,119,36,158,24.1*6A,1745469822316
NMEA,$GAGSV,2,2,8,110,13,151,16.7,105,32,47,0.0,107,15,296,0.0,124,63,323,0.0*5E,1745469822316
NMEA,$GPVTG,230.061,T,,M,0.062,N,0.115,K,A*0A,1745469822316
NMEA,$RD_RSSI, 744, 797, 0, 0,1745469822316
NMEA,$GPGGA,044343.316,3954.598482,N,11627.093758,E,1,17,0.888,68.184,M,0,M,,*4D,1745469823316
NMEA,$GPRMC,044343.316,A,3954.598482,N,11627.093758,E,0.354,230.061,240425,,E,A*28,1745469823316
NMEA,$GPGLL,3954.598482,N,11627.093758,E,044343.316,A,A*5B,1745469823316
NMEA,$GPGSA,A,3,17,195,19,14,194,3,22,6,,,,,1.788,0.888,1.552*30,1745469823316
NMEA,$BDGSA,A,3,207,210,240,238,229,245,227,,,,,,1.788,0.888,1.552*1A,1745469823316
NMEA,$GAGSA,A,3,128,119,,,,,,,,,,,1.788,0.888,1.552*2C,1745469823316
NMEA,$GPGSV,4,1,15,17,72,31,19.2,195,70,85,24.2,19,57,315,32.7,14,52,180,36.0*45,1745469823316
NMEA,$GPGSV,4,2,15,194,51,148,38.5,3,41,61,29.2,1,21,52,20.5,11,12,241,25.2*4B,1745469823316
NMEA,$GPGSV,4,3,15,22,70,213,39.9,6,43,251,39.4,196,23,142,18.0,4,1,111,0.0*42,1745469823316
NMEA,$GPGSV,4,4,15,24,7,299,0.0,193,1,,0.0,47,1,,0.0*68,1745469823316
NMEA,$BDGSV,4,1,16,207,84,341,32.4,210,72,306,23.2,213,19,191,13.1,209,12,214,26.2*6B,1745469823316
NMEA,$BDGSV,4,2,16,203,42,189,31.0,240,72,52,31.3,238,43,176,26.5,229,39,284,39.7*56,1745469823316
NMEA,$BDGSV,4,3,16,236,39,231,30.7,245,32,294,25.0,227,23,73,25.1,201,35,140,0.0*6F,1745469823316
NMEA,$BDGSV,4,4,16,202,30,222,0.0,204,26,123,0.0,205,14,246,0.0,206,4,201,0.0*5D,1745469823316
NMEA,$GAGSV,2,1,8,130,79,349,32.5,96,73,251,40.5,128,38,242,24.8,119,36,158,27.2*64,1745469823316
NMEA,$GAGSV,2,2,8,110,13,151,17.1,105,32,47,0.0,107,15,296,0.0,124,63,323,0.0*59,1745469823316
NMEA,$GPVTG,230.061,T,,M,0.354,N,0.655,K,A*0F,1745469823316
NMEA,$RD_RSSI, 711, 772, 0, 0,1745469823316
NMEA,$GPGGA,044344.316,3954.598102,N,11627.092749,E,1,17,0.888,70.429,M,0,M,,*4D,1745469824316
NMEA,$GPRMC,044344.316,A,3954.598102,N,11627.092749,E,0.000,230.061,240425,,E,A*21,1745469824316
NMEA,$GPGLL,3954.598102,N,11627.092749,E,044344.316,A,A*50,1745469824316
NMEA,$GPGSA,A,3,17,195,19,14,194,3,22,6,,,,,1.788,0.888,1.552*30,1745469824316
NMEA,$BDGSA,A,3,207,210,240,238,229,245,227,,,,,,1.788,0.888,1.552*1A,1745469824316
NMEA,$GAGSA,A,3,128,119,,,,,,,,,,,1.788,0.888,1.552*2C,1745469824316
NMEA,$GPGSV,4,1,15,17,72,31,20.2,195,70,85,21.6,19,57,315,31.0,14,52,180,36.5*4F,1745469824316
NMEA,$GPGSV,4,2,15,194,51,148,37.4,3,41,61,27.7,1,21,52,19.3,11,12,241,24.2*43,1745469824316
NMEA,$GPGSV,4,3,15,22,70,213,40.7,6,43,251,38.2,196,23,142,17.7,4,1,111,0.0*4D,1745469824316
NMEA,$GPGSV,4,4,15,24,7,299,0.0,193,1,,0.0,47,1,,0.0*68,1745469824316
NMEA,$BDGSV,4,1,16,207,84,341,33.0,210,72,306,23.6,213,19,191,14.3,209,12,214,25.7*69,1745469824316
NMEA,$BDGSV,4,2,16,203,42,189,32.2,240,72,52,31.3,238,43,176,22.5,229,39,284,39.9*5D,1745469824316
NMEA,$BDGSV,4,3,16,236,39,231,29.8,245,32,294,22.2,227,23,73,25.0,201,35,140,0.0*6C,1745469824316
NMEA,$BDGSV,4,4,16,202,30,222,0.0,204,26,123,0.0,205,14,246,0.0,206,4,201,0.0*5D,1745469824316
NMEA,$GAGSV,2,1,8,130,79,349,30.7,96,73,251,40.2,128,38,242,24.3,119,36,158,27.7*6D,1745469824316
NMEA,$GAGSV,2,2,8,110,13,151,17.1,105,32,47,0.0,107,15,296,0.0,124,63,323,0.0*59,1745469824316
NMEA,$GPVTG,230.061,T,,M,0.000,N,0.000,K,A*0B,1745469824316
NMEA,$RD_RSSI, 704, 792, 0, 0,1745469824316
NMEA,$GPGGA,044345.316,3954.597942,N,11627.092072,E,1,15,1.036,71.036,M,0,M,,*45,1745469825316
NMEA,$GPRMC,044345.316,A,3954.597942,N,11627.092072,E,0.288,230.061,240425,,E,A*2E,1745469825316
NMEA,$GPGLL,3954.597942,N,11627.092072,E,044345.316,A,A*5D,1745469825316
NMEA,$GPGSA,A,3,17,195,19,14,194,3,22,6,,,,,2.588,1.036,2.371*39,1745469825316
NMEA,$BDGSA,A,3,207,210,240,238,229,,,,,,,,2.588,1.036,2.371*17,1745469825316
NMEA,$GAGSA,A,3,128,119,,,,,,,,,,,2.588,1.036,2.371*25,1745469825316
NMEA,$GPGSV,4,1,15,17,72,31,18.6,195,70,85,20.2,19,57,315,27.6,14,52,180,36.5*44,1745469825316
NMEA,$GPGSV,4,2,15,194,51,148,37.4,3,41,61,26.5,1,21,52,16.5,11,12,241,24.8*43,1745469825316
NMEA,$GPGSV,4,3,15,22,70,213,39.5,6,43,251,38.7,196,23,142,17.7,4,1,111,0.0*44,1745469825316
NMEA,$GPGSV,4,4,15,24,7,299,0.0,193,1,,0.0,47,1,,0.0*68,1745469825316
NMEA,$BDGSV,4,1,16,207,84,341,32.7,210,72,306,24.2,213,19,191,23.5,209,12,214,24.2*6A,1745469825316
NMEA,$BDGSV,4,2,16,203,42,189,32.2,240,72,52,30.2,238,43,176,23.2,229,39,284,39.7*55,1745469825316
NMEA,$BDGSV,4,3,16,236,39,231,30.1,245,32,294,22.6,227,23,73,22.3,201,35,140,0.0*6D,1745469825316
NMEA,$BDGSV,4,4,16,202,30,222,0.0,204,26,123,0.0,205,14,246,0.0,206,4,201,0.0*5D,1745469825316
NMEA,$GAGSV,2,1,8,130,79,349,31.5,96,73,251,40.2,128,38,242,22.0,119,36,158,26.6*6B,1745469825316
NMEA,$GAGSV,2,2,8,110,13,151,16.8,105,32,47,0.0,107,15,296,0.0,124,63,323,0.0*51,1745469825316
NMEA,$GPVTG,230.061,T,,M,0.288,N,0.534,K,A*0B,1745469825316
NMEA,$RD_RSSI, 721, 826, 0, 0,1745469825316
NMEA,$GPGGA,044346.316,3954.597931,N,11627.091599,E,1,17,0.888,72.480,M,0,M,,*45,1745469826316
NMEA,$GPRMC,044346.316,A,3954.597931,N,11627.091599,E,0.000,230.061,240425,,E,A*28,1745469826316
NMEA,$GPGLL,3954.597931,N,11627.091599,E,044346.316,A,A*59,1745469826316
NMEA,$GPGSA,A,3,17,195,19,14,194,3,22,6,,,,,1.788,0.888,1.552*30,1745469826316
NMEA,$BDGSA,A,3,207,210,240,238,229,245,227,,,,,,1.788,0.888,1.552*1A,1745469826316
NMEA,$GAGSA,A,3,128,119,,,,,,,,,,,1.788,0.888,1.552*2C,1745469826316
NMEA,$GPGSV,4,1,15,17,72,31,20.5,195,70,85,17.7,19,57,315,30.5,14,52,180,37.2*4E,1745469826316
NMEA,$GPGSV,4,2,15,194,51,148,38.2,3,41,61,28.2,1,21,52,14.6,11,12,241,23.6*4B,1745469826316
NMEA,$GPGSV,4,3,15,22,70,213,39.0,6,43,251,37.5,196,23,142,17.7,4,1,111,0.0*4C,1745469826316
NMEA,$GPGSV,4,4,15,24,7,299,0.0,193,1,,0.0,47,1,,0.0*68,1745469826316
NMEA,$BDGSV,4,1,16,207,84,341,33.0,210,72,306,25.5,209,12,214,24.7,203,42,189,31.7*68,1745469826316
NMEA,$BDGSV,4,2,16,240,72,52,32.5,238,44,176,24.5,229,39,284,40.0,236,39,231,29.7*5B,1745469826316
NMEA,$BDGSV,4,3,16,245,32,294,29.0,227,23,73,24.8,201,35,140,0.0,202,30,222,0.0*53,1745469826316
NMEA,$BDGSV,4,4,16,204,26,123,0.0,205,14,246,0.0,206,4,201,0.0,213,19,191,0.0*5D,1745469826316
NMEA,$GAGSV,2,1,8,130,79,349,30.3,96,73,251,40.4,128,38,242,23.3,119,36,158,26.0*6E,1745469826316
NMEA,$GAGSV,2,2,8,110,13,151,16.6,105,32,47,0.0,107,15,296,0.0,124,63,323,0.0*5F,1745469826316
NMEA,$GPVTG,230.061,T,,M,0.000,N,0.000,K,A*0B,1745469826316
NMEA,$RD_RSSI, 772, 847, 0, 0,1745469826316
NMEA,$GPGGA,044347.316,3954.598364,N,11627.091398,E,1,16,1.002,73.320,M,0,M,,*40,1745469827316
NMEA,$GPRMC,044347.316,A,3954.598364,N,11627.091398,E,0.350,230.061,240425,,E,A*2D,1745469827316
NMEA,$GPGLL,3954.598364,N,11627.091398,E,044347.316,A,A*5A,1745469827316
NMEA,$GPGSA,A,3,17,195,19,14,194,3,22,6,,,,,2.261,1.002,2.026*3F,1745469827316
NMEA,$BDGSA,A,3,207,210,240,238,229,245,,,,,,,2.261,1.002,2.026*22,1745469827316
NMEA,$GAGSA,A,3,128,119,,,,,,,,,,,2.261,1.002,2.026*23,1745469827316
NMEA,$GPGSV,4,1,15,17,72,31,15.8,195,70,85,19.0,19,57,315,32.7,14,52,180,38.4*45,1745469827316
NMEA,$GPGSV,4,2,15,194,51,148,38.4,3,41,61,27.0,1,21,52,14.6,11,12,241,20.5*40,1745469827316
NMEA,$GPGSV,4,3,15,22,70,213,39.0,6,43,251,37.5,196,23,142,17.6,4,1,111,0.0*4D,1745469827316
NMEA,$GPGSV,4,4,15,24,7,299,0.0,193,1,,0.0,47,1,,0.0*68,1745469827316
NMEA,$BDGSV,4,1,16,207,84,341,30.6,210,72,306,24.7,213,19,191,28.1,209,12,214,25.3*63,1745469827316
NMEA,$BDGSV,4,2,16,203,42,189,31.8,240,72,52,32.4,238,44,176,22.8,229,39,284,37.2*5F,1745469827316
NMEA,$BDGSV,4,3,16,236,39,231,27.7,245,32,294,31.0,227,23,73,24.1,201,35,140,0.0*6D,1745469827316
NMEA,$BDGSV,4,4,16,202,30,222,0.0,204,26,123,0.0,205,14,246,0.0,206,4,201,0.0*5D,1745469827316
NMEA,$GAGSV,2,1,8,130,79,349,30.2,96,73,251,40.7,128,38,242,23.0,119,36,158,27.1*6F,1745469827316
NMEA,$GAGSV,2,2,8,110,13,151,11.5,105,32,47,0.0,107,15,296,0.0,124,63,323,0.0*5B,1745469827316
NMEA,$GPVTG,230.061,T,,M,0.350,N,0.649,K,A*06,1745469827316
NMEA,$RD_RSSI, 744, 816, 0, 0,1745469827316
NMEA,$GPGGA,044348.316,3954.598973,N,11627.091365,E,1,17,0.888,73.317,M,0,M,,*4F,1745469828316
NMEA,$GPRMC,044348.316,A,3954.598973,N,11627.091365,E,0.000,230.061,240425,,E,A*2A,1745469828316
NMEA,$GPGLL,3954.598973,N,11627.091365,E,044348.316,A,A*5B,1745469828316
NMEA,$GPGSA,A,3,17,195,19,14,194,3,22,6,,,,,1.788,0.888,1.552*30,1745469828316
NMEA,$BDGSA,A,3,207,210,240,238,229,245,227,,,,,,1.788,0.888,1.552*1A,1745469828316
NMEA,$GAGSA,A,3,128,119,,,,,,,,,,,1.788,0.888,1.552*2C,1745469828316
NMEA,$GPGSV,4,1,15,17,72,31,17.2,195,70,85,18.1,19,57,315,32.7,14,52,180,37.7*41,1745469828316
NMEA,$GPGSV,4,2,15,194,51,148,37.2,3,41,61,25.3,1,21,52,14.6,11,12,241,20.8*45,1745469828316
NMEA,$GPGSV,4,3,15,22,70,213,38.7,6,44,251,37.9,196,23,142,17.7,4,1,111,0.0*41,1745469828316
NMEA,$GPGSV,4,4,15,24,7,299,0.0,193,1,,0.0,47,1,,0.0*68,1745469828316
NMEA,$BDGSV,4,1,16,207,84,341,32.5,210,72,306,23.5,209,12,214,26.1,203,42,189,31.2*6B,1745469828316
NMEA,$BDGSV,4,2,16,240,72,52,32.0,238,44,176,27.0,229,39,284,36.2,236,39,231,27.1*53,1745469828316
NMEA,$BDGSV,4,3,16,245,32,293,32.0,227,23,73,23.7,201,35,140,0.0,202,30,222,0.0*56,1745469828316
NMEA,$BDGSV,4,4,16,204,26,123,0.0,205,14,246,0.0,206,4,201,0.0,213,19,191,0.0*5D,1745469828316
NMEA,$GAGSV,2,1,8,130,79,349,29.5,96,73,251,41.0,128,38,242,21.6,119,36,158,26.0*62,1745469828316
NMEA,$GAGSV,2,2,8,110,13,151,12.8,105,32,47,0.0,107,15,296,0.0,124,63,323,0.0*55,1745469828316
NMEA,$GPVTG,230.061,T,,M,0.000,N,0.000,K,A*0B,1745469828316
NMEA,$RD_RSSI, 722, 806, 0, 0,1745469828316
NMEA,$GPGGA,044349.316,3954.599615,N,11627.091263,E,1,17,0.888,73.168,M,0,M,,*4D,1745469829316
NMEA,$GPRMC,044349.316,A,3954.599615,N,11627.091263,E,0.000,230.061,240425,,E,A*22,1745469829316
NMEA,$GPGLL,3954.599615,N,11627.091263,E,044349.316,A,A*53,1745469829316
NMEA,$GPGSA,A,3,17,195,19,14,194,3,22,6,,,,,1.788,0.888,1.552*30,1745469829316
NMEA,$BDGSA,A,3,207,210,240,238,229,245,227,,,,,,1.788,0.888,1.552*1A,1745469829316
NMEA,$GAGSA,A,3,128,119,,,,,,,,,,,1.788,0.888,1.552*2C,1745469829316
NMEA,$GPGSV,4,1,15,17,72,31,15.8,195,70,85,20.2,19,57,315,34.4,14,52,180,37.0*43,1745469829316
NMEA,$GPGSV,4,2,15,194,51,148,37.0,3,41,61,24.0,1,21,52,14.3,11,12,241,18.1*42,1745469829316
NMEA,$GPGSV,4,3,15,22,70,213,38.5,6,44,251,38.5,196,23,142,17.5,4,1,111,0.0*42,1745469829316
NMEA,$GPGSV,4,4,15,24,7,299,0.0,193,1,,0.0,47,1,,0.0*68,1745469829316
NMEA,$BDGSV,4,1,16,207,84,341,32.7,210,72,306,22.1,213,19,191,25.7,209,12,214,26.5*6E,1745469829316
NMEA,$BDGSV,4,2,16,203,42,189,30.8,240,72,52,31.7,238,44,176,26.8,229,39,284,35.5*5F,1745469829316
NMEA,$BDGSV,4,3,16,236,39,231,27.8,245,32,293,33.4,227,23,73,24.1,201,35,140,0.0*63,1745469829316
NMEA,$BDGSV,4,4,16,202,30,222,0.0,204,26,123,0.0,205,14,246,0.0,206,4,201,0.0*5D,1745469829316
NMEA,$GAGSV,2,1,8,130,79,349,29.2,96,73,251,41.5,128,38,242,23.3,119,36,158,26.2*65,1745469829316
NMEA,$GAGSV,2,2,8,110,13,151,12.8,105,32,47,0.0,107,15,296,0.0,124,63,323,0.0*55,1745469829316
NMEA,$GPVTG,230.061,T,,M,0.000,N,0.000,K,A*0B,1745469829316
NMEA,$RD_RSSI, 747, 821, 0, 0,1745469829316
NMEA,$GPGGA,044350.316,3954.600243,N,11627.091331,E,1,18,0.863,72.663,M,0,M,,*40,1745469829316
NMEA,$GPRMC,044350.316,A,3954.600243,N,11627.091331,E,0.000,230.061,240425,,E,A*28,1745469830316
NMEA,$GPGLL,3954.600243,N,11627.091331,E,044350.316,A,A*59,1745469830316
NMEA,$GPGSA,A,3,17,195,19,14,194,3,22,6,,,,,1.671,0.863,1.431*36,1745469830316
NMEA,$BDGSA,A,3,207,210,240,238,229,245,227,,,,,,1.671,0.863,1.431*1C,1745469830316
NMEA,$GAGSA,A,3,130,96,119,,,,,,,,,,1.671,0.863,1.431*2C,1745469830316
NMEA,$GPGSV,4,1,15,17,72,31,15.5,195,70,85,20.7,19,57,315,31.7,14,52,180,38.2*40,1745469830316
NMEA,$GPGSV,4,2,15,194,51,148,38.0,3,41,61,26.7,1,21,52,14.5,11,12,241,18.5*4A,1745469830316
NMEA,$GPGSV,4,3,15,22,70,213,39.4,6,44,251,40.5,196,23,142,17.2,4,1,111,0.0*4A,1745469830316
NMEA,$GPGSV,4,4,15,24,7,299,0.0,193,1,,0.0,47,1,,0.0*68,1745469830316
NMEA,$BDGSV,4,1,16,207,84,341,32.0,210,72,306,21.1,213,19,191,25.7,209,12,214,27.2*6C,1745469830316
NMEA,$BDGSV,4,2,16,203,42,189,31.8,240,72,53,29.8,238,44,176,23.8,229,39,284,36.0*5A,1745469830316
NMEA,$BDGSV,4,3,16,236,39,231,29.7,245,32,293,33.2,227,23,73,23.2,201,35,140,0.0*60,1745469830316
NMEA,$BDGSV,4,4,16,202,30,222,0.0,204,26,123,0.0,205,14,246,0.0,206,4,201,0.0*5D,1745469830316
NMEA,$GAGSV,2,1,8,130,79,349,30.6,96,73,251,42.0,128,38,242,24.5,119,36,158,25.3*6C,1745469830316
NMEA,$GAGSV,2,2,8,110,13,151,13.3,105,32,47,0.0,107,15,296,0.0,124,63,323,0.0*5F,1745469830316
NMEA,$GPVTG,230.061,T,,M,0.000,N,0.000,K,A*0B,1745469830316
NMEA,$RD_RSSI, 734, 833, 0, 0,1745469830316
NMEA,$GPGGA,044351.316,3954.600797,N,11627.091385,E,1,19,0.812,72.306,M,0,M,,*43,1745469831316
NMEA,$GPRMC,044351.316,A,3954.600797,N,11627.091385,E,0.493,230.061,240425,,E,A*24,1745469831316
NMEA,$GPGLL,3954.600797,N,11627.091385,E,044351.316,A,A*5B,1745469831316
NMEA,$GPGSA,A,3,17,195,19,14,194,3,1,22,6,,,,1.491,0.812,1.250*0C,1745469831316
NMEA,$BDGSA,A,3,207,210,240,238,229,245,227,,,,,,1.491,0.812,1.250*17,1745469831316
NMEA,$GAGSA,A,3,130,96,119,,,,,,,,,,1.491,0.812,1.250*27,1745469831316
NMEA,$GPGSV,4,1,15,17,72,31,15.1,195,70,85,22.7,19,57,315,31.1,14,52,180,37.7*4A,1745469831316
NMEA,$GPGSV,4,2,15,194,51,148,37.9,3,41,61,27.2,1,21,52,16.7,11,12,241,19.6*4A,1745469831316
NMEA,$GPGSV,4,3,15,22,70,213,39.2,6,44,251,38.4,196,23,142,21.7,4,1,111,0.0*42,1745469831316
NMEA,$GPGSV,4,4,15,24,7,299,0.0,193,1,,0.0,47,1,,0.0*68,1745469831316
NMEA,$BDGSV,4,1,16,207,84,341,31.6,210,72,306,19.0,209,12,214,27.1,203,42,189,32.2*65,1745469831316
NMEA,$BDGSV,4,2,16,240,72,53,29.7,238,44,176,22.7,229,39,284,36.2,236,39,231,31.1*5A,1745469831316
NMEA,$BDGSV,4,3,16,245,32,293,34.4,227,23,73,24.2,201,35,140,0.0,202,30,222,0.0*56,1745469831316
NMEA,$BDGSV,4,4,16,204,26,123,0.0,205,14,246,0.0,206,4,201,0.0,213,19,191,0.0*5D,1745469831316
NMEA,$GAGSV,2,1,8,130,79,349,30.2,96,73,251,41.2,128,38,242,22.7,119,36,159,20.7*6D,1745469831316
NMEA,$GAGSV,2,2,8,110,13,151,13.3,105,32,47,0.0,107,15,296,0.0,124,63,323,0.0*5F,1745469831316
NMEA,$GPVTG,230.061,T,,M,0.493,N,0.914,K,A*09,1745469831316
NMEA,$RD_RSSI, 745, 822, 0, 0,1745469831316
NMEA,$GPGGA,044352.215,3954.601003,N,11627.091161,E,1,19,0.812,72.079,M,0,M,,*4A,1745469832215
NMEA,$GPRMC,044352.215,A,3954.601003,N,11627.091161,E,0.000,230.061,240425,,E,A*28,1745469832215
NMEA,$GPGLL,3954.601003,N,11627.091161,E,044352.215,A,A*59,1745469832215
NMEA,$GPGSA,A,3,17,195,19,14,194,3,1,22,6,,,,1.491,0.812,1.250*0C,1745469832215
NMEA,$BDGSA,A,3,207,210,240,238,229,245,227,,,,,,1.491,0.812,1.250*17,1745469832215
NMEA,$GAGSA,A,3,130,96,119,,,,,,,,,,1.491,0.812,1.250*27,1745469832215
NMEA,$GPGSV,4,1,15,17,72,31,15.1,195,70,85,22.5,19,57,315,31.7,14,52,180,39.9*4E,1745469832215
NMEA,$GPGSV,4,2,15,194,51,148,37.2,3,41,61,26.7,1,21,52,18.0,11,12,241,18.7*4C,1745469832215
NMEA,$GPGSV,4,3,15,22,70,213,38.7,6,44,251,38.2,196,23,142,21.6,4,1,111,0.0*41,1745469832215
NMEA,$GPGSV,4,4,15,24,7,299,0.0,193,1,,0.0,47,1,,0.0*68,1745469832215
NMEA,$BDGSV,4,1,16,207,84,341,31.1,210,72,306,18.8,213,19,191,28.1,209,12,214,26.7*62,1745469832215
NMEA,$BDGSV,4,2,16,203,42,189,32.5,240,72,53,29.6,238,44,176,21.7,229,39,284,37.0*56,1745469832215
NMEA,$BDGSV,4,3,16,236,39,231,29.7,245,32,293,34.4,227,23,73,24.7,201,35,140,0.0*63,1745469832215
NMEA,$BDGSV,4,4,16,202,30,222,0.0,204,26,123,0.0,205,14,246,0.0,206,4,201,0.0*5D,1745469832215
NMEA,$GAGSV,2,1,8,130,79,349,32.0,96,73,251,41.2,128,38,242,21.8,119,36,159,19.6*6A,1745469832215
NMEA,$GAGSV,2,2,8,110,13,151,13.1,105,32,47,0.0,107,15,296,0.0,124,63,323,0.0*5D,1745469832215
NMEA,$GPVTG,230.061,T,,M,0.000,N,0.000,K,A*0B,1745469832215
NMEA,$RD_RSSI, 773, 833, 0, 0,1745469832215
NMEA,$GPGGA,044353.115,3954.601395,N,11627.091229,E,1,19,0.842,71.241,M,0,M,,*44,1745469833115
NMEA,$GPRMC,044353.115,A,3954.601395,N,11627.091229,E,0.000,230.061,240425,,E,A*29,1745469833115
NMEA,$GPGLL,3954.601395,N,11627.091229,E,044353.115,A,A*58,1745469833115
NMEA,$GPGSA,A,3,17,195,19,14,194,3,22,6,196,,,,1.562,0.842,1.315*0B,1745469833115
NMEA,$BDGSA,A,3,207,210,240,238,229,245,227,,,,,,1.562,0.842,1.315*1F,1745469833115
NMEA,$GAGSA,A,3,130,96,119,,,,,,,,,,1.562,0.842,1.315*2F,1745469833115
NMEA,$GPGSV,4,1,15,17,72,31,15.1,195,70,85,22.1,19,57,315,31.2,14,52,180,38.0*47,1745469833115
NMEA,$GPGSV,4,2,15,194,51,148,36.4,3,41,61,26.6,1,21,52,18.3,11,12,241,19.2*4D,1745469833115
NMEA,$GPGSV,4,3,15,22,70,213,38.7,6,44,251,37.0,196,23,142,21.3,4,1,111,0.0*49,1745469833115
NMEA,$GPGSV,4,4,15,24,7,299,0.0,193,1,,0.0,47,1,,0.0*68,1745469833115
NMEA,$BDGSV,4,1,16,207,84,341,32.5,210,72,306,18.8,209,12,214,25.8,203,42,189,31.7*61,1745469833115
NMEA,$BDGSV,4,2,16,240,72,53,31.0,238,44,176,24.6,229,39,284,38.7,236,39,231,29.5*55,1745469833115
NMEA,$BDGSV,4,3,16,245,32,293,34.2,227,23,73,23.1,201,35,140,0.0,202,30,222,0.0*54,1745469833115
NMEA,$BDGSV,4,4,16,204,26,123,0.0,205,14,246,0.0,206,4,201,0.0,213,19,191,0.0*5D,1745469833115
NMEA,$GAGSV,2,1,8,130,79,349,32.4,96,73,251,40.9,128,38,242,20.3,119,36,159,23.2*63,1745469833115
NMEA,$GAGSV,2,2,8,110,13,151,13.6,105,32,47,0.0,107,15,296,0.0,124,63,323,0.0*5A,1745469833115
NMEA,$GPVTG,230.061,T,,M,0.000,N,0.000,K,A*0B,1745469833115
NMEA,$RD_RSSI, 762, 896, 0, 0,1745469833115
NMEA,$GPGGA,044354.015,3954.601733,N,11627.091301,E,1,19,0.842,70.744,M,0,M,,*40,1745469834015
NMEA,$GPRMC,044354.015,A,3954.601733,N,11627.091301,E,0.253,230.061,240425,,E,A*28,1745469834015
NMEA,$GPGLL,3954.601733,N,11627.091301,E,044354.015,A,A*5D,1745469834015
NMEA,$GPGSA,A,3,17,195,19,14,194,3,22,6,196,,,,1.562,0.842,1.315*0B,1745469834015
NMEA,$BDGSA,A,3,207,210,240,238,229,245,227,,,,,,1.562,0.842,1.315*1F,1745469834015
NMEA,$GAGSA,A,3,130,96,119,,,,,,,,,,1.562,0.842,1.315*2F,1745469834015
NMEA,$GPGSV,4,1,15,17,72,31,14.8,195,70,85,20.6,19,57,315,31.1,14,52,180,36.7*40,1745469834015
NMEA,$GPGSV,4,2,15,194,51,148,37.4,3,41,61,25.5,1,21,52,18.0,11,12,241,15.3*42,1745469834015
NMEA,$GPGSV,4,3,15,22,70,213,38.5,6,44,251,36.7,196,23,142,21.0,4,1,111,0.0*4E,1745469834015
NMEA,$GPGSV,4,4,15,24,7,299,0.0,193,1,,0.0,47,1,,0.0*68,1745469834015
NMEA,$BDGSV,4,1,16,207,84,341,31.1,210,72,306,20.1,209,12,214,25.5,203,42,189,30.7*68,1745469834015
NMEA,$BDGSV,4,2,16,240,72,53,29.2,238,44,176,27.2,229,39,284,39.7,236,39,231,28.7*5B,1745469834015
NMEA,$BDGSV,4,3,16,245,32,293,34.5,227,23,73,24.1,201,35,140,0.0,202,30,222,0.0*54,1745469834015
NMEA,$BDGSV,4,4,16,204,26,123,0.0,205,14,246,0.0,206,4,201,0.0,213,19,191,0.0*5D,1745469834015
NMEA,$GAGSV,2,1,8,130,79,349,32.7,96,73,251,40.5,128,38,242,17.7,119,36,159,23.2*6C,1745469834015
NMEA,$GAGSV,2,2,8,110,13,151,14.3,105,32,47,0.0,107,15,296,0.0,124,63,323,0.0*58,1745469834015
NMEA,$GPVTG,230.061,T,,M,0.253,N,0.468,K,A*05,1745469834015
NMEA,$RD_RSSI, 739, 835, 0, 0,1745469834015
NMEA,$GPGGA,044355.000,3954.601997,N,11627.091293,E,1,18,0.863,70.348,M,0,M,,*45,1745469835000
NMEA,$GPRMC,044355.000,A,3954.601997,N,11627.091293,E,0.405,230.061,240425,,E,A*22,1745469835000
NMEA,$GPGLL,3954.601997,N,11627.091293,E,044355.000,A,A*52,1745469835000
NMEA,$GPGSA,A,3,17,195,19,14,194,3,22,6,,,,,1.671,0.863,1.430*37,1745469835000
NMEA,$BDGSA,A,3,207,210,240,238,229,245,227,,,,,,1.671,0.863,1.430*1D,1745469835000
NMEA,$GAGSA,A,3,130,96,119,,,,,,,,,,1.671,0.863,1.430*2D,1745469835000
NMEA,$GPGSV,4,1,15,17,72,31,16.5,195,70,85,18.5,19,57,315,31.7,14,52,180,38.7*4F,1745469835000
NMEA,$GPGSV,4,2,15,194,51,148,37.0,3,41,61,24.5,1,21,52,15.8,11,12,241,14.6*46,1745469835000
NMEA,$GPGSV,4,3,15,22,70,213,37.7,6,44,251,36.7,196,23,142,20.7,4,1,111,0.0*45,1745469835000
NMEA,$GPGSV,4,4,15,24,7,299,0.0,193,1,,0.0,47,1,,0.0*68,1745469835000
NMEA,$BDGSV,4,1,16,207,84,341,31.7,210,72,306,20.6,213,19,191,25.8,209,12,214,25.2*63,1745469835000
NMEA,$BDGSV,4,2,16,203,42,189,31.2,240,72,53,28.3,238,44,176,24.6,229,39,284,40.5*57,1745469835000
NMEA,$BDGSV,4,3,16,236,39,231,29.1,245,32,293,33.0,227,23,73,23.7,201,35,140,0.0*61,1745469835000
NMEA,$BDGSV,4,4,16,202,30,222,0.0,204,26,123,0.0,205,14,246,0.0,206,4,201,0.0*5D,1745469835000
NMEA,$GAGSV,2,1,8,130,79,349,31.2,96,73,251,40.7,128,38,242,16.7,119,36,159,21.8*61,1745469835000
NMEA,$GAGSV,2,2,8,110,13,151,18.2,105,32,47,0.0,107,15,296,0.0,124,63,323,0.0*55,1745469835000
NMEA,$GPVTG,230.061,T,,M,0.405,N,0.750,K,A*08,1745469835000
NMEA,$RD_RSSI, 695, 775, 0, 0,1745469835000
NMEA,$GPGGA,044356.000,3954.602338,N,11627.091281,E,1,18,0.863,70.460,M,0,M,,*44,1745469835000
NMEA,$GPRMC,044356.000,A,3954.602338,N,11627.091281,E,0.000,230.061,240425,,E,A*2F,1745469836000
NMEA,$GPGLL,3954.602338,N,11627.091281,E,044356.000,A,A*5E,1745469836000
NMEA,$GPGSA,A,3,17,195,19,14,194,3,22,6,,,,,1.671,0.863,1.430*37,1745469836000
NMEA,$BDGSA,A,3,207,210,240,238,229,245,227,,,,,,1.671,0.863,1.430*1D,1745469836000
NMEA,$GAGSA,A,3,130,96,119,,,,,,,,,,1.671,0.863,1.430*2D,1745469836000
NMEA,$GPGSV,4,1,15,17,72,31,16.3,195,70,85,21.7,19,57,315,32.2,14,52,180,39.0*41,1745469836000
NMEA,$GPGSV,4,2,15,194,51,148,34.7,3,41,61,27.0,1,21,52,14.1,11,12,241,17.8*41,1745469836000
NMEA,$GPGSV,4,3,15,22,70,213,38.7,6,44,251,37.2,196,23,142,20.5,4,1,111,0.0*4C,1745469836000
NMEA,$GPGSV,4,4,15,24,7,299,0.0,193,1,,0.0,47,1,,0.0*68,1745469836000
NMEA,$BDGSV,4,1,16,207,84,341,32.2,210,72,306,21.6,209,12,214,25.3,203,42,189,32.0*6D,1745469836000
NMEA,$BDGSV,4,2,16,240,72,53,26.7,238,44,176,24.7,229,39,284,40.4,236,39,231,30.0*54,1745469836000
NMEA,$BDGSV,4,3,16,245,32,293,32.7,227,23,73,22.8,201,35,140,0.0,202,30,222,0.0*5F,1745469836000
NMEA,$BDGSV,4,4,16,204,26,123,0.0,205,14,246,0.0,206,4,201,0.0,213,19,191,0.0*5D,1745469836000
NMEA,$GAGSV,2,1,8,130,79,349,31.7,96,73,251,41.0,128,38,242,16.3,119,36,159,20.6*69,1745469836000
NMEA,$GAGSV,2,2,8,110,13,151,17.8,105,32,47,0.0,107,15,296,0.0,124,63,323,0.0*50,1745469836000
NMEA,$GPVTG,230.061,T,,M,0.000,N,0.000,K,A*0B,1745469836000
NMEA,$RD_RSSI, 718, 793, 0, 0,1745469836000
NMEA,$GPGGA,044357.000,3954.602593,N,11627.091072,E,1,18,0.863,70.894,M,0,M,,*4B,1745469837000
NMEA,$GPRMC,044357.000,A,3954.602593,N,11627.091072,E,0.000,230.061,240425,,E,A*27,1745469837000
NMEA,$GPGLL,3954.602593,N,11627.091072,E,044357.000,A,A*56,1745469837000
NMEA,$GPGSA,A,3,17,195,19,14,194,3,22,6,,,,,1.671,0.863,1.430*37,1745469837000
NMEA,$BDGSA,A,3,207,210,240,238,229,245,227,,,,,,1.671,0.863,1.430*1D,1745469837000
NMEA,$GAGSA,A,3,130,96,119,,,,,,,,,,1.671,0.863,1.430*2D,1745469837000
NMEA,$GPGSV,4,1,15,17,72,31,18.2,24,7,299,22.8,195,70,85,22.1,19,57,315,31.0*70,1745469837000
NMEA,$GPGSV,4,2,15,14,52,180,39.2,194,51,148,35.7,3,41,61,28.6,1,21,52,9.8*75,1745469837000
NMEA,$GPGSV,4,3,15,11,12,241,19.3,22,70,213,39.0,6,44,251,34.5,196,23,142,20.2*72,1745469837000
NMEA,$GPGSV,4,4,15,4,1,111,0.0,193,1,,0.0,47,1,,0.0*5F,1745469837000
NMEA,$BDGSV,4,1,16,207,84,341,33.7,210,72,306,19.7,209,12,214,26.2,203,42,189,31.7*65,1745469837000
NMEA,$BDGSV,4,2,16,240,72,53,27.7,238,44,176,24.5,229,39,284,40.2,236,39,231,30.7*56,1745469837000
NMEA,$BDGSV,4,3,16,245,32,293,34.4,227,23,73,23.8,201,35,140,0.0,202,30,222,0.0*5B,1745469837000
NMEA,$BDGSV,4,4,16,204,26,123,0.0,205,14,246,0.0,206,4,201,0.0,213,19,191,0.0*5D,1745469837000
NMEA,$GAGSV,2,1,8,130,79,349,31.3,96,73,251,41.0,128,38,242,19.2,119,36,159,19.2*6D,1745469837000
NMEA,$GAGSV,2,2,8,110,13,151,19.0,105,32,47,0.0,107,15,296,0.0,124,63,323,0.0*56,1745469837000
NMEA,$GPVTG,230.061,T,,M,0.000,N,0.000,K,A*0B,1745469837000
NMEA,$RD_RSSI, 747, 830, 0, 0,1745469837000
NMEA,$GPGGA,044358.000,3954.602830,N,11627.091033,E,1,18,0.863,71.440,M,0,M,,*41,1745469838000
NMEA,$GPRMC,044358.000,A,3954.602830,N,11627.091033,E,0.397,230.061,240425,,E,A*24,1745469838000
NMEA,$GPGLL,3954.602830,N,11627.091033,E,044358.000,A,A*58,1745469838000
NMEA,$GPGSA,A,3,17,195,19,14,194,3,22,6,,,,,1.671,0.863,1.430*37,1745469838000
NMEA,$BDGSA,A,3,207,210,240,238,229,245,227,,,,,,1.671,0.863,1.430*1D,1745469838000
NMEA,$GAGSA,A,3,130,96,119,,,,,,,,,,1.671,0.863,1.430*2D,1745469838000
NMEA,$GPGSV,4,1,15,17,72,31,18.1,24,7,298,21.7,195,70,85,19.3,19,57,315,32.0*77,1745469838000
NMEA,$GPGSV,4,2,15,14,52,180,40.5,194,51,148,35.5,3,41,61,29.2,1,21,52,11.1*4B,1745469838000
NMEA,$GPGSV,4,3,15,11,12,241,21.2,22,70,213,40.2,6,44,251,37.4,196,23,142,20.5*71,1745469838000
NMEA,$GPGSV,4,4,15,4,1,111,0.0,193,1,,0.0,47,1,,0.0*5F,1745469838000
NMEA,$BDGSV,4,1,16,207,84,341,33.7,210,72,306,21.1,213,19,191,25.7,209,12,214,26.2*6B,1745469838000
NMEA,$BDGSV,4,2,16,203,42,189,32.0,240,72,53,28.3,238,44,176,24.0,229,39,284,40.0*55,1745469838000
NMEA,$BDGSV,4,3,16,236,39,231,31.2,245,32,293,34.5,227,23,73,22.7,201,35,140,0.0*68,1745469838000
NMEA,$BDGSV,4,4,16,202,30,222,0.0,204,26,123,0.0,205,14,246,0.0,206,4,201,0.0*5D,1745469838000
NMEA,$GAGSV,2,1,8,130,79,349,30.8,96,73,251,42.0,128,38,242,19.1,119,36,159,17.1*6A,1745469838000
NMEA,$GAGSV,2,2,8,110,13,151,18.8,105,32,47,0.0,107,15,296,0.0,124,63,323,0.0*5F,1745469838000
NMEA,$GPVTG,230.061,T,,M,0.397,N,0.736,K,A*04,1745469838000
NMEA,$RD_RSSI, 719, 809, 0, 0,1745469838000
NMEA,$GPGGA,044359.000,3954.602982,N,11627.091052,E,1,19,0.842,71.989,M,0,M,,*45,1745469839000
NMEA,$GPRMC,044359.000,A,3954.602982,N,11627.091052,E,0.000,230.061,240425,,E,A*27,1745469839000
NMEA,$GPGLL,3954.602982,N,11627.091052,E,044359.000,A,A*56,1745469839000
NMEA,$GPGSA,A,3,17,195,19,14,194,3,22,6,196,,,,1.562,0.842,1.315*0B,1745469839000
NMEA,$BDGSA,A,3,207,210,240,238,229,245,227,,,,,,1.562,0.842,1.315*1F,1745469839000
NMEA,$GAGSA,A,3,130,96,119,,,,,,,,,,1.562,0.842,1.315*2F,1745469839000
NMEA,$GPGSV,4,1,15,17,72,31,17.2,24,7,298,20.7,195,70,85,17.0,19,57,315,32.5*72,1745469839000
NMEA,$GPGSV,4,2,15,14,52,180,41.0,194,51,148,34.9,3,41,61,29.1,1,21,52,10.5*44,1745469839000
NMEA,$GPGSV,4,3,15,11,12,241,24.0,22,70,213,40.2,6,44,251,37.7,196,23,142,22.8*7A,1745469839000
NMEA,$GPGSV,4,4,15,4,1,111,0.0,193,1,,0.0,47,1,,0.0*5F,1745469839000
NMEA,$BDGSV,4,1,16,207,84,341,33.5,210,72,306,23.2,209,12,214,26.5,203,42,189,32.2*6A,1745469839000
NMEA,$BDGSV,4,2,16,240,72,53,27.5,238,44,176,21.8,229,39,284,40.0,236,39,231,30.2*5B,1745469839000
NMEA,$BDGSV,4,3,16,245,32,293,33.0,227,23,73,22.2,201,35,140,0.0,202,30,222,0.0*53,1745469839000
NMEA,$BDGSV,4,4,16,204,26,123,0.0,205,14,246,0.0,206,4,201,0.0,213,19,191,0.0*5D,1745469839000
NMEA,$GAGSV,2,1,8,130,79,349,30.2,96,73,251,42.0,128,38,242,18.1,119,36,159,16.0*61,1745469839000
NMEA,$GAGSV,2,2,8,110,13,151,18.7,105,32,47,0.0,107,15,296,0.0,124,63,323,0.0*50,1745469839000
NMEA,$GPVTG,230.061,T,,M,0.000,N,0.000,K,A*0B,1745469839000
NMEA,$RD_RSSI, 686, 763, 0, 0,1745469839000
NMEA,$GPGGA,044400.000,3954.603071,N,11627.091038,E,1,19,0.842,72.563,M,0,M,,*4D,1745469840000
NMEA,$GPRMC,044400.000,A,3954.603071,N,11627.091038,E,0.000,230.061,240425,,E,A*24,1745469840000
NMEA,$GPGLL,3954.603071,N,11627.091038,E,044400.000,A,A*55,1745469840000
NMEA,$GPGSA,A,3,17,195,19,14,194,3,22,6,196,,,,1.562,0.842,1.315*0B,1745469840000
NMEA,$BDGSA,A,3,207,210,240,238,229,245,227,,,,,,1.562,0.842,1.315*1F,1745469840000
NMEA,$GAGSA,A,3,130,96,119,,,,,,,,,,1.562,0.842,1.315*2F,1745469840000
NMEA,$GPGSV,4,1,15,17,72,31,18.7,24,7,298,21.7,195,70,85,17.6,19,57,315,35.0*7D,1745469840000
NMEA,$GPGSV,4,2,15,14,52,180,40.4,194,51,148,32.0,3,41,61,28.6,11,12,241,23.7*4B,1745469840000
NMEA,$GPGSV,4,3,15,22,70,213,40.7,6,44,251,36.4,196,23,142,23.8,1,21,52,0.0*4B,1745469840000
NMEA,$GPGSV,4,4,15,4,1,111,0.0,193,1,,0.0,47,1,,0.0*5F,1745469840000
NMEA,$BDGSV,4,1,16,207,84,341,34.4,210,72,306,21.2,213,19,191,25.7,209,12,214,26.0*6E,1745469840000
NMEA,$BDGSV,4,2,16,203,42,189,32.0,240,72,53,28.7,238,44,176,19.5,229,39,284,41.0*5B,1745469840000
NMEA,$BDGSV,4,3,16,236,39,231,30.7,245,32,293,32.9,227,23,73,21.8,201,35,140,0.0*6A,1745469840000
NMEA,$BDGSV,4,4,16,202,30,222,0.0,204,26,123,0.0,205,14,246,0.0,206,4,201,0.0*5D,1745469840000
NMEA,$GAGSV,2,1,8,130,79,349,30.7,96,73,251,41.7,128,38,242,17.7,119,36,159,16.7*6E,1745469840000
NMEA,$GAGSV,2,2,8,110,13,151,20.1,105,32,47,0.0,107,15,296,0.0,124,63,323,0.0*5D,1745469840000
NMEA,$GPVTG,230.061,T,,M,0.000,N,0.000,K,A*0B,1745469840000
NMEA,$RD_RSSI, 732, 801, 0, 0,1745469840000
NMEA,$GPGGA,044401.000,3954.602925,N,11627.090945,E,1,18,0.870,72.989,M,0,M,,*4F,1745469840000
NMEA,$GPRMC,044401.000,A,3954.602925,N,11627.090945,E,0.000,230.061,240425,,E,A*2E,1745469841000
NMEA,$GPGLL,3954.602925,N,11627.090945,E,044401.000,A,A*5F,1745469841000
NMEA,$GPGSA,A,3,17,195,19,14,194,3,22,6,,,,,1.668,0.870,1.423*3F,1745469841000
NMEA,$BDGSA,A,3,207,210,240,238,229,245,227,,,,,,1.668,0.870,1.423*15,1745469841000
NMEA,$GAGSA,A,3,96,128,119,,,,,,,,,,1.668,0.870,1.423*2C,1745469841000
NMEA,$GPGSV,4,1,15,17,72,31,19.6,24,7,298,20.3,195,70,85,20.7,19,57,315,35.5*78,1745469841000
NMEA,$GPGSV,4,2,15,14,52,180,41.2,194,51,148,30.6,3,41,61,29.3,1,21,52,12.6*4E,1745469841000
NMEA,$GPGSV,4,3,15,11,12,241,19.3,22,70,213,40.5,6,44,251,37.7,196,23,142,25.0*7F,1745469841000
NMEA,$GPGSV,4,4,15,4,1,111,0.0,193,1,,0.0,47,1,,0.0*5F,1745469841000
NMEA,$BDGSV,4,1,16,207,84,341,35.2,210,72,306,21.3,213,19,191,26.8,209,12,214,26.5*61,1745469841000
NMEA,$BDGSV,4,2,16,203,42,189,31.2,240,72,53,29.2,238,44,176,25.1,229,39,284,40.7*53,1745469841000
NMEA,$BDGSV,4,3,16,236,39,231,28.7,245,32,293,28.2,227,23,73,21.8,201,35,140,0.0*63,1745469841000
NMEA,$BDGSV,4,4,16,202,30,222,0.0,204,26,123,0.0,205,14,246,0.0,206,4,201,0.0*5D,1745469841000
NMEA,$GAGSV,2,1,8,130,79,349,30.0,96,73,251,41.5,128,38,242,20.7,119,36,159,17.2*6B,1745469841000
NMEA,$GAGSV,2,2,8,110,13,151,21.1,105,32,47,0.0,107,15,296,0.0,124,63,323,0.0*5C,1745469841000
NMEA,$GPVTG,230.061,T,,M,0.000,N,0.000,K,A*0B,1745469841000
NMEA,$RD_RSSI, 739, 849, 0, 0,1745469841000
NMEA,$GPGGA,044402.000,3954.602925,N,11627.090945,E,1,18,0.849,72.989,M,0,M,,*46,1745469842000
NMEA,$GPRMC,044402.000,A,3954.602925,N,11627.090945,E,0.000,230.061,240425,,E,A*2D,1745469842000
NMEA,$GPGLL,3954.602925,N,11627.090945,E,044402.000,A,A*5C,1745469842000
NMEA,$GPGSA,A,3,17,195,19,14,194,3,22,6,196,,,,1.603,0.849,1.360*06,1745469842000
NMEA,$BDGSA,A,3,207,210,240,238,229,245,227,,,,,,1.603,0.849,1.360*12,1745469842000
NMEA,$GAGSA,A,3,128,119,,,,,,,,,,,1.603,0.849,1.360*24,1745469842000
NMEA,$GPGSV,4,1,15,17,72,31,21.5,24,7,298,13.0,195,70,85,20.6,19,57,315,36.9*7D,1745469842000
NMEA,$GPGSV,4,2,15,14,52,180,40.9,194,51,148,28.7,3,41,61,29.3,1,21,52,10.0*48,1745469842000
NMEA,$GPGSV,4,3,15,11,12,241,16.2,22,70,213,40.7,6,44,251,36.9,196,23,142,23.8*72,1745469842000
NMEA,$GPGSV,4,4,15,4,1,111,0.0,193,1,,0.0,47,1,,0.0*5F,1745469842000
NMEA,$BDGSV,4,1,16,207,84,341,34.2,210,72,306,18.7,213,19,191,26.3,209,12,214,26.7*67,1745469842000
NMEA,$BDGSV,4,2,16,203,42,189,31.1,240,72,53,28.0,238,44,176,28.7,229,40,284,40.7*56,1745469842000
NMEA,$BDGSV,4,3,16,236,39,231,27.6,245,32,293,28.6,227,23,73,21.8,201,35,140,0.0*69,1745469842000
NMEA,$BDGSV,4,4,16,202,30,222,0.0,204,26,123,0.0,205,14,246,0.0,206,4,201,0.0*5D,1745469842000
NMEA,$GAGSV,2,1,8,130,79,349,28.7,96,73,250,41.5,128,38,242,22.5,119,36,159,19.0*68,1745469842000
NMEA,$GAGSV,2,2,8,110,13,151,21.1,105,32,47,0.0,107,15,296,0.0,124,63,323,0.0*5C,1745469842000
NMEA,$GPVTG,230.061,T,,M,0.000,N,0.000,K,A*0B,1745469842000
NMEA,$RD_RSSI, 740, 802, 0, 0,1745469842000
NMEA,$GPGGA,044403.000,3954.602925,N,11627.090945,E,1,16,0.914,72.989,M,0,M,,*40,1745469843000
NMEA,$GPRMC,044403.000,A,3954.602925,N,11627.090945,E,0.359,230.061,240425,,E,A*23,1745469843000
NMEA,$GPGLL,3954.602925,N,11627.090945,E,044403.000,A,A*5D,1745469843000
NMEA,$GPGSA,A,3,195,19,14,194,3,22,6,,,,,,1.837,0.914,1.593*34,1745469843000
NMEA,$BDGSA,A,3,207,210,240,238,229,245,227,,,,,,1.837,0.914,1.593*18,1745469843000
NMEA,$GAGSA,A,3,128,119,,,,,,,,,,,1.837,0.914,1.593*2E,1745469843000
NMEA,$GPGSV,4,1,15,17,72,31,22.7,24,7,298,12.5,195,70,85,19.5,19,57,315,34.5*7F,1745469843000
NMEA,$GPGSV,4,2,15,14,52,180,40.9,194,51,148,27.5,3,41,61,30.0,1,21,52,11.5*4A,1745469843000
NMEA,$GPGSV,4,3,15,11,12,241,14.6,22,70,213,40.7,6,44,251,36.9,196,23,142,24.3*78,1745469843000
NMEA,$GPGSV,4,4,15,4,1,111,0.0,193,1,,0.0,47,1,,0.0*5F,1745469843000
NMEA,$BDGSV,4,1,16,207,84,341,33.7,210,72,306,19.1,213,19,191,26.2,209,12,214,26.5*61,1745469843000
NMEA,$BDGSV,4,2,16,203,42,189,31.5,240,72,53,28.1,238,44,176,28.7,229,40,284,40.2*56,1745469843000
NMEA,$BDGSV,4,3,16,236,39,231,28.8,245,32,293,25.2,227,23,73,21.5,201,35,140,0.0*6C,1745469843000
NMEA,$BDGSV,4,4,16,202,30,222,0.0,204,26,123,0.0,205,14,246,0.0,206,4,201,0.0*5D,1745469843000
NMEA,$GAGSV,2,1,8,130,79,349,28.8,96,73,250,41.4,128,38,242,21.3,119,36,159,21.6*6E,1745469843000
NMEA,$GAGSV,2,2,8,110,13,151,20.2,105,32,47,0.0,107,15,296,0.0,124,63,323,0.0*5E,1745469843000
NMEA,$GPVTG,230.061,T,,M,0.359,N,0.666,K,A*02,1745469843000
NMEA,$RD_RSSI, 734, 802, 0, 0,1745469843000
NMEA,$GPGGA,044404.000,3954.602925,N,11627.090945,E,1,17,0.889,72.989,M,0,M,,*43,1745469844000
NMEA,$GPRMC,044404.000,A,3954.602925,N,11627.090945,E,0.000,230.061,240425,,E,A*2B,1745469844000
NMEA,$GPGLL,3954.602925,N,11627.090945,E,044404.000,A,A*5A,1745469844000
NMEA,$GPGSA,A,3,195,19,14,194,3,22,6,,,,,,1.699,0.889,1.447*33,1745469844000
NMEA,$BDGSA,A,3,207,210,240,238,229,245,227,,,,,,1.699,0.889,1.447*1F,1745469844000
NMEA,$GAGSA,A,3,96,128,119,,,,,,,,,,1.699,0.889,1.447*26,1745469844000
NMEA,$GPGSV,4,1,15,17,72,31,21.7,24,7,298,12.6,195,70,85,19.3,19,57,315,33.4*7F,1745469844000
NMEA,$GPGSV,4,2,15,14,52,180,40.0,194,51,148,24.7,3,41,61,30.0,1,21,52,10.1*47,1745469844000
NMEA,$GPGSV,4,3,15,22,70,213,40.5,6,44,251,36.7,196,23,142,24.7,4,1,111,0.0*43,1745469844000
NMEA,$GPGSV,4,4,15,11,12,241,0.0,193,1,,0.0,47,1,,0.0*5F,1745469844000
NMEA,$BDGSV,4,1,16,207,84,341,33.5,210,72,306,20.6,213,19,191,26.2,209,12,214,26.2*69,1745469844000
NMEA,$BDGSV,4,2,16,203,42,189,31.1,240,72,53,27.0,238,44,176,28.7,229,40,284,40.0*5E,1745469844000
NMEA,$BDGSV,4,3,16,236,39,231,28.3,245,32,293,26.7,227,23,73,21.8,201,35,140,0.0*6C,1745469844000
NMEA,$BDGSV,4,4,16,202,30,222,0.0,204,26,123,0.0,205,14,246,0.0,206,4,201,0.0*5D,1745469844000
NMEA,$GAGSV,2,1,8,130,79,349,28.2,96,73,250,40.9,128,38,242,20.2,119,36,159,22.7*6A,1745469844000
NMEA,$GAGSV,2,2,8,110,13,151,19.7,105,32,47,0.0,107,15,296,0.0,124,63,323,0.0*51,1745469844000
NMEA,$GPVTG,230.061,T,,M,0.000,N,0.000,K,A*0B,1745469844000
NMEA,$RD_RSSI, 754, 864, 0, 0,1745469844000
NMEA,$GPGGA,044405.000,3954.602925,N,11627.090945,E,1,16,0.923,72.989,M,0,M,,*42,1745469845000
NMEA,$GPRMC,044405.000,A,3954.602925,N,11627.090945,E,0.000,230.061,240425,,E,A*2A,1745469845000
NMEA,$GPGLL,3954.602925,N,11627.090945,E,044405.000,A,A*5B,1745469845000
NMEA,$GPGSA,A,3,195,19,14,3,22,6,,,,,,,1.717,0.923,1.447*09,1745469845000
NMEA,$BDGSA,A,3,207,210,240,238,229,245,227,,,,,,1.717,0.923,1.447*19,1745469845000
NMEA,$GAGSA,A,3,96,128,119,,,,,,,,,,1.717,0.923,1.447*20,1745469845000
NMEA,$GPGSV,4,1,15,17,72,31,21.2,24,7,298,13.1,195,70,85,21.7,19,57,315,34.0*70,1745469845000
NMEA,$GPGSV,4,2,15,14,52,180,41.0,194,51,148,21.0,3,41,61,31.2,1,21,52,10.5*43,1745469845000
NMEA,$GPGSV,4,3,15,22,70,213,40.0,6,44,251,34.7,196,23,142,24.7,4,1,111,0.0*44,1745469845000
NMEA,$GPGSV,4,4,15,11,12,241,0.0,193,1,,0.0,47,1,,0.0*5F,1745469845000
NMEA,$BDGSV,4,1,16,207,84,341,34.9,210,72,306,22.7,213,19,191,25.8,209,12,214,26.6*6C,1745469845000
NMEA,$BDGSV,4,2,16,203,42,189,30.6,240,72,53,29.3,238,44,176,27.8,229,40,284,39.2*59,1745469845000
NMEA,$BDGSV,4,3,16,236,39,231,29.2,245,32,293,31.7,227,23,73,25.5,201,35,140,0.0*63,1745469845000
NMEA,$BDGSV,4,4,16,202,30,222,0.0,204,26,123,0.0,205,14,246,0.0,206,4,201,0.0*5D,1745469845000
NMEA,$GAGSV,2,1,8,130,79,349,28.7,96,73,250,40.4,128,38,242,20.7,119,36,159,24.2*64,1745469845000
NMEA,$GAGSV,2,2,8,110,13,151,19.5,105,32,47,0.0,107,15,296,0.0,124,63,323,0.0*53,1745469845000
NMEA,$GPVTG,230.061,T,,M,0.000,N,0.000,K,A*0B,1745469845000
NMEA,$RD_RSSI, 792, 855, 0, 0,1745469845000
NMEA,$GPGGA,044406.000,3954.602925,N,11627.090945,E,1,17,0.907,72.989,M,0,M,,*46,1745469846000
NMEA,$GPRMC,044406.000,A,3954.602925,N,11627.090945,E,0.000,230.061,240425,,E,A*29,1745469846000
NMEA,$GPGLL,3954.602925,N,11627.090945,E,044406.000,A,A*58,1745469846000
NMEA,$GPGSA,A,3,17,195,19,14,3,22,6,,,,,,1.688,0.907,1.424*0B,1745469846000
NMEA,$BDGSA,A,3,207,210,240,238,229,245,227,,,,,,1.688,0.907,1.424*1D,1745469846000
NMEA,$GAGSA,A,3,96,128,119,,,,,,,,,,1.688,0.907,1.424*24,1745469846000
NMEA,$GPGSV,4,1,15,17,72,31,20.7,24,7,298,15.3,195,70,85,20.1,19,57,315,36.9*7C,1745469846000
NMEA,$GPGSV,4,2,15,14,52,180,41.2,194,51,148,18.8,3,41,61,32.0,1,21,52,11.0*46,1745469846000
NMEA,$GPGSV,4,3,15,22,70,213,37.5,6,44,251,33.2,196,23,142,23.2,4,1,111,0.0*41,1745469846000
NMEA,$GPGSV,4,4,15,11,12,241,0.0,193,1,,0.0,47,1,,0.0*5F,1745469846000
NMEA,$BDGSV,4,1,16,207,84,341,34.0,210,72,306,21.7,213,19,191,25.2,209,12,214,26.5*6F,1745469846000
NMEA,$BDGSV,4,2,16,203,42,189,31.0,240,72,53,27.7,238,44,176,28.1,229,40,284,39.2*52,1745469846000
NMEA,$BDGSV,4,3,16,236,39,231,28.1,245,32,293,31.8,227,23,73,26.1,201,35,140,0.0*69,1745469846000
NMEA,$BDGSV,4,4,16,202,30,222,0.0,204,26,123,0.0,205,14,246,0.0,206,4,201,0.0*5D,1745469846000
NMEA,$GAGSV,2,1,8,130,79,349,27.3,96,73,250,39.4,128,38,242,16.2,119,36,159,24.5*66,1745469846000
NMEA,$GAGSV,2,2,8,110,13,151,19.2,105,32,47,0.0,107,15,296,0.0,124,63,323,0.0*54,1745469846000
NMEA,$GPVTG,230.061,T,,M,0.000,N,0.000,K,A*0B,1745469846000
NMEA,$RD_RSSI, 737, 812, 0, 0,1745469846000
NMEA,$GPGGA,044407.000,3954.602925,N,11627.090945,E,1,16,0.931,72.989,M,0,M,,*43,1745469847000
NMEA,$GPRMC,044407.000,A,3954.602925,N,11627.090945,E,0.442,230.061,240425,,E,A*2A,1745469847000
NMEA,$GPGLL,3954.602925,N,11627.090945,E,044407.000,A,A*59,1745469847000
NMEA,$GPGSA,A,3,17,195,19,14,3,22,6,,,,,,1.813,0.931,1.556*06,1745469847000
NMEA,$BDGSA,A,3,207,210,240,238,229,245,227,,,,,,1.813,0.931,1.556*10,1745469847000
NMEA,$GAGSA,A,3,128,119,,,,,,,,,,,1.813,0.931,1.556*26,1745469847000
NMEA,$GPGSV,4,1,15,17,72,31,20.2,24,7,298,15.3,195,70,85,19.5,19,57,315,35.2*7F,1745469847000
NMEA,$GPGSV,4,2,15,14,52,180,41.4,194,51,148,19.8,3,41,61,32.5,1,21,52,11.6*42,1745469847000
NMEA,$GPGSV,4,3,15,22,70,213,38.5,6,44,251,33.9,196,23,142,21.1,4,1,111,0.0*44,1745469847000
NMEA,$GPGSV,4,4,15,11,12,241,0.0,193,1,,0.0,47,1,,0.0*5F,1745469847000
NMEA,$BDGSV,4,1,16,207,84,341,33.5,210,72,306,22.3,213,19,191,24.6,209,12,214,26.7*6D,1745469847000
NMEA,$BDGSV,4,2,16,203,42,189,31.8,240,72,53,28.2,238,44,176,27.0,229,40,284,37.7*55,1745469847000
NMEA,$BDGSV,4,3,16,236,39,231,26.6,245,32,293,33.5,227,23,73,24.7,201,35,140,0.0*6B,1745469847000
NMEA,$BDGSV,4,4,16,202,30,222,0.0,204,26,123,0.0,205,14,246,0.0,206,4,201,0.0*5D,1745469847000
NMEA,$GAGSV,2,1,8,130,79,349,26.0,96,73,250,39.5,128,38,242,14.8,119,36,159,28.2*66,1745469847000
NMEA,$GAGSV,2,2,8,110,13,151,19.2,105,32,47,0.0,107,15,296,0.0,124,63,323,0.0*54,1745469847000
NMEA,$GPVTG,230.061,T,,M,0.442,N,0.819,K,A*09,1745469847000
NMEA,$RD_RSSI, 744, 840, 0, 0,1745469847000
NMEA,$GPGGA,044408.000,3954.602925,N,11627.090945,E,1,17,0.907,72.989,M,0,M,,*48,1745469848000
NMEA,$GPRMC,044408.000,A,3954.602925,N,11627.090945,E,0.000,230.061,240425,,E,A*27,1745469848000
NMEA,$GPGLL,3954.602925,N,11627.090945,E,044408.000,A,A*56,1745469848000
NMEA,$GPGSA,A,3,17,195,19,14,3,22,6,,,,,,1.688,0.907,1.424*0B,1745469848000
NMEA,$BDGSA,A,3,207,210,240,238,229,245,227,,,,,,1.688,0.907,1.424*1D,1745469848000
NMEA,$GAGSA,A,3,96,128,119,,,,,,,,,,1.688,0.907,1.424*24,1745469848000
NMEA,$GPGSV,4,1,15,17,72,31,21.1,24,7,298,15.3,195,70,85,22.2,19,57,315,33.5*73,1745469848000
NMEA,$GPGSV,4,2,15,14,52,180,39.0,194,51,148,27.2,3,41,61,32.7,1,21,52,12.0*49,1745469848000
NMEA,$GPGSV,4,3,15,11,12,241,20.2,22,70,213,39.2,6,44,251,34.7,196,23,142,25.2*7C,1745469848000
NMEA,$GPGSV,4,4,15,4,1,111,0.0,193,1,,0.0,47,1,,0.0*5F,1745469848000
NMEA,$BDGSV,4,1,16,207,84,341,32.5,210,72,306,23.1,213,19,191,23.7,209,12,214,26.2*6C,1745469848000
NMEA,$BDGSV,4,2,16,203,42,189,31.7,240,72,53,28.8,238,44,176,29.2,229,40,284,37.9*52,1745469848000
NMEA,$BDGSV,4,3,16,236,39,231,24.0,245,32,293,34.5,227,23,73,26.6,201,35,140,0.0*6B,1745469848000
NMEA,$BDGSV,4,4,16,202,30,222,0.0,204,26,123,0.0,205,14,246,0.0,206,4,201,0.0*5D,1745469848000
NMEA,$GAGSV,2,1,8,130,79,349,26.5,96,73,250,39.5,128,38,242,15.1,119,36,159,26.7*60,1745469848000
NMEA,$GAGSV,2,2,8,110,13,151,19.1,105,32,47,0.0,107,15,296,0.0,124,63,323,0.0*57,1745469848000
NMEA,$GPVTG,230.061,T,,M,0.000,N,0.000,K,A*0B,1745469848000
NMEA,$RD_RSSI, 746, 827, 0, 0,1745469848000
NMEA,$GPGGA,044409.000,3954.602925,N,11627.090945,E,1,17,0.888,72.989,M,0,M,,*4F,1745469849000
