$GNGGA,044352.00,3954.61383671,N,11627.10339856,E,4,19,1.3,39.1044,M,-8.2905,M,1.0,1828*71
$GNRMC,044352.00,D,3954.61383671,N,11627.10339856,E,0.044,61.5,240425,7.2,W,R,S*62
$GPGSV,2,1,07,03,41,061,31,14,52,180,45,17,72,030,23,22,70,213,42,1*69
$GPGSV,2,2,07,11,12,241,32,19,57,315,38,06,43,251,31,1*55
$GPGSV,2,1,05,14,52,180,42,17,72,030,18,22,70,213,32,19,57,315,31,4*6A
$GPGSV,2,2,05,06,43,251,35,4*55
$GPGSV,1,1,03,03,41,061,19,14,52,180,42,06,43,251,32,8*5C
$GLGSV,2,1,06,86,41,039,22,71,25,085,25,77,55,262,35,78,19,328,31,1*7B
$GLGSV,2,2,06,88,14,266,40,87,57,323,38,1*79
$GLGSV,1,1,01,78,19,328,27,3*40
$GBGSV,4,1,14,02,30,222,32,10,72,306,39,27,23,073,28,30,68,025,17,1*79
$GBGSV,4,2,14,38,44,176,42,40,72,053,44,59,36,146,24,01,35,140,21,1*72
$GBGSV,4,3,14,08,32,181,33,07,84,341,37,32,30,111,21,29,39,284,39,1*79
$GBGSV,4,4,14,03,42,189,36,45,32,293,40,1*7F
$GBGSV,2,1,08,10,72,306,33,27,23,073,27,38,44,176,29,40,72,053,33,8*77
$GBGSV,2,2,08,08,32,181,28,07,84,341,32,29,39,284,30,45,32,293,32,8*75
$GBGSV,1,1,04,10,72,306,42,08,32,181,37,07,84,341,42,03,42,189,33,B*0D
$GAGSV,1,1,04,25,36,159,32,36,79,349,37,02,73,251,32,30,28,314,35,1*76
$GAGSV,1,1,04,25,36,159,33,36,79,349,40,02,73,251,37,30,28,314,37,2*73
$GAGSV,2,1,05,25,36,159,39,36,79,349,42,02,73,251,46,34,38,242,21,7*7A
$GAGSV,2,2,05,30,28,314,40,7*4D
$GNGGA,044353.00,3954.61384483,N,11627.10340936,E,4,21,0.8,39.0927,M,-8.2905,M,1.0,1828*7D
$GNRMC,044353.00,D,3954.61384483,N,11627.10340936,E,0.042,56.6,240425,7.2,W,R,S*63
$GPGSV,2,1,07,03,41,061,30,14,52,180,44,17,72,030,23,22,70,213,42,1*69
$GPGSV,2,2,07,11,12,241,31,19,57,315,38,06,43,251,27,1*51
$GPGSV,2,1,05,14,52,180,42,17,72,030,17,22,70,213,31,19,57,315,31,4*66
$GPGSV,2,2,05,06,43,251,35,4*55
$GPGSV,1,1,03,03,41,061,18,14,52,180,43,06,43,251,33,8*5D
$GLGSV,2,1,06,86,41,039,20,71,25,085,27,77,55,262,33,78,19,328,31,1*7D
$GLGSV,2,2,06,88,14,266,38,87,57,323,35,1*7B
$GLGSV,1,1,01,78,19,328,27,3*40
$GBGSV,4,1,13,10,72,306,39,27,23,073,30,30,68,025,16,38,44,176,41,1*7A
$GBGSV,4,2,13,40,72,053,44,59,36,146,22,01,35,140,24,08,32,181,33,1*7A
$GBGSV,4,3,13,07,84,341,38,32,30,111,21,29,39,284,39,03,42,189,35,1*73
$GBGSV,4,4,13,45,32,293,38,1*47
$GBGSV,2,1,08,10,72,306,34,27,23,073,29,38,44,176,30,40,72,053,32,8*77
$GBGSV,2,2,08,08,32,181,28,07,84,341,32,29,39,284,31,45,32,293,32,8*74
$GBGSV,1,1,04,10,72,306,42,08,32,181,37,07,84,341,42,03,42,189,34,B*0A
$GAGSV,1,1,04,25,36,159,32,36,79,349,37,02,73,251,31,30,28,314,34,1*74
$GAGSV,1,1,04,25,36,159,34,36,79,349,40,02,73,251,37,30,28,314,37,2*74
$GAGSV,2,1,05,25,36,159,39,36,79,349,42,02,73,251,47,34,38,242,20,7*7A
$GAGSV,2,2,05,30,28,314,40,7*4D
$GNGGA,044354.00,3954.61382698,N,11627.10341233,E,4,19,1.3,39.1153,M,-8.2905,M,1.0,1828*70
$GNRMC,044354.00,D,3954.61382698,N,11627.10341233,E,0.066,63.3,240425,7.2,W,R,S*60
$GPGSV,2,1,07,03,41,061,27,14,52,180,45,17,72,030,24,22,70,213,43,1*68
$GPGSV,2,2,07,11,12,241,28,19,57,315,35,06,43,251,26,1*55
$GPGSV,2,1,05,14,52,180,42,17,72,030,16,22,70,213,32,19,57,315,31,4*64
$GPGSV,2,2,05,06,43,251,36,4*56
$GPGSV,1,1,03,03,41,061,18,14,52,180,42,06,43,251,34,8*5B
$GLGSV,2,1,06,86,41,039,17,71,25,085,27,77,55,262,33,78,19,328,30,1*78
$GLGSV,2,2,06,88,14,266,39,87,57,323,33,1*7C
$GLGSV,1,1,01,78,19,328,26,3*41
$GBGSV,3,1,12,10,72,306,39,27,23,073,29,30,68,025,17,38,44,176,40,1*74
$GBGSV,3,2,12,40,72,053,44,01,35,140,30,08,32,181,32,07,84,341,39,1*75
$GBGSV,3,3,12,32,30,111,21,29,39,284,40,03,42,189,35,45,32,293,36,1*70
$GBGSV,2,1,08,10,72,306,34,27,23,073,27,38,44,176,30,40,72,053,32,8*79
$GBGSV,2,2,08,08,32,181,28,07,84,341,32,29,39,284,30,45,32,293,32,8*75
$GBGSV,1,1,04,10,72,306,41,08,32,181,37,07,84,341,42,03,42,189,34,B*09
$GAGSV,1,1,04,25,36,159,31,36,79,349,38,02,73,251,32,30,28,314,35,1*7A
$GAGSV,1,1,04,25,36,159,34,36,79,349,40,02,73,251,37,30,28,314,38,2*7B
$GAGSV,2,1,05,25,36,159,39,36,79,349,42,02,73,251,47,34,38,242,20,7*7A
$GAGSV,2,2,05,30,28,314,40,7*4D
$GNGGA,044355.00,3954.61384208,N,11627.10340821,E,4,18,1.3,39.0914,M,-8.2905,M,1.0,1828*79
$GNRMC,044355.00,D,3954.61384208,N,11627.10340821,E,0.070,53.7,240425,7.2,W,R,S*62
$GPGSV,2,1,06,03,41,061,27,14,52,180,46,17,72,030,24,22,70,213,42,1*6B
$GPGSV,2,2,06,19,57,315,35,06,43,251,30,1*6D
$GPGSV,2,1,05,14,52,180,42,17,72,030,17,22,70,213,31,19,57,315,31,4*66
$GPGSV,2,2,05,06,43,251,35,4*55
$GPGSV,1,1,03,03,41,061,17,14,52,180,42,06,43,251,35,8*55
$GLGSV,2,1,06,86,41,039,16,71,25,085,28,77,55,262,29,78,19,328,28,1*74
$GLGSV,2,2,06,88,14,266,39,87,57,323,34,1*7B
$GLGSV,1,1,01,78,19,328,23,3*44
$GBGSV,3,1,12,10,72,306,39,27,23,073,27,30,68,025,16,38,44,176,41,1*7A
$GBGSV,3,2,12,40,72,053,44,01,35,140,30,08,32,181,33,07,84,341,39,1*74
$GBGSV,3,3,12,32,30,111,21,29,39,284,40,03,42,189,35,45,32,293,37,1*71
$GBGSV,2,1,08,10,72,306,33,27,23,073,28,38,44,176,30,40,72,053,32,8*71
$GBGSV,2,2,08,08,32,181,29,07,84,341,31,29,39,284,29,45,32,293,32,8*7F
$GBGSV,1,1,04,10,72,306,41,08,32,181,37,07,84,341,42,03,42,189,34,B*09
$GAGSV,1,1,04,25,36,159,30,36,79,349,38,02,73,251,30,30,28,314,35,1*79
$GAGSV,1,1,04,25,36,159,34,36,79,349,39,02,73,251,36,30,28,314,38,2*74
$GAGSV,2,1,05,25,36,159,39,36,79,349,42,02,73,251,47,34,38,242,18,7*71
$GAGSV,2,2,05,30,28,314,40,7*4D
$GNGGA,044356.00,3954.61383363,N,11627.10340925,E,4,18,1.3,39.1061,M,-8.2905,M,2.0,1828*7D
$GNRMC,044356.00,D,3954.61383363,N,11627.10340925,E,0.043,44.4,240425,7.2,W,R,S*6A
$GPGSV,2,1,06,03,41,061,29,14,52,180,46,17,72,030,24,22,70,213,42,1*65
$GPGSV,2,2,06,19,57,315,34,06,43,251,30,1*6C
$GPGSV,2,1,05,14,52,180,42,17,72,030,17,22,70,213,31,19,57,315,31,4*66
$GPGSV,2,2,05,06,43,251,34,4*54
$GPGSV,1,1,03,03,41,061,17,14,52,180,42,06,43,251,34,8*54
$GLGSV,2,1,06,86,41,039,17,71,25,085,31,77,55,262,28,78,19,328,32,1*77
$GLGSV,2,2,06,88,14,266,38,87,57,323,35,1*7B
$GLGSV,1,1,01,78,19,328,21,3*46
$GBGSV,4,1,14,10,72,306,39,27,23,073,32,30,68,025,15,38,44,176,42,1*7F
$GBGSV,4,2,14,40,72,053,44,36,39,231,34,59,36,146,24,01,35,140,28,1*7E
$GBGSV,4,3,14,08,32,181,33,07,84,341,39,32,30,111,20,29,39,284,41,1*79
$GBGSV,4,4,14,03,42,189,36,45,32,293,39,1*71
$GBGSV,2,1,08,10,72,306,34,27,23,073,26,38,44,176,30,40,72,053,32,8*78
$GBGSV,2,2,08,08,32,181,28,07,84,341,30,29,39,284,30,45,32,293,31,8*74
$GBGSV,1,1,04,10,72,306,41,08,32,181,35,07,84,341,41,03,42,189,33,B*0F
$GAGSV,2,1,05,25,36,159,31,36,79,349,37,02,73,251,30,34,38,242,22,1*74
$GAGSV,2,2,05,30,28,314,35,1*49
$GAGSV,1,1,04,25,36,159,33,36,79,349,40,02,73,251,36,30,28,314,37,2*72
$GAGSV,2,1,05,25,36,159,39,36,79,349,42,02,73,251,47,34,38,242,18,7*71
$GAGSV,2,2,05,30,28,314,40,7*4D
$GNGGA,044357.00,3954.61383169,N,11627.10340709,E,4,18,1.3,39.1108,M,-8.2905,M,1.0,1828*79
$GNRMC,044357.00,D,3954.61383169,N,11627.10340709,E,0.033,48.9,240425,7.2,W,R,S*65
$GPGSV,2,1,06,03,41,061,28,14,52,180,46,17,72,030,25,22,70,213,42,1*65
$GPGSV,2,2,06,19,57,315,34,06,43,251,29,1*64
$GPGSV,2,1,05,14,52,180,42,17,72,030,19,22,70,213,32,19,57,315,32,4*68
$GPGSV,2,2,05,06,43,251,33,4*53
$GPGSV,1,1,03,03,41,061,15,14,52,180,42,06,43,251,33,8*51
$GLGSV,2,1,06,86,41,039,16,71,25,085,31,77,55,262,30,78,19,328,33,1*7E
$GLGSV,2,2,06,88,14,266,40,87,57,323,36,1*77
$GLGSV,1,1,01,78,19,328,23,3*44
$GBGSV,4,1,13,10,72,306,40,27,23,073,32,30,68,025,15,38,44,176,42,1*76
$GBGSV,4,2,13,40,72,053,44,36,39,231,36,01,35,140,26,08,32,181,33,1*78
$GBGSV,4,3,13,07,84,341,39,32,30,111,18,29,39,284,41,03,42,189,37,1*75
$GBGSV,4,4,13,45,32,293,40,1*48
$GBGSV,2,1,08,10,72,306,34,27,23,073,29,38,44,176,30,40,72,053,33,8*76
$GBGSV,2,2,08,08,32,181,28,07,84,341,31,29,39,284,31,45,32,293,31,8*74
$GBGSV,1,1,04,10,72,306,41,08,32,181,37,07,84,341,41,03,42,189,34,B*0A
$GAGSV,2,1,05,25,36,159,30,36,79,349,37,02,73,251,30,34,38,242,24,1*73
$GAGSV,2,2,05,30,28,314,36,1*4A
$GAGSV,1,1,04,25,36,159,34,36,79,349,40,02,73,251,37,30,28,314,37,2*74
$GAGSV,2,1,05,25,36,159,39,36,79,349,41,02,73,251,47,34,38,242,17,7*7D
$GAGSV,2,2,05,30,28,314,40,7*4D
$GNGGA,044358.00,3954.61383408,N,11627.10341191,E,4,21,0.8,39.0969,M,-8.2905,M,1.0,1828*7C
$GNRMC,044358.00,D,3954.61383408,N,11627.10341191,E,0.033,67.8,240425,7.2,W,R,S*62
$GPGSV,2,1,06,03,41,061,26,14,52,180,46,17,72,030,25,22,70,213,41,1*68
$GPGSV,2,2,06,19,57,315,35,06,43,251,30,1*6D
$GPGSV,2,1,05,14,52,180,42,17,72,030,19,22,70,213,31,19,57,315,32,4*6B
$GPGSV,2,2,05,06,43,251,29,4*58
$GPGSV,1,1,03,03,41,061,14,14,52,180,42,06,43,251,32,8*51
$GLGSV,2,1,06,86,41,039,19,71,25,085,32,77,55,262,33,78,19,328,35,1*77
$GLGSV,2,2,06,88,14,266,40,87,57,323,34,1*75
$GLGSV,1,1,01,78,19,328,25,3*42
$GBGSV,4,1,13,10,72,306,40,27,23,073,31,30,68,025,15,38,44,176,42,1*75
$GBGSV,4,2,13,40,72,053,44,36,39,231,37,01,35,140,28,08,32,181,34,1*70
$GBGSV,4,3,13,07,84,341,38,32,30,111,18,29,39,284,42,03,42,189,36,1*76
$GBGSV,4,4,13,45,32,293,41,1*49
$GBGSV,2,1,08,10,72,306,33,27,23,073,29,38,44,176,30,40,72,053,33,8*71
$GBGSV,2,2,08,08,32,181,28,07,84,341,31,29,39,284,31,45,32,293,31,8*74
$GBGSV,1,1,04,10,72,306,41,08,32,181,37,07,84,341,41,03,42,189,34,B*0A
$GAGSV,2,1,05,25,36,159,30,36,79,349,37,02,73,251,29,34,38,242,25,1*7A
$GAGSV,2,2,05,30,28,314,36,1*4A
$GAGSV,1,1,04,25,36,159,34,36,79,349,40,02,73,251,37,30,28,314,38,2*7B
$GAGSV,2,1,05,25,36,159,39,36,79,349,43,02,73,251,46,34,38,242,17,7*7E
$GAGSV,2,2,05,30,28,314,39,7*43
$GNGGA,044359.00,3954.61383382,N,11627.10341113,E,4,22,0.7,39.1008,M,-8.2905,M,1.0,1828*71
$GNRMC,044359.00,D,3954.61383382,N,11627.10341113,E,0.024,45.6,240425,7.2,W,R,S*64
$GPGSV,2,1,06,03,41,061,26,14,52,180,46,17,72,030,26,22,70,213,40,1*6A
$GPGSV,2,2,06,19,57,315,36,06,43,251,29,1*66
$GPGSV,2,1,05,14,52,180,43,17,72,030,19,22,70,213,31,19,57,315,32,4*6A
$GPGSV,2,2,05,06,43,251,29,4*58
$GPGSV,1,1,03,03,41,061,14,14,52,180,41,06,43,251,32,8*52
$GLGSV,2,1,07,86,41,039,19,76,33,196,33,71,25,085,31,77,55,262,36,1*77
$GLGSV,2,2,07,78,19,328,34,88,14,266,41,87,57,323,37,1*4F
$GLGSV,1,1,01,78,19,328,28,3*4F
$GBGSV,4,1,13,10,72,306,40,27,23,073,31,30,68,025,14,38,44,176,41,1*77
$GBGSV,4,2,13,40,72,053,44,36,39,231,38,01,35,140,30,08,32,181,34,1*76
$GBGSV,4,3,13,07,84,341,39,32,30,111,19,29,39,284,43,03,42,189,35,1*74
$GBGSV,4,4,13,45,32,293,43,1*4B
$GBGSV,2,1,08,10,72,306,34,27,23,073,29,38,44,176,30,40,72,053,33,8*76
$GBGSV,2,2,08,08,32,181,28,07,84,341,31,29,39,284,30,45,32,293,32,8*76
$GBGSV,1,1,04,10,72,306,41,08,32,181,36,07,84,341,41,03,42,189,35,B*0A
$GAGSV,2,1,05,25,36,159,30,36,79,349,37,02,73,251,30,34,38,242,24,1*73
$GAGSV,2,2,05,30,28,314,35,1*49
$GAGSV,1,1,04,25,36,159,34,36,79,349,40,02,73,251,35,30,28,314,38,2*79
$GAGSV,2,1,05,25,36,159,39,36,79,349,42,02,73,251,46,34,38,242,18,7*70
$GAGSV,2,2,05,30,28,314,40,7*4D
$GNGGA,044400.00,3954.61384133,N,11627.10341560,E,4,21,1.0,39.0855,M,-8.2905,M,1.0,1828*71
$GNRMC,044400.00,D,3954.61384133,N,11627.10341560,E,0.042,36.8,240425,7.2,W,R,S*6A
$GPGSV,2,1,06,03,41,061,25,14,52,180,47,17,72,030,26,22,70,213,39,1*66
$GPGSV,2,2,06,19,57,315,40,06,43,251,29,1*67
$GPGSV,2,1,05,14,52,180,43,17,72,030,19,22,70,213,31,19,57,315,33,4*6B
$GPGSV,2,2,05,06,43,251,32,4*52
$GPGSV,1,1,03,03,41,061,13,14,52,180,41,06,43,251,34,8*53
$GLGSV,2,1,06,76,33,196,26,71,25,085,28,77,55,262,34,78,19,328,35,1*79
$GLGSV,2,2,06,88,14,266,41,87,57,323,38,1*78
$GLGSV,1,1,01,78,19,328,28,3*4F
$GBGSV,4,1,14,02,30,222,31,10,72,306,40,27,23,073,32,30,68,025,15,1*7D
$GBGSV,4,2,14,38,44,176,42,40,72,053,43,36,39,231,39,01,35,140,28,1*75
$GBGSV,4,3,14,08,32,181,34,07,84,341,40,32,30,111,19,29,39,284,43,1*78
$GBGSV,4,4,14,03,42,189,35,45,32,293,43,1*7F
$GBGSV,2,1,08,10,72,306,34,27,23,073,29,38,44,176,30,40,72,053,34,8*71
$GBGSV,2,2,08,08,32,181,28,07,84,341,31,29,39,284,29,45,32,293,33,8*7F
$GBGSV,1,1,04,10,72,306,41,08,32,181,37,07,84,341,41,03,42,189,35,B*0B
$GAGSV,2,1,05,25,36,159,31,36,79,349,38,02,73,251,31,34,38,242,25,1*7D
$GAGSV,2,2,05,30,28,314,36,1*4A
$GAGSV,1,1,04,25,36,159,34,36,79,349,41,02,73,251,36,30,28,314,39,2*7A
$GAGSV,2,1,05,25,36,159,39,36,79,349,42,02,73,251,46,34,38,242,18,7*70
$GAGSV,2,2,05,30,28,314,41,7*4C
$GNGGA,044401.00,3954.61383706,N,11627.10340479,E,4,22,0.7,39.1045,M,-8.2905,M,1.0,1828*72
$GNRMC,044401.00,D,3954.61383706,N,11627.10340479,E,0.043,23.3,240425,7.2,W,R,S*6A
$GPGSV,2,1,06,03,41,061,23,14,52,180,47,17,72,030,28,22,70,213,37,1*60
$GPGSV,2,2,06,19,57,315,40,06,43,251,25,1*6B
$GPGSV,2,1,05,14,52,180,44,17,72,030,19,22,70,213,31,19,57,315,33,4*6C
$GPGSV,2,2,05,06,43,251,32,4*52
$GPGSV,1,1,03,03,41,061,12,14,52,180,41,06,43,251,34,8*52
$GLGSV,2,1,06,76,33,196,28,71,25,085,29,77,55,262,36,78,19,328,34,1*75
$GLGSV,2,2,06,88,14,266,40,87,57,323,37,1*76
$GLGSV,1,1,01,78,19,328,29,3*4E
$GBGSV,4,1,14,02,30,222,31,10,72,306,40,27,23,073,32,30,68,025,14,1*7C
$GBGSV,4,2,14,38,44,176,42,40,72,053,44,36,39,231,39,01,35,140,28,1*72
$GBGSV,4,3,14,08,32,181,33,07,84,341,39,32,30,111,20,29,39,284,42,1*7A
$GBGSV,4,4,14,03,42,189,35,45,32,293,43,1*7F
$GBGSV,2,1,08,10,72,306,34,27,23,073,28,38,44,176,31,40,72,053,33,8*76
$GBGSV,2,2,08,08,32,181,28,07,84,341,31,29,39,284,29,45,32,293,33,8*7F
$GBGSV,1,1,04,10,72,306,41,08,32,181,37,07,84,341,41,03,42,189,35,B*0B
$GAGSV,2,1,05,25,36,159,30,36,79,349,38,02,73,251,31,34,38,242,24,1*7D
$GAGSV,2,2,05,30,28,314,35,1*49
$GAGSV,1,1,04,25,36,159,34,36,79,349,41,02,73,251,37,30,28,314,38,2*7A
$GAGSV,2,1,05,25,36,159,39,36,79,349,42,02,73,251,45,34,38,242,18,7*73
$GAGSV,2,2,05,30,28,314,40,7*4D
$GNGGA,044402.00,3954.61383728,N,11627.10341713,E,4,21,0.8,39.0880,M,-8.2905,M,1.0,1828*7F
$GNRMC,044402.00,D,3954.61383728,N,11627.10341713,E,0.048,32.8,240425,7.2,W,R,S*6B
$GPGSV,2,1,06,03,41,061,26,14,52,180,47,17,72,030,28,22,70,213,37,1*65
$GPGSV,2,2,06,19,57,315,41,06,43,251,23,1*6C
$GPGSV,2,1,05,14,52,180,43,17,72,030,17,22,70,213,31,19,57,315,33,4*65
$GPGSV,2,2,05,06,43,251,31,4*51
$GPGSV,1,1,03,03,41,061,12,14,52,180,41,06,43,251,33,8*55
$GLGSV,2,1,06,76,33,196,30,71,25,085,30,77,55,262,37,78,19,328,32,1*73
$GLGSV,2,2,06,88,14,266,39,87,57,323,35,1*7A
$GLGSV,1,1,01,78,19,328,29,3*4E
$GBGSV,3,1,12,10,72,306,40,27,23,073,33,30,68,025,13,38,44,176,42,1*77
$GBGSV,3,2,12,40,72,053,44,36,39,231,39,08,32,181,33,07,84,341,39,1*70
$GBGSV,3,3,12,32,30,111,19,29,39,284,42,03,42,189,35,45,32,293,43,1*7B
$GBGSV,2,1,08,10,72,306,34,27,23,073,28,38,44,176,30,40,72,053,33,8*77
$GBGSV,2,2,08,08,32,181,26,07,84,341,31,29,39,284,29,45,32,293,33,8*71
$GBGSV,1,1,04,10,72,306,41,08,32,181,37,07,84,341,41,03,42,189,35,B*0B
$GAGSV,2,1,05,25,36,159,29,36,79,349,38,02,73,251,29,34,38,242,23,1*7B
$GAGSV,2,2,05,30,28,314,35,1*49
$GAGSV,1,1,04,25,36,159,34,36,79,349,41,02,73,251,37,30,28,314,38,2*7A
$GAGSV,2,1,05,25,36,159,40,36,79,349,42,02,73,251,45,34,38,242,19,7*7C
$GAGSV,2,2,05,30,28,314,40,7*4D
$GNGGA,044403.00,3954.61383876,N,11627.10340695,E,4,20,1.2,39.1013,M,-8.2905,M,1.0,1828*7D
$GNRMC,044403.00,D,3954.61383876,N,11627.10340695,E,0.032,13.6,240425,7.2,W,R,S*60
$GPGSV,2,1,06,03,41,061,25,14,52,180,47,17,72,030,27,22,70,213,39,1*67
$GPGSV,2,2,06,19,57,315,41,06,43,251,28,1*67
$GPGSV,2,1,05,14,52,180,43,17,72,030,17,22,70,213,31,19,57,315,33,4*65
$GPGSV,2,2,05,06,43,251,31,4*51
$GPGSV,1,1,03,03,41,061,14,14,52,180,41,06,43,251,34,8*54
$GLGSV,2,1,05,71,25,085,27,77,55,262,37,78,19,328,30,88,14,266,39,1*75
$GLGSV,2,2,05,87,57,323,35,1*44
$GLGSV,1,1,01,78,19,328,28,3*4F
$GBGSV,4,1,13,10,72,306,40,27,23,073,33,30,68,025,16,38,44,176,41,1*77
$GBGSV,4,2,13,40,72,053,44,36,39,231,39,01,35,140,27,08,32,181,34,1*71
$GBGSV,4,3,13,07,84,341,38,32,30,111,19,29,40,284,43,03,42,189,35,1*7B
$GBGSV,4,4,13,45,32,293,42,1*4A
$GBGSV,2,1,08,10,72,306,34,27,23,073,28,38,44,176,29,40,72,053,33,8*7F
$GBGSV,2,2,08,08,32,181,27,07,84,341,31,29,40,284,30,45,32,293,33,8*76
$GBGSV,1,1,04,10,72,306,41,08,32,181,37,07,84,341,41,03,42,189,34,B*0A
$GAGSV,2,1,05,25,36,159,30,36,79,349,38,02,73,250,30,34,38,242,23,1*7A
$GAGSV,2,2,05,30,28,314,36,1*4A
$GAGSV,1,1,04,25,36,159,33,36,79,349,41,02,73,250,37,30,28,314,37,2*73
$GAGSV,2,1,05,25,36,159,40,36,79,349,43,02,73,250,45,34,38,242,19,7*7C
$GAGSV,2,2,05,30,28,314,40,7*4D
$GNGGA,044404.00,3954.61383672,N,11627.10341073,E,4,21,0.8,39.0914,M,-8.2905,M,1.0,1828*7A
$GNRMC,044404.00,D,3954.61383672,N,11627.10341073,E,0.026,19.3,240425,7.2,W,R,S*68
$GPGSV,2,1,06,03,41,061,23,14,52,180,47,17,72,030,27,22,70,213,40,1*6F
$GPGSV,2,2,06,19,57,315,42,06,43,251,27,1*6B
$GPGSV,2,1,05,14,52,180,43,17,72,030,16,22,70,213,31,19,57,315,33,4*64
$GPGSV,2,2,05,06,43,251,32,4*52
$GPGSV,1,1,03,03,41,061,14,14,52,180,41,06,43,251,35,8*55
$GLGSV,2,1,05,71,25,085,28,77,55,262,37,78,19,328,30,88,14,266,39,1*7A
$GLGSV,2,2,05,87,57,323,33,1*42
$GLGSV,1,1,01,78,19,328,28,3*4F
$GBGSV,4,1,13,10,72,306,40,27,23,073,33,30,68,025,15,38,44,176,41,1*74
$GBGSV,4,2,13,40,72,053,43,36,39,231,40,01,35,140,27,08,32,181,34,1*78
$GBGSV,4,3,13,07,84,341,40,32,30,111,20,29,40,284,43,03,42,189,36,1*7D
$GBGSV,4,4,13,45,32,293,43,1*4B
$GBGSV,2,1,08,10,72,306,34,27,23,073,28,38,44,176,29,40,72,053,33,8*7F
$GBGSV,2,2,08,08,32,181,27,07,84,341,32,29,40,284,30,45,32,293,33,8*75
$GBGSV,1,1,04,10,72,306,41,08,32,181,37,07,84,341,40,03,42,189,34,B*0B
$GAGSV,2,1,05,25,36,159,30,36,79,349,38,02,73,250,30,34,38,242,23,1*7A
$GAGSV,2,2,05,30,28,314,36,1*4A
$GAGSV,1,1,04,25,36,159,32,36,79,349,41,02,73,250,37,30,28,314,38,2*7D
$GAGSV,2,1,05,25,36,159,40,36,79,349,42,02,73,250,45,34,38,242,20,7*77
$GAGSV,2,2,05,30,28,314,40,7*4D
$GNGGA,044405.00,3954.61384261,N,11627.10341623,E,4,20,0.8,39.1072,M,-8.2905,M,1.0,1828*70
$GNRMC,044405.00,D,3954.61384261,N,11627.10341623,E,0.024,28.3,240425,7.2,W,R,S*6B
$GPGSV,2,1,06,03,41,061,24,14,52,180,47,17,72,030,26,22,70,213,40,1*69
$GPGSV,2,2,06,19,57,315,42,06,43,251,27,1*6B
$GPGSV,2,1,05,14,52,180,43,17,72,030,15,22,70,213,30,19,57,315,34,4*61
$GPGSV,2,2,05,06,43,251,34,4*54
$GPGSV,1,1,03,03,41,061,15,14,52,180,41,06,43,251,34,8*55
$GLGSV,2,1,05,71,25,085,29,77,55,262,36,78,19,328,34,88,14,266,39,1*7E
$GLGSV,2,2,05,87,57,323,23,1*43
$GLGSV,1,1,01,78,19,328,23,3*44
$GBGSV,4,1,13,10,72,306,40,27,23,073,34,30,68,025,14,38,44,176,41,1*72
$GBGSV,4,2,13,40,72,053,44,36,39,231,40,01,35,140,27,08,32,181,34,1*7F
$GBGSV,4,3,13,07,84,341,39,32,30,111,21,29,40,284,43,03,42,189,35,1*71
$GBGSV,4,4,13,45,32,293,43,1*4B
$GBGSV,2,1,08,10,72,306,34,27,23,073,28,38,44,176,30,40,72,053,34,8*70
$GBGSV,2,2,08,08,32,181,27,07,84,341,32,29,40,284,30,45,32,293,33,8*75
$GBGSV,1,1,04,10,72,306,40,08,32,181,37,07,84,341,41,03,42,189,34,B*0B
$GAGSV,2,1,05,25,36,159,30,36,79,349,38,02,73,250,31,34,38,242,23,1*7B
$GAGSV,2,2,05,30,28,314,37,1*4B
$GAGSV,1,1,04,25,36,159,33,36,79,349,41,02,73,250,36,30,28,314,38,2*7D
$GAGSV,2,1,05,25,36,159,39,36,79,349,43,02,73,250,46,34,38,242,19,7*71
$GAGSV,2,2,05,30,28,314,40,7*4D
$GNGGA,044406.00,3954.61383680,N,11627.10341202,E,4,20,0.8,39.0945,M,-8.2905,M,1.0,1828*74
$GNRMC,044406.00,D,3954.61383680,N,11627.10341202,E,0.019,33.9,240425,7.2,W,R,S*6D
$GPGSV,2,1,06,03,41,061,25,14,52,180,46,17,72,030,26,22,70,213,42,1*6B
$GPGSV,2,2,06,19,57,315,43,06,43,251,27,1*6A
$GPGSV,2,1,05,14,52,180,43,17,72,030,15,22,70,213,32,19,57,315,34,4*63
$GPGSV,2,2,05,06,43,251,35,4*55
$GPGSV,1,1,03,03,41,061,14,14,52,180,42,06,43,251,34,8*57
$GLGSV,2,1,05,71,25,085,21,77,55,262,36,78,19,328,34,88,14,266,38,1*77
$GLGSV,2,2,05,87,57,323,21,1*41
$GLGSV,1,1,01,78,19,328,22,3*45
$GBGSV,4,1,13,10,72,306,41,27,23,073,34,30,68,025,13,38,44,176,41,1*74
$GBGSV,4,2,13,40,72,053,43,36,39,231,40,01,35,140,29,08,32,181,32,1*70
$GBGSV,4,3,13,07,84,341,39,32,30,111,21,29,40,284,43,03,42,189,36,1*72
$GBGSV,4,4,13,45,32,293,41,1*49
$GBGSV,2,1,08,10,72,306,34,27,23,073,29,38,44,176,31,40,72,053,34,8*70
$GBGSV,2,2,08,08,32,181,28,07,84,341,32,29,40,284,30,45,32,293,32,8*7B
$GBGSV,1,1,04,10,72,306,41,08,32,181,36,07,84,341,41,03,42,189,34,B*0B
$GAGSV,2,1,05,25,36,159,31,36,79,349,37,02,73,250,31,34,38,242,23,1*75
$GAGSV,2,2,05,30,28,314,37,1*4B
$GAGSV,1,1,04,25,36,159,34,36,79,349,40,02,73,250,36,30,28,314,37,2*74
$GAGSV,2,1,05,25,36,159,39,36,79,349,43,02,73,250,46,34,38,242,18,7*70
$GAGSV,2,2,05,30,28,314,42,7*4F
$GNGGA,044407.00,3954.61384412,N,11627.10341953,E,4,21,0.7,39.0665,M,-8.2905,M,1.0,1828*77
$GNRMC,044407.00,D,3954.61384412,N,11627.10341953,E,0.019,33.5,240425,7.2,W,R,S*61
$GPGSV,2,1,06,03,41,061,29,14,52,180,46,17,72,030,26,22,70,213,41,1*64
$GPGSV,2,2,06,19,57,315,43,06,43,251,27,1*6A
$GPGSV,2,1,05,14,52,180,43,17,72,030,16,22,70,213,31,19,57,315,34,4*63
$GPGSV,2,2,05,06,43,251,34,4*54
$GPGSV,1,1,03,03,41,061,12,14,52,180,42,06,43,251,34,8*51
$GLGSV,2,1,05,71,25,085,27,77,55,262,34,78,19,328,35,88,14,266,38,1*72
$GLGSV,2,2,05,87,57,323,24,1*44
$GLGSV,1,1,01,78,19,328,21,3*46
$GBGSV,4,1,13,10,72,306,41,27,23,073,33,30,68,025,14,38,44,176,42,1*77
$GBGSV,4,2,13,40,72,053,43,36,39,231,40,01,35,140,30,08,32,181,33,1*79
$GBGSV,4,3,13,07,84,341,38,32,30,111,20,29,40,284,42,03,42,189,35,1*70
$GBGSV,4,4,13,45,32,293,40,1*48
$GBGSV,2,1,08,10,72,306,33,27,23,073,30,38,44,176,30,40,72,053,33,8*79
$GBGSV,2,2,08,08,32,181,27,07,84,341,32,29,40,284,30,45,32,293,33,8*75
$GBGSV,1,1,04,10,72,306,41,08,32,181,36,07,84,341,41,03,42,189,35,B*0A
$GAGSV,2,1,05,25,36,159,30,36,79,349,37,02,73,250,32,34,38,242,23,1*77
$GAGSV,2,2,05,30,28,314,37,1*4B
$GAGSV,1,1,04,25,36,159,34,36,79,349,40,02,73,250,37,30,28,314,37,2*75
$GAGSV,2,1,05,25,36,159,39,36,79,349,43,02,73,250,46,34,38,242,17,7*7F
$GAGSV,2,2,05,30,28,314,42,7*4F
$GNGGA,044408.00,3954.61383627,N,11627.10341198,E,4,21,0.7,39.0848,M,-8.2905,M,2.0,1828*76
$GNRMC,044408.00,D,3954.61383627,N,11627.10341198,E,0.015,44.6,240425,7.2,W,R,S*6D
$GPGSV,2,1,06,03,41,061,30,14,52,180,46,17,72,030,25,22,70,213,42,1*6C
$GPGSV,2,2,06,19,57,315,43,06,43,251,30,1*6C
$GPGSV,1,1,04,14,52,180,43,22,70,213,31,19,57,315,34,06,43,251,34,4*66
$GPGSV,1,1,03,03,41,061,12,14,52,180,42,06,43,251,34,8*51
$GLGSV,2,1,05,71,25,085,29,77,55,262,32,78,19,328,36,88,14,266,38,1*79
$GLGSV,2,2,05,87,57,323,25,1*45
$GLGSV,1,1,01,78,19,328,23,3*44
$GBGSV,4,1,13,10,72,306,40,27,23,073,34,30,68,025,14,38,44,176,42,1*71
$GBGSV,4,2,13,40,72,053,43,36,39,231,39,01,35,140,31,08,32,181,35,1*70
$GBGSV,4,3,13,07,84,341,38,32,30,111,20,29,40,284,42,03,42,189,36,1*73
$GBGSV,4,4,13,45,32,293,39,1*46
$GBGSV,2,1,08,10,72,306,33,27,23,073,30,38,44,176,29,40,72,053,32,8*70
$GBGSV,2,2,08,08,32,181,26,07,84,341,31,29,40,284,30,45,32,293,32,8*76
$GBGSV,1,1,04,10,72,306,41,08,32,181,35,07,84,341,41,03,42,189,35,B*09
$GAGSV,2,1,05,25,36,159,30,36,79,349,37,02,73,250,32,34,38,242,23,1*77
$GAGSV,2,2,05,30,28,314,36,1*4A
$GAGSV,1,1,04,25,36,159,33,36,79,349,40,02,73,250,37,30,28,314,38,2*7D
$GAGSV,2,1,05,25,36,159,39,36,79,349,43,02,73,250,46,34,38,242,17,7*7F
$GAGSV,2,2,05,30,28,314,42,7*4F
$GNGGA,044409.00,3954.61383453,N,11627.10341310,E,4,21,0.7,39.1011,M,-8.2905,M,1.0,1828*72
$GNRMC,044409.00,D,3954.61383453,N,11627.10341310,E,0.010,61.9,240425,7.2,W,R,S*62
$GPGSV,2,1,06,03,41,061,30,14,52,180,46,17,72,030,25,22,70,213,42,1*6C
$GPGSV,2,2,06,19,57,315,43,06,43,251,27,1*6A
$GPGSV,2,1,05,14,52,180,43,17,72,030,16,22,70,213,31,19,57,315,34,4*63
$GPGSV,2,2,05,06,43,251,34,4*54
$GPGSV,1,1,03,03,41,061,11,14,52,180,42,06,43,251,34,8*52
$GLGSV,2,1,06,71,25,085,30,77,55,262,33,78,19,328,36,72,11,133,29,1*70
$GLGSV,2,2,06,88,14,266,38,87,57,323,28,1*77
$GLGSV,1,1,01,78,19,328,25,3*42
$GBGSV,4,1,14,02,30,222,32,10,72,306,40,27,23,073,35,30,68,025,13,1*7F
$GBGSV,4,2,14,38,44,176,43,40,72,053,43,36,39,231,40,01,35,140,30,1*73
$GBGSV,4,3,14,08,32,181,36,07,84,341,38,32,30,111,20,29,40,284,42,1*70
$GBGSV,4,4,14,03,42,189,36,45,32,293,39,1*71
$GBGSV,2,1,08,10,72,306,33,27,23,073,30,38,44,176,29,40,72,053,32,8*70
$GBGSV,2,2,08,08,32,181,28,07,84,341,31,29,40,284,29,45,32,293,32,8*70
$GBGSV,1,1,04,10,72,306,41,08,32,181,35,07,84,341,41,03,42,189,35,B*09
$GAGSV,2,1,05,25,36,159,31,36,79,349,37,02,73,250,32,34,38,242,23,1*76
$GAGSV,2,2,05,30,28,314,37,1*4B
$GAGSV,1,1,04,25,36,159,33,36,79,349,41,02,73,250,37,30,28,314,38,2*7C
$GAGSV,2,1,05,25,36,159,39,36,79,349,43,02,73,250,46,34,38,242,19,7*71
$GAGSV,2,2,05,30,28,314,42,7*4F
$GNGGA,044410.00,3954.61383784,N,11627.10341311,E,4,21,0.7,39.0803,M,-8.2905,M,1.0,1828*78
$GNRMC,044410.00,D,3954.61383784,N,11627.10341311,E,0.009,52.5,240425,7.2,W,R,S*66
$GPGSV,2,1,06,03,41,061,33,14,52,180,46,17,72,030,24,22,70,213,41,1*6D
$GPGSV,2,2,06,19,57,315,42,06,43,251,26,1*6A
$GPGSV,2,1,05,14,52,180,43,17,72,030,14,22,70,213,30,19,57,315,33,4*67
$GPGSV,2,2,05,06,43,251,34,4*54
$GPGSV,1,1,03,03,41,061,11,14,52,180,42,06,43,251,35,8*53
$GLGSV,2,1,05,71,25,085,27,77,55,262,34,78,19,328,38,88,14,266,38,1*7F
$GLGSV,2,2,05,87,57,323,30,1*41
$GLGSV,1,1,01,78,19,328,26,3*41
$GBGSV,4,1,14,02,30,222,33,10,72,306,40,27,23,073,34,30,68,025,15,1*79
$GBGSV,4,2,14,38,44,176,43,40,72,053,44,36,39,231,39,01,35,140,28,1*73
$GBGSV,4,3,14,08,32,181,36,07,84,341,39,32,30,111,21,29,40,284,42,1*70
$GBGSV,4,4,14,03,42,189,36,45,32,293,40,1*7F
$GBGSV,2,1,08,10,72,306,33,27,23,073,29,38,44,176,30,40,72,053,33,8*71
$GBGSV,2,2,08,08,32,181,28,07,84,341,32,29,40,284,30,45,32,293,32,8*7B
$GBGSV,1,1,04,10,72,306,41,08,32,181,37,07,84,341,41,03,42,189,35,B*0B
$GAGSV,2,1,05,25,36,159,31,36,79,349,37,02,73,250,32,34,38,242,23,1*76
$GAGSV,2,2,05,30,28,314,36,1*4A
$GAGSV,1,1,04,25,36,159,33,36,79,349,41,02,73,250,38,30,28,314,37,2*7C
$GAGSV,2,1,05,25,36,159,39,36,79,349,43,02,73,250,46,34,38,242,20,7*7B
$GAGSV,2,2,05,30,28,314,41,7*4C
$GNGGA,044411.00,3954.61389580,N,11627.10339624,E,4,21,0.7,39.0863,M,-8.2905,M,1.0,1828*7F
$GNRMC,044411.00,D,3954.61389580,N,11627.10339624,E,0.670,359.9,240425,7.2,W,R,S*5B
$GPGSV,2,1,05,03,41,061,31,14,52,180,45,17,72,031,24,22,70,212,41,1*6F
$GPGSV,2,2,05,19,57,315,41,1*59
$GPGSV,2,1,05,14,52,180,43,17,72,031,16,22,70,212,30,19,57,315,32,4*64
$GPGSV,2,2,05,06,44,251,32,4*55
$GPGSV,1,1,02,14,52,180,42,06,44,251,36,8*67
$GLGSV,2,1,05,71,25,085,30,77,55,262,34,78,19,328,37,88,14,266,36,1*78
$GLGSV,2,2,05,87,57,323,32,1*43
$GLGSV,1,1,01,78,19,328,27,3*40
$GBGSV,4,1,14,02,30,222,32,10,72,306,40,27,23,073,33,30,68,025,15,1*7F
$GBGSV,4,2,14,38,44,176,43,40,72,053,44,36,39,231,38,01,35,140,25,1*7F
$GBGSV,4,3,14,08,32,182,35,07,84,341,39,32,30,111,23,29,40,284,42,1*72
$GBGSV,4,4,14,03,42,189,36,45,32,293,39,1*71
$GBGSV,2,1,08,10,72,306,33,27,23,073,29,38,44,176,30,40,72,053,32,8*70
$GBGSV,2,2,08,08,32,182,28,07,84,341,32,29,40,284,30,45,32,293,31,8*7B
$GBGSV,1,1,04,10,72,306,41,08,32,182,36,07,84,341,40,03,42,189,35,B*08
$GAGSV,2,1,05,25,36,159,30,36,79,350,37,02,73,250,32,34,38,242,23,1*7F
$GAGSV,2,2,05,30,28,314,35,1*49
$GAGSV,1,1,04,25,36,159,34,36,79,350,42,02,73,250,38,30,28,314,37,2*70
$GAGSV,2,1,05,25,36,159,39,36,79,350,43,02,73,250,46,34,38,242,21,7*72
$GAGSV,2,2,05,30,28,314,40,7*4D
$GNGGA,044412.00,3954.61444915,N,11627.10341200,E,4,19,0.8,39.0685,M,-8.2905,M,1.0,1828*75
$GNRMC,044412.00,D,3954.61444915,N,11627.10341200,E,3.241,355.0,240425,7.2,W,R,S*53
$GPGSV,2,1,06,03,41,061,27,14,52,180,44,17,72,031,24,22,70,212,41,1*6A
$GPGSV,2,2,06,19,57,315,39,06,44,251,32,1*64
$GPGSV,2,1,05,14,52,180,42,17,72,031,19,22,70,212,32,19,57,315,32,4*68
$GPGSV,2,2,05,06,44,251,36,4*51
$GPGSV,1,1,02,14,52,180,42,06,44,251,36,8*67
$GLGSV,2,1,05,71,25,085,31,77,55,262,35,78,19,328,37,88,14,266,37,1*79
$GLGSV,2,2,05,87,57,323,35,1*44
$GLGSV,1,1,01,78,19,328,27,3*40
$GBGSV,4,1,13,10,72,306,40,27,23,073,33,30,68,025,17,38,44,176,43,1*74
$GBGSV,4,2,13,40,72,053,43,36,39,231,34,01,35,140,28,08,32,182,36,1*75
$GBGSV,4,3,13,07,84,341,38,32,30,111,24,29,40,284,41,03,42,189,37,1*75
$GBGSV,4,4,13,45,32,293,42,1*4A
$GBGSV,2,1,08,10,72,306,33,27,23,073,29,38,44,176,30,40,72,053,33,8*71
$GBGSV,2,2,08,08,32,182,27,07,84,341,31,29,40,284,29,45,32,293,31,8*7F
$GBGSV,1,1,04,10,72,306,41,08,32,182,37,07,84,341,41,03,42,189,35,B*08
$GAGSV,2,1,05,25,36,159,30,36,79,350,37,02,73,250,32,34,38,242,23,1*7F
$GAGSV,2,2,05,30,28,314,34,1*48
$GAGSV,1,1,04,25,36,159,35,36,79,350,41,02,73,250,37,30,28,314,36,2*7C
$GAGSV,2,1,05,25,36,159,38,36,79,350,42,02,73,250,45,34,38,242,22,7*72
$GAGSV,2,2,05,30,28,314,40,7*4D
$GNGGA,044413.00,3954.61624481,N,11627.10338004,E,4,18,0.8,39.1233,M,-8.2905,M,2.0,1828*72
$GNRMC,044413.00,D,3954.61624481,N,11627.10338004,E,8.642,357.5,240425,7.2,W,R,S*55
$GPGSV,2,1,06,03,41,061,27,14,52,180,45,17,72,031,24,22,70,212,42,1*68
$GPGSV,2,2,06,19,57,315,39,06,44,251,34,1*62
$GPGSV,2,1,05,14,52,180,42,17,72,031,17,22,70,212,33,19,57,315,32,4*67
$GPGSV,2,2,05,06,44,251,38,4*5F
$GPGSV,1,1,02,14,52,180,42,06,44,251,38,8*69
$GLGSV,2,1,05,71,25,085,40,77,55,262,36,78,19,328,38,88,14,266,39,1*7D
$GLGSV,2,2,05,87,57,323,36,1*47
$GLGSV,1,1,01,78,19,328,30,3*46
$GBGSV,3,1,12,10,72,306,40,27,23,073,36,30,68,025,18,38,44,176,41,1*7A
$GBGSV,3,2,12,40,72,053,43,01,35,140,30,08,32,182,36,07,84,341,39,1*75
$GBGSV,3,3,12,32,30,111,24,29,40,284,40,03,42,189,41,45,32,293,42,1*7B
$GBGSV,2,1,08,10,72,306,33,27,23,073,32,38,44,176,33,40,72,053,31,8*7A
$GBGSV,2,2,08,08,32,182,27,07,84,341,31,29,40,284,28,45,32,293,30,8*7F
$GBGSV,1,1,04,10,72,306,41,08,32,182,36,07,84,341,40,03,42,189,38,B*05
$GAGSV,2,1,05,25,36,159,30,36,79,350,37,02,73,250,33,34,38,242,22,1*7F
$GAGSV,2,2,05,30,28,314,34,1*48
$GAGSV,1,1,04,25,36,159,34,36,79,350,40,02,73,250,37,30,28,314,36,2*7C
$GAGSV,2,1,05,25,36,159,38,36,79,350,42,02,73,250,45,34,38,242,23,7*73
$GAGSV,2,2,05,30,28,314,38,7*42
$GNGGA,044414.00,3954.61904204,N,11627.10334544,E,4,15,0.9,39.1414,M,-8.2904,M,1.0,1828*73
$GNRMC,044414.00,D,3954.61904204,N,11627.10334544,E,10.562,359.6,240425,7.2,W,R,S*6C
$GPGSV,2,1,06,03,41,061,29,14,52,180,44,17,72,031,23,22,70,212,42,1*60
$GPGSV,2,2,06,19,57,315,38,06,44,251,34,1*63
$GPGSV,2,1,05,14,52,180,42,17,72,031,17,22,70,212,32,19,57,315,31,4*65
$GPGSV,2,2,05,06,44,251,38,4*5F
$GPGSV,1,1,03,03,41,061,21,14,52,180,40,06,44,251,38,8*58
$GLGSV,2,1,05,71,25,085,43,77,55,262,36,78,19,328,38,88,14,266,40,1*70
$GLGSV,2,2,05,87,57,323,37,1*46
$GLGSV,1,1,01,78,19,328,30,3*46
$GBGSV,3,1,12,10,72,306,40,27,23,073,36,30,68,025,18,38,44,176,41,1*7A
$GBGSV,3,2,12,40,72,053,41,01,35,140,32,08,32,182,35,07,84,341,38,1*77
$GBGSV,3,3,12,32,30,111,24,29,40,284,40,03,42,189,42,45,32,293,40,1*7A
$GBGSV,3,1,09,10,72,306,34,27,23,073,33,38,44,176,34,40,72,053,30,8*7A
$GBGSV,3,2,09,08,32,182,27,07,84,341,31,29,40,284,27,03,42,189,31,8*7C
$GBGSV,3,3,09,45,32,293,29,8*45
$GBGSV,1,1,04,10,72,306,40,08,32,182,35,07,84,341,40,03,42,189,40,B*08
$GAGSV,2,1,05,25,36,159,32,36,79,350,38,02,73,250,33,34,38,242,23,1*73
$GAGSV,2,2,05,30,28,314,32,1*4E
$GAGSV,1,1,04,25,36,159,34,36,79,350,40,02,73,250,37,30,28,314,35,2*7F
$GAGSV,2,1,05,25,36,159,38,36,79,350,42,02,73,250,45,34,38,242,24,7*74
$GAGSV,2,2,05,30,28,314,37,7*4D
$GNGGA,044415.00,3954.62224787,N,11627.10331212,E,4,13,1.4,39.2332,M,-8.2903,M,1.0,1828*7A
$GNRMC,044415.00,D,3954.62224787,N,11627.10331212,E,11.253,0.7,240425,7.2,W,R,S*62
$GPGSV,2,1,06,03,41,061,28,14,52,180,45,17,72,031,23,22,70,212,42,1*60
$GPGSV,2,2,06,19,57,315,38,06,44,251,34,1*63
$GPGSV,2,1,06,03,41,061,25,14,52,180,41,17,72,031,17,22,70,212,33,4*6D
$GPGSV,2,2,06,19,57,315,31,06,44,251,37,4*6C
$GPGSV,1,1,03,03,41,061,26,14,52,180,41,06,44,251,38,8*5E
$GLGSV,2,1,05,71,25,085,44,77,55,262,36,78,19,328,37,88,14,266,39,1*76
$GLGSV,2,2,05,87,57,323,38,1*49
$GLGSV,1,1,01,78,19,328,29,3*4E
$GBGSV,3,1,12,10,72,306,40,27,23,073,35,30,68,025,17,38,44,176,41,1*76
$GBGSV,3,2,12,40,72,053,34,01,35,140,30,08,32,182,34,07,84,341,38,1*76
$GBGSV,3,3,12,32,30,111,24,29,40,284,38,03,42,189,40,45,32,293,40,1*77
$GBGSV,3,1,09,10,72,306,34,27,23,073,33,38,44,176,33,40,72,053,26,8*7A
$GBGSV,3,2,09,08,32,182,26,07,84,341,31,29,40,284,25,03,42,189,28,8*77
$GBGSV,3,3,09,45,32,293,28,8*44
$GBGSV,1,1,04,10,72,306,40,08,32,182,35,07,84,341,40,03,42,189,38,B*07
$GAGSV,2,1,05,25,36,159,31,36,79,350,37,02,73,250,32,34,38,242,25,1*78
$GAGSV,2,2,05,30,28,314,31,1*4D
$GAGSV,2,1,05,25,36,159,33,36,79,350,41,02,73,250,37,34,38,242,33,2*7A
$GAGSV,2,2,05,30,28,314,33,2*4C
$GAGSV,2,1,05,25,36,159,36,36,79,350,43,02,73,250,45,34,38,242,26,7*79
$GAGSV,2,2,05,30,28,314,36,7*4C
$GNGGA,044416.00,3954.62563560,N,11627.10304683,E,4,13,1.0,39.1325,M,-8.2902,M,1.0,1828*7C
$GNRMC,044416.00,D,3954.62563560,N,11627.10304683,E,11.923,354.9,240425,7.2,W,R,S*64
$GPGSV,2,1,05,03,41,061,27,14,52,180,45,17,72,031,21,22,70,212,42,1*6E
$GPGSV,2,2,05,19,57,315,37,1*58
$GPGSV,2,1,05,14,52,180,41,17,72,031,17,22,70,212,32,19,57,315,31,4*66
$GPGSV,2,2,05,06,44,251,34,4*53
$GPGSV,1,1,03,03,41,061,24,14,52,180,41,06,44,251,35,8*51
$GLGSV,2,1,05,71,25,084,43,77,55,262,35,78,19,328,38,88,14,266,37,1*72
$GLGSV,2,2,05,87,57,323,40,1*46
$GLGSV,1,1,01,78,19,328,30,3*46
$GBGSV,3,1,12,10,72,306,40,27,23,073,36,30,68,025,16,38,44,176,42,1*77
$GBGSV,3,2,12,40,72,053,28,01,35,140,30,08,32,182,33,07,84,341,38,1*7C
$GBGSV,3,3,12,32,30,111,25,29,40,284,38,03,42,189,38,45,32,293,39,1*77
$GBGSV,3,1,09,10,72,306,33,27,23,073,33,38,44,176,34,40,72,053,22,8*7E
$GBGSV,3,2,09,08,32,182,27,07,84,341,31,29,40,284,28,03,42,189,24,8*77
$GBGSV,3,3,09,45,32,293,28,8*44
$GBGSV,2,1,05,10,72,306,41,01,35,140,30,08,32,182,36,07,84,341,40,B*08
$GBGSV,2,2,05,03,42,189,36,B*30
$GAGSV,2,1,05,25,36,159,32,36,79,350,37,02,73,250,33,34,38,242,25,1*7A
$GAGSV,2,2,05,30,28,314,33,1*4F
$GAGSV,2,1,05,25,36,159,33,36,79,350,41,02,73,250,37,34,38,242,33,2*7A
$GAGSV,2,2,05,30,28,314,34,2*4B
$GAGSV,2,1,05,25,36,159,35,36,79,350,44,02,73,250,45,34,38,242,27,7*7C
$GAGSV,2,2,05,30,28,314,37,7*4D
$GNGGA,044417.00,3954.62925556,N,11627.10201114,E,4,11,1.1,39.0894,M,-8.2902,M,1.0,1828*78
$GNRMC,044417.00,D,3954.62925556,N,11627.10201114,E,13.396,342.1,240425,7.2,W,R,S*6A
$GPGSV,2,1,05,03,41,061,27,14,52,180,45,17,72,031,21,22,70,212,43,1*6F
$GPGSV,2,2,05,19,57,315,37,1*58
$GPGSV,2,1,06,03,41,061,21,14,52,180,42,17,72,031,17,22,70,212,32,4*6B
$GPGSV,2,2,06,19,57,315,32,06,44,251,33,4*6B
$GPGSV,1,1,03,03,41,061,23,14,52,180,41,06,44,251,33,8*50
$GLGSV,2,1,05,71,25,084,44,77,55,262,33,78,19,328,39,88,14,266,34,1*71
$GLGSV,2,2,05,87,57,323,44,1*42
$GLGSV,1,1,01,78,19,328,30,3*46
$GBGSV,4,1,13,10,72,306,40,27,23,073,39,30,68,026,17,38,44,176,43,1*7D
$GBGSV,4,2,13,40,72,053,25,59,36,146,32,01,35,140,31,08,32,182,35,1*7D
$GBGSV,4,3,13,07,84,341,38,32,30,111,28,29,40,284,41,03,42,189,33,1*7D
$GBGSV,4,4,13,45,32,293,41,1*49
$GBGSV,2,1,08,10,72,306,32,27,23,073,33,38,44,176,34,40,72,053,20,8*7D
$GBGSV,2,2,08,08,32,182,31,07,84,341,31,29,40,284,28,45,32,293,31,8*79
$GBGSV,2,1,05,10,72,306,40,01,35,140,31,08,32,182,38,07,84,341,40,B*06
$GBGSV,2,2,05,03,42,189,33,B*35
$GAGSV,2,1,05,25,36,159,32,36,79,350,37,02,73,250,36,34,38,242,26,1*7C
$GAGSV,2,2,05,30,28,314,35,1*49
$GAGSV,2,1,05,25,36,159,34,36,79,350,39,02,73,250,39,34,38,242,35,2*7A
$GAGSV,2,2,05,30,28,314,37,2*48
$GAGSV,2,1,05,25,36,159,35,36,79,350,44,02,73,250,44,34,38,242,27,7*7D
$GAGSV,2,2,05,30,28,314,41,7*4C
$GNGGA,044418.00,3954.63275450,N,11627.10014689,E,4,10,2.7,39.1557,M,-8.2902,M,1.0,1828*7D
$GNRMC,044418.00,D,3954.63275450,N,11627.10014689,E,13.933,334.7,240425,7.2,W,R,S*6A
$GPGSV,2,1,05,03,41,061,26,14,52,180,44,17,72,031,21,22,70,212,44,1*68
$GPGSV,2,2,05,19,57,315,41,1*59
$GPGSV,2,1,05,14,52,180,41,17,72,031,17,22,70,212,32,19,57,315,35,4*62
$GPGSV,2,2,05,06,44,251,37,4*50
$GPGSV,1,1,03,03,41,061,22,14,52,180,42,06,44,251,37,8*56
$GLGSV,2,1,05,71,25,084,43,77,55,262,35,78,19,328,38,88,14,266,40,1*72
$GLGSV,2,2,05,87,57,323,42,1*44
$GLGSV,1,1,02,71,25,084,32,78,19,328,27,3*7F
$GBGSV,3,1,12,10,72,306,42,27,23,073,33,30,68,026,18,38,44,176,43,1*7C
$GBGSV,3,2,12,59,36,146,38,01,35,140,36,08,32,182,36,07,84,341,39,1*72
$GBGSV,3,3,12,32,30,111,31,29,40,284,42,03,42,189,24,45,32,293,43,1*7F
$GBGSV,2,1,08,10,72,306,31,27,23,073,25,38,44,176,36,40,72,053,18,8*70
$GBGSV,2,2,08,08,32,182,30,07,84,341,31,29,40,284,30,45,32,293,31,8*71
$GBGSV,2,1,05,10,72,306,39,01,35,140,36,08,32,182,37,07,84,341,40,B*00
$GBGSV,2,2,05,03,42,189,26,B*31
$GAGSV,2,1,05,25,36,159,35,36,79,350,37,02,73,250,37,34,38,242,25,1*79
$GAGSV,2,2,05,30,28,314,36,1*4A
$GAGSV,2,1,05,25,36,159,38,36,79,350,39,02,73,250,41,34,38,242,36,2*7A
$GAGSV,2,2,05,30,28,314,39,2*46
$GAGSV,2,1,05,25,36,159,37,36,79,350,45,02,73,250,41,34,38,242,35,7*78
$GAGSV,2,2,05,30,28,314,41,7*4C
$GNGGA,044419.00,3954.63630826,N,11627.09790952,E,4,12,1.8,39.0848,M,-8.2902,M,1.0,1828*72
$GNRMC,044419.00,D,3954.63630826,N,11627.09790952,E,14.462,333.8,240425,7.2,W,R,S*6F
$GPGSV,2,1,05,03,41,061,26,14,52,180,43,17,72,031,22,22,70,212,44,1*6C
$GPGSV,2,2,05,19,57,315,42,1*5A
$GPGSV,2,1,05,14,52,180,41,17,72,031,17,22,70,212,32,19,57,315,36,4*61
$GPGSV,2,2,05,06,44,251,36,4*51
$GPGSV,1,1,03,03,41,061,22,14,52,180,41,06,44,251,38,8*5A
$GLGSV,2,1,05,71,25,084,42,77,55,262,37,78,19,328,35,88,14,266,43,1*7F
$GLGSV,2,2,05,87,57,323,44,1*42
$GLGSV,1,1,02,71,25,084,35,78,19,328,25,3*7A
$GBGSV,3,1,11,10,72,306,43,30,68,026,23,38,44,176,43,59,36,146,38,1*77
$GBGSV,3,2,11,01,35,140,36,08,32,182,34,07,84,341,38,32,30,111,35,1*76
$GBGSV,3,3,11,29,40,284,44,03,42,189,24,45,32,293,43,1*4B
$GBGSV,2,1,08,10,72,306,32,38,44,176,36,40,72,053,13,59,36,146,31,8*77
$GBGSV,2,2,08,08,32,182,28,07,84,341,31,29,40,284,33,45,32,293,30,8*7A
$GBGSV,2,1,05,10,72,306,40,01,35,140,35,08,32,182,35,07,84,341,40,B*0F
$GBGSV,2,2,05,03,42,189,22,B*35
$GAGSV,2,1,05,25,36,159,35,36,79,350,37,02,73,250,37,34,38,242,25,1*79
$GAGSV,2,2,05,30,28,314,37,1*4B
$GAGSV,2,1,05,25,36,159,39,36,79,350,39,02,73,250,42,34,38,242,35,2*7B
$GAGSV,2,2,05,30,28,314,40,2*48
$GAGSV,2,1,05,25,36,159,38,36,79,350,46,02,73,250,41,34,38,242,38,7*79
$GAGSV,2,2,05,30,28,314,41,7*4C
$GNGGA,044420.00,3954.64007964,N,11627.09565768,E,4,11,1.5,39.0979,M,-8.2901,M,1.0,1828*7B
$GNRMC,044420.00,D,3954.64007964,N,11627.09565768,E,15.654,335.8,240425,7.2,W,R,S*68
$GPGSV,2,1,05,03,41,061,26,14,52,180,43,17,72,031,26,22,70,212,44,1*68
$GPGSV,2,2,05,19,57,315,42,1*5A
$GPGSV,2,1,05,14,52,180,41,17,72,031,22,22,70,212,32,19,57,315,36,4*67
$GPGSV,2,2,05,06,44,251,36,4*51
$GPGSV,1,1,03,03,41,061,20,14,52,180,41,06,44,251,39,8*59
$GLGSV,2,1,05,71,25,084,40,77,55,262,37,78,19,328,32,88,14,266,42,1*7B
$GLGSV,2,2,05,87,57,323,44,1*42
$GLGSV,1,1,02,71,25,084,31,78,19,328,21,3*7A
$GBGSV,3,1,12,10,72,306,43,30,68,026,33,38,44,176,43,40,72,053,20,1*71
$GBGSV,3,2,12,59,36,146,38,01,35,140,35,08,32,182,27,07,84,341,39,1*71
$GBGSV,3,3,12,32,30,110,37,29,40,284,44,03,42,189,23,45,32,293,43,1*79
$GBGSV,3,1,09,10,72,306,32,38,44,176,36,40,72,053,12,59,36,146,31,8*76
$GBGSV,3,2,09,08,32,182,23,07,84,341,31,32,30,110,32,29,40,284,33,8*79
$GBGSV,3,3,09,45,32,293,29,8*45
$GBGSV,2,1,05,10,72,306,40,01,35,140,33,08,32,182,31,07,84,341,40,B*0D
$GBGSV,2,2,05,03,42,189,22,B*35
$GAGSV,2,1,05,25,36,159,36,36,79,350,37,02,73,250,37,34,38,242,24,1*7B
$GAGSV,2,2,05,30,28,314,38,1*44
$GAGSV,2,1,05,25,36,159,39,36,79,350,39,02,73,250,42,34,38,242,35,2*7B
$GAGSV,2,2,05,30,28,314,41,2*49
$GAGSV,2,1,05,25,36,159,38,36,79,350,45,02,73,250,42,34,38,242,39,7*78
$GAGSV,2,2,05,30,28,314,41,7*4C
$GNGGA,044421.00,3954.64439805,N,11627.09375967,E,4,12,1.5,39.1231,M,-8.2901,M,1.0,1828*76
$GNRMC,044421.00,D,3954.64439805,N,11627.09375967,E,16.904,345.1,240425,7.2,W,R,S*67
$GPGSV,2,1,05,03,41,061,25,14,52,180,44,17,72,031,31,22,70,212,44,1*6A
$GPGSV,2,2,05,19,57,315,42,1*5A
$GPGSV,2,1,05,14,52,180,41,17,72,031,28,22,70,212,31,19,57,315,36,4*6E
$GPGSV,2,2,05,06,44,251,38,4*5F
$GPGSV,1,1,03,03,41,061,19,14,52,180,42,06,44,251,38,8*51
$GLGSV,2,1,05,71,25,084,31,77,55,262,36,78,19,328,30,88,14,266,37,1*7C
$GLGSV,2,2,05,87,57,323,43,1*45
$GLGSV,1,1,01,78,19,328,21,3*46
$GBGSV,3,1,12,10,72,306,43,30,68,026,35,38,44,176,43,40,72,053,20,1*77
$GBGSV,3,2,12,59,36,146,39,01,35,140,36,08,32,182,24,07,84,341,39,1*70
$GBGSV,3,3,12,32,30,110,37,29,40,284,42,03,42,189,24,45,32,293,44,1*7F
$GBGSV,3,1,09,10,72,306,32,30,68,026,33,38,44,176,37,40,72,053,12,8*76
$GBGSV,3,2,09,59,36,146,32,07,84,341,31,32,30,110,32,29,40,284,33,8*71
$GBGSV,3,3,09,45,32,293,30,8*4D
$GBGSV,2,1,05,10,72,306,40,01,35,140,34,08,32,182,25,07,84,341,40,B*0F
$GBGSV,2,2,05,03,42,189,22,B*35
$GAGSV,2,1,05,25,36,159,35,36,79,350,37,02,73,250,38,34,38,242,25,1*76
$GAGSV,2,2,05,30,28,314,37,1*4B
$GAGSV,2,1,05,25,36,159,38,36,79,350,38,02,73,250,42,34,38,242,36,2*78
$GAGSV,2,2,05,30,28,314,41,2*49
$GAGSV,2,1,05,25,36,159,38,36,79,350,45,02,73,250,43,34,38,242,38,7*78
$GAGSV,2,2,05,30,28,314,40,7*4D
$GNGGA,044422.00,3954.64916574,N,11627.09271394,E,4,11,1.5,39.2516,M,-8.2900,M,1.0,1828*7E
$GNRMC,044422.00,D,3954.64916574,N,11627.09271394,E,17.608,354.5,240425,7.2,W,R,S*6A
$GPGSV,2,1,05,03,41,061,22,14,52,180,44,17,72,031,40,22,70,212,43,1*6C
$GPGSV,2,2,05,19,57,315,38,1*57
$GPGSV,2,1,05,14,52,180,41,17,72,031,32,22,70,212,32,19,57,315,33,4*63
$GPGSV,2,2,05,06,44,251,36,4*51
$GPGSV,1,1,03,03,41,061,18,14,52,180,41,06,44,251,36,8*5D
$GLGSV,2,1,05,71,25,084,31,77,55,262,35,78,19,328,27,88,14,266,33,1*7D
$GLGSV,2,2,05,87,57,323,45,1*43
$GLGSV,1,1,01,78,19,328,19,3*4D
$GBGSV,3,1,12,10,72,306,41,30,68,026,38,38,44,176,43,40,72,053,20,1*78
$GBGSV,3,2,12,59,36,146,40,01,35,140,34,08,32,182,22,07,84,341,38,1*7B
$GBGSV,3,3,12,32,30,110,37,29,40,284,43,03,42,189,24,45,32,293,42,1*78
$GBGSV,3,1,10,10,72,306,32,30,68,026,34,38,44,176,36,40,72,053,14,8*7E
$GBGSV,3,2,10,59,36,146,31,08,32,182,19,07,84,341,31,32,30,110,30,8*73
$GBGSV,3,3,10,29,40,284,31,45,32,293,31,8*77
$GBGSV,2,1,05,10,72,306,40,01,35,140,35,08,32,182,22,07,84,341,40,B*09
$GBGSV,2,2,05,03,42,189,29,B*3E
$GAGSV,2,1,05,25,36,159,34,36,79,350,37,02,73,250,37,34,38,242,24,1*79
$GAGSV,2,2,05,30,28,314,34,1*48
$GAGSV,2,1,05,25,36,159,37,36,79,350,40,02,73,250,41,34,38,242,38,2*75
$GAGSV,2,2,05,30,28,314,37,2*48
$GAGSV,2,1,05,25,36,159,38,36,79,350,44,02,73,250,44,34,38,242,36,7*70
$GAGSV,2,2,05,30,28,314,39,7*43
$GNGGA,044423.00,3954.65419894,N,11627.09228121,E,4,12,1.3,39.3549,M,-8.2899,M,1.0,1828*70
$GNRMC,044423.00,D,3954.65419894,N,11627.09228121,E,18.822,357.0,240425,7.2,W,R,S*64
$GPGSV,2,1,05,14,52,180,44,17,72,031,42,22,70,212,43,19,57,315,38,1*69
$GPGSV,2,2,05,06,44,251,34,1*56
$GPGSV,2,1,05,14,52,180,41,17,72,031,37,22,70,212,33,19,57,315,30,4*64
$GPGSV,2,2,05,06,44,251,36,4*51
$GPGSV,1,1,03,03,41,061,16,14,52,180,41,06,44,251,36,8*53
$GLGSV,2,1,05,71,25,084,26,77,55,262,39,78,19,328,29,88,14,266,31,1*7B
$GLGSV,2,2,05,87,57,323,43,1*45
$GLGSV,1,1,01,78,19,328,19,3*4D
$GBGSV,4,1,13,60,29,227,38,10,72,306,41,30,68,026,41,38,44,176,43,1*74
$GBGSV,4,2,13,40,72,053,22,59,36,146,39,01,35,140,33,08,32,182,21,1*76
$GBGSV,4,3,13,07,84,341,39,32,30,110,37,29,40,284,40,03,42,189,32,1*73
$GBGSV,4,4,13,45,32,293,40,1*48
$GBGSV,3,1,10,10,72,306,33,30,68,026,34,38,44,176,35,40,72,053,13,8*7B
$GBGSV,3,2,10,59,36,146,29,08,32,182,17,07,84,341,32,32,30,110,29,8*7F
$GBGSV,3,3,10,29,40,284,27,45,32,293,28,8*78
$GBGSV,2,1,05,10,72,306,40,01,35,140,36,08,32,182,21,07,84,341,40,B*09
$GBGSV,2,2,05,03,42,189,30,B*36
$GAGSV,2,1,05,25,36,159,34,36,79,350,38,02,73,250,35,34,38,242,24,1*74
$GAGSV,2,2,05,30,28,314,33,1*4F
$GAGSV,2,1,05,25,36,159,36,36,79,350,40,02,73,250,39,34,38,242,39,2*7A
$GAGSV,2,2,05,30,28,314,34,2*4B
$GAGSV,2,1,05,25,36,159,39,36,79,350,43,02,73,250,44,34,38,242,36,7*76
$GAGSV,2,2,05,30,28,314,38,7*42
$GNGGA,044424.00,3954.65967688,N,11627.09197423,E,4,12,1.8,39.2139,M,-8.2898,M,1.0,1828*78
$GNRMC,044424.00,D,3954.65967688,N,11627.09197423,E,20.349,357.6,240425,7.2,W,R,S*6F
$GPGSV,1,1,04,14,52,180,45,17,72,031,42,22,70,212,42,19,57,315,37,1*64
$GPGSV,2,1,05,14,52,180,41,17,72,031,36,22,70,212,33,19,57,315,30,4*65
$GPGSV,2,2,05,06,44,251,36,4*51
$GPGSV,1,1,03,03,41,061,14,14,52,180,41,06,44,251,37,8*50
$GLGSV,1,1,04,71,25,084,25,77,55,262,38,88,14,266,31,87,57,323,41,1*74
$GLGSV,1,1,02,71,25,084,11,78,19,328,19,3*73
$GBGSV,3,1,12,60,29,227,37,10,72,306,41,30,68,026,41,38,44,176,42,1*7C
$GBGSV,3,2,12,40,72,053,36,59,36,146,37,01,35,140,33,08,32,182,20,1*7A
$GBGSV,3,3,12,07,84,341,39,29,40,284,40,03,42,189,42,45,32,293,35,1*7A
$GBGSV,3,1,09,10,72,306,33,27,23,073,15,30,68,026,34,38,44,176,34,8*73
$GBGSV,3,2,09,40,72,053,26,59,36,146,30,08,32,182,16,07,84,341,31,8*77
$GBGSV,3,3,09,29,40,284,26,8*43
$GBGSV,2,1,05,10,72,306,41,01,35,140,36,08,32,182,21,07,84,341,40,B*08
$GBGSV,2,2,05,03,42,189,40,B*31
$GAGSV,2,1,05,25,36,159,34,36,79,350,38,02,73,250,33,34,38,242,25,1*73
$GAGSV,2,2,05,30,28,314,31,1*4D
$GAGSV,2,1,05,25,36,159,36,36,79,350,40,02,73,250,38,34,38,242,37,2*75
$GAGSV,2,2,05,30,28,314,33,2*4C
$GAGSV,2,1,05,25,36,159,40,36,79,350,43,02,73,250,45,34,38,242,34,7*7B
$GAGSV,2,2,05,30,28,314,36,7*4C
$GNGGA,044425.00,3954.66518552,N,11627.09180898,E,4,12,1.9,39.3924,M,-8.2896,M,1.0,1828*7A
$GNRMC,044425.00,D,3954.66518552,N,11627.09180898,E,19.651,359.3,240425,7.2,W,R,S*6A
$GPGSV,1,1,04,14,52,180,45,17,72,032,42,22,70,212,42,19,57,316,37,1*64
$GPGSV,1,1,04,14,52,180,41,17,72,032,37,22,70,212,33,06,44,251,36,4*6E
$GPGSV,1,1,02,14,52,180,41,06,44,251,37,8*65
$GLGSV,2,1,05,71,25,084,25,77,55,262,37,78,19,328,29,88,14,266,31,1*76
$GLGSV,2,2,05,87,57,323,38,1*49
$GLGSV,1,1,01,78,19,328,19,3*4D
$GBGSV,3,1,12,60,29,227,40,10,72,306,41,30,68,026,41,38,44,176,42,1*7C
$GBGSV,3,2,12,40,72,053,40,59,36,146,37,01,35,140,32,08,32,182,19,1*70
$GBGSV,3,3,12,07,84,341,39,29,40,284,39,03,42,189,42,45,32,293,35,1*74
$GBGSV,3,1,09,10,72,306,33,30,68,026,34,38,44,176,34,40,72,053,29,8*7B
$GBGSV,3,2,09,59,36,146,30,08,32,182,15,07,84,341,32,29,40,284,26,8*71
$GBGSV,3,3,09,03,42,189,31,8*41
$GBGSV,1,1,04,10,72,306,41,01,35,140,36,07,84,341,40,03,42,189,39,B*04
$GAGSV,2,1,05,25,36,159,35,36,79,350,38,02,73,250,33,34,38,242,25,1*72
$GAGSV,2,2,05,30,28,314,27,1*4A
$GAGSV,2,1,05,25,36,159,36,36,79,350,41,02,73,250,37,34,38,242,38,2*74
$GAGSV,2,2,05,30,28,314,29,2*47
$GAGSV,2,1,05,25,36,159,41,36,79,350,43,02,73,250,46,34,38,242,36,7*7B
$GAGSV,2,2,05,30,28,314,32,7*48
$GNGGA,044426.00,3954.67030745,N,11627.09183214,E,4,13,1.7,39.5079,M,-8.2895,M,2.0,1828*76
$GNRMC,044426.00,D,3954.67030745,N,11627.09183214,E,17.840,0.1,240425,7.2,W,R,S*63
$GPGSV,2,1,05,03,41,061,43,14,52,180,44,17,72,032,42,22,70,212,41,1*68
$GPGSV,2,2,05,19,57,316,37,1*5B
$GPGSV,2,1,05,14,52,180,41,17,72,032,37,22,70,212,32,19,57,316,30,4*65
$GPGSV,2,2,05,06,44,251,37,4*50
$GPGSV,1,1,02,14,52,180,41,06,44,251,37,8*65
$GLGSV,2,1,06,71,25,084,21,77,55,262,37,78,19,328,30,86,40,039,43,1*7B
$GLGSV,2,2,06,88,14,266,34,87,57,323,35,1*77
$GLGSV,1,1,02,76,33,196,38,78,19,328,21,3*71
$GBGSV,3,1,12,60,29,227,40,10,72,306,41,30,68,026,41,38,44,176,42,1*7C
$GBGSV,3,2,12,40,72,053,43,59,36,146,35,01,35,140,30,08,32,182,19,1*73
$GBGSV,3,3,12,07,84,341,39,29,40,284,39,03,42,189,41,45,32,293,39,1*7B
$GBGSV,3,1,10,10,72,306,34,30,68,026,34,38,44,176,34,40,72,053,33,8*7F
$GBGSV,3,2,10,59,36,146,30,08,32,182,11,07,84,341,32,29,40,284,26,8*7D
$GBGSV,3,3,10,03,42,189,31,45,32,293,25,8*76
$GBGSV,2,1,05,10,72,306,41,01,35,140,35,08,32,182,21,07,84,341,40,B*0B
$GBGSV,2,2,05,03,42,189,39,B*3F
$GAGSV,1,1,04,25,36,159,35,36,79,350,38,02,73,250,33,34,38,242,25,1*70
$GAGSV,2,1,05,25,36,159,36,36,79,350,41,02,73,250,36,34,38,242,38,2*75
$GAGSV,2,2,05,30,28,314,21,2*4F
$GAGSV,2,1,05,25,36,159,40,36,79,350,42,02,73,250,45,34,38,242,36,7*78
$GAGSV,2,2,05,30,28,314,30,7*4A
$GNGGA,044427.00,3954.67490503,N,11627.09194793,E,4,12,1.9,39.4383,M,-8.2894,M,1.0,1828*7F
$GNRMC,044427.00,D,3954.67490503,N,11627.09194793,E,15.993,3.2,240425,7.2,W,R,S*6D
$GPGSV,2,1,05,03,41,061,44,14,52,180,44,17,72,032,42,22,70,212,42,1*6C
$GPGSV,2,2,05,19,57,316,37,1*5B
$GPGSV,2,1,05,14,52,180,41,17,72,032,37,22,70,212,33,19,57,316,30,4*64
$GPGSV,2,2,05,06,44,251,37,4*50
$GPGSV,1,1,02,14,52,180,41,06,44,251,38,8*6A
$GLGSV,2,1,06,76,33,196,45,71,25,084,21,77,55,262,38,78,19,328,34,1*79
$GLGSV,2,2,06,86,40,039,42,87,57,323,34,1*70
$GLGSV,1,1,02,76,33,196,38,78,19,328,23,3*73
$GBGSV,4,1,13,60,29,227,41,10,72,306,41,27,23,073,27,30,68,026,41,1*73
$GBGSV,4,2,13,38,44,176,41,40,72,053,43,59,36,146,36,01,35,140,22,1*71
$GBGSV,4,3,13,08,32,182,19,07,84,341,39,29,40,284,40,03,42,189,41,1*7B
$GBGSV,4,4,13,45,32,293,39,1*46
$GBGSV,3,1,10,10,72,306,34,30,68,026,34,38,44,176,33,40,72,053,32,8*79
$GBGSV,3,2,10,59,36,146,30,08,32,182,11,07,84,341,32,29,40,284,27,8*7C
$GBGSV,3,3,10,03,42,189,31,45,32,293,25,8*76
$GBGSV,2,1,05,10,72,306,41,01,35,140,31,08,32,182,21,07,84,341,40,B*0F
$GBGSV,2,2,05,03,42,189,39,B*3F
$GAGSV,1,1,04,25,36,159,35,36,79,350,37,02,73,250,34,34,38,242,26,1*7B
$GAGSV,1,1,04,25,36,159,36,36,79,350,41,02,73,250,36,34,38,242,38,2*77
$GAGSV,2,1,05,25,36,159,40,36,79,350,43,02,73,250,46,34,38,242,37,7*7B
$GAGSV,2,2,05,30,28,314,34,7*4E
$GNGGA,044428.00,3954.67932344,N,11627.09240403,E,4,14,1.6,39.3726,M,-8.2893,M,2.0,1828*71
$GNRMC,044428.00,D,3954.67932344,N,11627.09240403,E,15.658,6.7,240425,7.2,W,R,S*6A
$GPGSV,2,1,05,03,41,061,42,14,52,180,43,17,72,032,41,22,70,212,42,1*6E
$GPGSV,2,2,05,19,57,316,36,1*5A
$GPGSV,2,1,05,14,52,180,41,17,72,032,37,22,70,212,33,19,57,316,28,4*6D
$GPGSV,2,2,05,06,44,251,37,4*50
$GPGSV,1,1,03,03,41,061,28,14,52,180,40,06,44,251,38,8*51
$GLGSV,2,1,07,76,33,196,44,71,25,084,21,77,55,262,40,78,19,328,35,1*77
$GLGSV,2,2,07,86,40,039,43,88,14,266,34,87,57,323,38,1*4C
$GLGSV,1,1,03,76,33,196,39,78,19,328,26,86,40,039,35,3*40
$GBGSV,3,1,12,60,29,227,39,10,72,306,42,27,23,073,27,30,68,026,39,1*76
$GBGSV,3,2,12,38,44,176,41,40,72,053,43,59,36,146,32,08,32,182,27,1*76
$GBGSV,3,3,12,07,84,341,39,29,40,284,42,03,42,189,40,45,32,293,39,1*76
$GBGSV,3,1,09,10,72,306,34,30,68,026,34,38,44,176,33,40,72,053,32,8*71
$GBGSV,3,2,09,08,32,182,13,07,84,341,33,29,40,284,28,03,42,189,30,8*77
$GBGSV,3,3,09,45,32,293,27,8*4B
$GBGSV,2,1,06,10,72,306,41,01,35,140,23,08,32,182,29,07,84,341,40,B*07
$GBGSV,2,2,06,03,42,189,39,02,30,222,35,B*09
$GAGSV,1,1,04,25,36,159,35,36,79,350,37,02,73,250,32,34,38,242,26,1*7D
$GAGSV,2,1,05,25,36,159,36,36,79,350,40,02,73,250,35,34,38,242,34,2*7B
$GAGSV,2,2,05,30,28,314,21,2*4F
$GAGSV,2,1,05,25,36,159,37,36,79,350,41,02,73,250,44,34,38,242,33,7*7F
$GAGSV,2,2,05,30,28,314,28,7*43
$GNGGA,044429.00,3954.68361625,N,11627.09308808,E,4,15,1.2,39.3204,M,-8.2892,M,2.0,1828*7A
$GNRMC,044429.00,D,3954.68361625,N,11627.09308808,E,15.262,6.5,240425,7.2,W,R,S*6F
$GPGSV,2,1,05,03,41,060,26,14,52,180,44,17,72,032,41,22,70,212,42,1*6A
$GPGSV,2,2,05,19,57,316,35,1*59
$GPGSV,1,1,04,14,52,180,40,17,72,032,36,22,70,212,34,06,44,251,36,4*69
$GPGSV,1,1,02,14,52,180,40,06,44,251,38,8*6B
$GLGSV,2,1,07,76,33,196,43,71,25,084,21,77,55,262,39,78,19,328,36,1*7D
$GLGSV,2,2,07,86,40,039,43,88,14,266,33,87,57,323,40,1*44
$GLGSV,1,1,03,76,33,196,37,78,19,328,27,86,40,039,33,3*49
$GBGSV,4,1,13,60,29,227,39,10,72,306,41,27,23,073,26,30,68,026,36,1*7D
$GBGSV,4,2,13,38,44,176,41,40,72,053,43,59,36,146,25,01,35,140,20,1*71
$GBGSV,4,3,13,08,32,182,30,07,84,341,40,29,40,284,41,03,42,189,40,1*7E
$GBGSV,4,4,13,45,32,293,34,1*4B
$GBGSV,2,1,08,10,72,306,34,30,68,026,35,38,44,176,33,40,72,053,32,8*70
$GBGSV,2,2,08,08,32,182,19,07,84,341,32,29,40,284,27,03,42,189,28,8*7A
$GBGSV,2,1,05,10,72,306,42,08,32,182,32,07,84,341,40,03,42,189,39,B*01
$GBGSV,2,2,05,02,30,222,36,B*36
$GAGSV,2,1,05,25,36,159,35,36,79,350,37,02,73,250,32,34,38,242,24,1*7D
$GAGSV,2,2,05,30,28,314,25,1*48
$GAGSV,2,1,05,25,36,159,37,36,79,350,40,02,73,250,35,34,38,242,36,2*78
$GAGSV,2,2,05,30,28,314,23,2*4D
$GAGSV,2,1,05,25,36,159,37,36,79,350,42,02,73,250,45,34,38,242,37,7*79
$GAGSV,2,2,05,30,28,314,29,7*42
$GNGGA,044430.00,3954.68781356,N,11627.09368747,E,4,15,1.3,39.2272,M,-8.2890,M,1.0,1828*7B
$GNRMC,044430.00,D,3954.68781356,N,11627.09368747,E,14.895,6.9,240425,7.2,W,R,S*61
$GPGSV,2,1,06,03,41,060,31,14,52,180,44,17,72,032,41,22,70,212,42,1*6F
$GPGSV,2,2,06,19,57,316,35,06,44,251,39,1*60
$GPGSV,1,1,04,14,52,180,39,17,72,032,36,22,70,212,33,06,44,251,37,4*61
$GPGSV,1,1,02,14,52,180,40,06,44,251,39,8*6A
$GLGSV,2,1,07,76,33,196,43,71,25,084,22,77,55,262,39,78,19,328,37,1*7F
$GLGSV,2,2,07,86,40,039,41,88,14,266,32,87,57,323,41,1*46
$GLGSV,1,1,02,76,33,196,36,86,40,039,29,3*79
$GBGSV,3,1,12,60,29,227,37,10,72,306,41,27,23,073,26,30,68,026,37,1*74
$GBGSV,3,2,12,38,44,176,40,40,72,053,43,59,36,146,24,08,32,182,32,1*74
$GBGSV,3,3,12,07,84,341,40,29,40,284,43,03,42,189,40,45,32,293,31,1*71
$GBGSV,2,1,08,10,72,306,34,30,68,026,35,38,44,176,33,40,72,053,32,8*70
$GBGSV,2,2,08,08,32,182,21,07,84,341,32,29,40,284,27,03,42,189,30,8*78
$GBGSV,2,1,05,10,72,306,41,08,32,182,36,07,84,341,40,03,42,189,39,B*06
$GBGSV,2,2,05,02,30,222,34,B*34
$GAGSV,2,1,05,25,36,159,35,36,79,350,37,02,73,250,32,34,38,242,21,1*78
$GAGSV,2,2,05,30,28,314,24,1*49
$GAGSV,2,1,05,25,36,159,37,36,79,350,41,02,73,250,36,34,38,242,36,2*7A
$GAGSV,2,2,05,30,28,314,24,2*4A
$GAGSV,2,1,05,25,36,159,38,36,79,350,42,02,73,250,45,34,38,242,37,7*76
$GAGSV,2,2,05,30,28,314,28,7*43
$GNGGA,044431.00,3954.69182528,N,11627.09408877,E,4,13,1.8,39.1880,M,-8.2889,M,1.0,1828*7D
$GNRMC,044431.00,D,3954.69182528,N,11627.09408877,E,13.513,2.9,240425,7.2,W,R,S*66
$GPGSV,2,1,06,03,41,060,31,14,52,180,44,17,72,032,40,22,70,212,43,1*6F
$GPGSV,2,2,06,19,57,316,36,06,44,251,37,1*6D
$GPGSV,1,1,04,14,52,180,39,17,72,032,36,22,70,212,34,06,44,251,37,4*66
$GPGSV,1,1,02,14,52,180,40,06,44,251,39,8*6A
$GLGSV,2,1,07,76,33,196,42,71,25,084,31,77,55,262,39,78,19,328,33,1*78
$GLGSV,2,2,07,86,40,039,38,88,14,266,31,87,57,323,40,1*4A
$GLGSV,1,1,02,76,33,196,35,86,40,039,28,3*7B
$GBGSV,4,1,13,60,29,227,38,10,72,306,41,27,23,073,28,30,68,026,36,1*72
$GBGSV,4,2,13,38,44,176,40,40,72,053,42,36,39,230,42,59,36,146,21,1*7D
$GBGSV,4,3,13,08,32,182,33,07,84,341,40,29,40,284,40,03,42,189,40,1*7C
$GBGSV,4,4,13,45,32,293,30,1*4F
$GBGSV,2,1,08,10,72,306,34,30,68,026,34,38,44,176,33,40,72,053,32,8*71
$GBGSV,2,2,08,08,32,182,25,07,84,341,32,29,40,284,24,03,42,189,30,8*7F
$GBGSV,2,1,05,10,72,306,41,08,32,182,37,07,84,341,40,03,42,189,39,B*07
$GBGSV,2,2,05,02,30,222,35,B*35
$GAGSV,2,1,05,25,36,159,35,36,79,350,37,02,73,250,32,34,38,242,21,1*78
$GAGSV,2,2,05,30,28,314,24,1*49
$GAGSV,2,1,05,25,36,159,38,36,79,350,41,02,73,250,36,34,38,242,37,2*74
$GAGSV,2,2,05,30,28,314,25,2*4B
$GAGSV,2,1,05,25,36,159,39,36,79,350,42,02,73,250,45,34,38,242,38,7*78
$GAGSV,2,2,05,30,28,314,24,7*4F
$GNGGA,044432.00,3954.69544075,N,11627.09428172,E,4,15,1.6,39.0497,M,-8.2888,M,1.0,1828*71
$GNRMC,044432.00,D,3954.69544075,N,11627.09428172,E,12.077,0.5,240425,7.2,W,R,S*60
$GPGSV,2,1,06,03,41,060,31,14,52,180,44,17,72,032,41,22,70,212,41,1*6C
$GPGSV,2,2,06,19,57,316,36,06,44,251,37,1*6D
$GPGSV,1,1,04,14,52,180,40,17,72,032,37,22,70,212,33,06,44,251,38,4*61
$GPGSV,1,1,02,14,52,180,41,06,44,251,39,8*6B
$GLGSV,2,1,07,76,33,196,44,71,25,084,30,77,55,262,39,78,19,328,30,1*7C
$GLGSV,2,2,07,86,40,039,36,88,14,266,30,87,57,323,38,1*4A
$GLGSV,1,1,02,76,33,196,37,86,40,039,22,3*73
$GBGSV,4,1,13,60,29,227,40,10,72,306,41,27,23,073,30,30,68,026,38,1*7A
$GBGSV,4,2,13,38,44,176,40,40,72,053,43,36,39,230,43,59,36,146,20,1*7C
$GBGSV,4,3,13,08,32,182,34,07,84,341,40,29,40,284,33,03,42,189,40,1*7F
$GBGSV,4,4,13,45,32,293,29,1*47
$GBGSV,2,1,08,10,72,306,34,30,68,026,34,38,44,176,33,40,72,053,33,8*70
$GBGSV,2,2,08,08,32,182,26,07,84,341,32,29,40,284,22,03,42,189,30,8*7A
$GBGSV,2,1,05,10,72,306,41,08,32,182,36,07,84,341,40,03,42,189,39,B*06
$GBGSV,2,2,05,02,30,222,36,B*36
$GAGSV,2,1,05,25,36,159,33,36,79,350,38,02,73,250,33,34,38,242,21,1*70
$GAGSV,2,2,05,30,28,314,25,1*48
$GAGSV,2,1,05,25,36,159,35,36,79,350,41,02,73,250,36,34,38,242,38,2*76
$GAGSV,2,2,05,30,28,314,27,2*49
$GAGSV,2,1,05,25,36,159,38,36,79,350,42,02,73,250,46,34,38,242,39,7*7B
$GAGSV,2,2,05,30,28,314,25,7*4E
$GNGGA,044433.00,3954.69853769,N,11627.09430272,E,4,17,1.5,38.9804,M,-8.2888,M,2.0,1828*77
$GNRMC,044433.00,D,3954.69853769,N,11627.09430272,E,10.188,1.4,240425,7.2,W,R,S*69
$GPGSV,2,1,06,03,41,060,30,14,52,180,44,17,72,032,41,22,70,212,43,1*6F
$GPGSV,2,2,06,19,57,316,37,06,44,251,37,1*6C
$GPGSV,1,1,04,14,52,180,40,17,72,032,37,22,70,212,34,06,44,251,37,4*69
$GPGSV,1,1,02,14,52,180,41,06,44,251,39,8*6B
$GLGSV,2,1,07,76,33,196,45,71,25,084,32,77,55,262,39,78,19,328,30,1*7F
$GLGSV,2,2,07,86,40,039,36,88,14,266,29,87,57,323,36,1*4C
$GLGSV,1,1,02,76,33,196,38,86,40,039,24,3*7A
$GBGSV,4,1,13,60,29,227,41,10,72,306,40,27,23,073,30,30,68,026,40,1*75
$GBGSV,4,2,13,38,44,176,40,40,72,053,44,36,39,230,44,59,36,146,22,1*7E
$GBGSV,4,3,13,08,32,182,34,07,84,341,40,29,40,284,33,03,42,189,40,1*7F
$GBGSV,4,4,13,45,32,293,30,1*4F
$GBGSV,2,1,08,10,72,306,35,30,68,026,34,38,44,176,33,40,72,053,34,8*76
$GBGSV,2,2,08,08,32,182,26,07,84,341,32,29,40,284,21,03,42,189,30,8*79
$GBGSV,2,1,05,10,72,306,41,08,32,182,36,07,84,341,40,03,42,189,39,B*06
$GBGSV,2,2,05,02,30,222,34,B*34
$GAGSV,2,1,05,25,36,159,30,36,79,350,37,02,73,250,32,34,38,242,25,1*79
$GAGSV,2,2,05,30,28,314,28,1*45
$GAGSV,2,1,05,25,36,159,32,36,79,350,41,02,73,250,36,34,38,242,39,2*70
$GAGSV,2,2,05,30,28,314,29,2*47
$GAGSV,2,1,05,25,36,159,35,36,79,350,42,02,73,250,46,34,38,242,38,7*77
$GAGSV,2,2,05,30,28,314,26,7*4D
$GNGGA,044434.00,3954.70087785,N,11627.09422343,E,4,18,1.6,39.0051,M,-8.2887,M,1.0,1828*7B
$GNRMC,044434.00,D,3954.70087785,N,11627.09422343,E,6.857,357.6,240425,7.2,W,R,S*5B
$GPGSV,2,1,06,03,41,060,32,14,52,180,45,17,72,032,41,22,70,212,42,1*6D
$GPGSV,2,2,06,19,57,316,36,06,44,251,39,1*63
$GPGSV,1,1,04,14,52,180,41,17,72,032,37,22,70,212,33,06,44,251,34,4*6C
$GPGSV,1,1,02,14,52,180,41,06,44,251,39,8*6B
$GLGSV,2,1,07,76,33,196,46,71,25,084,34,77,55,262,39,78,19,328,30,1*7A
$GLGSV,2,2,07,86,40,039,37,88,14,266,30,87,57,323,36,1*45
$GLGSV,1,1,02,76,33,196,38,86,40,039,26,3*78
$GBGSV,4,1,13,60,29,227,41,10,72,306,40,27,23,073,29,30,68,026,40,1*7D
$GBGSV,4,2,13,38,44,176,41,40,72,053,44,36,39,230,45,59,36,146,22,1*7E
$GBGSV,4,3,13,08,32,182,34,07,84,341,39,29,40,284,31,03,42,189,41,1*72
$GBGSV,4,4,13,45,32,293,30,1*4F
$GBGSV,3,1,09,10,72,306,34,30,68,026,33,38,44,176,33,40,72,053,34,8*70
$GBGSV,3,2,09,36,39,230,31,08,32,182,27,07,84,341,32,29,40,284,21,8*72
$GBGSV,3,3,09,03,42,189,30,8*40
$GBGSV,2,1,05,10,72,306,41,08,32,182,36,07,84,341,40,03,42,189,39,B*06
$GBGSV,2,2,05,02,30,222,35,B*35
$GAGSV,2,1,05,25,36,159,26,36,79,350,38,02,73,250,32,34,38,242,27,1*73
$GAGSV,2,2,05,30,28,314,27,1*4A
$GAGSV,2,1,05,25,36,159,28,36,79,350,41,02,73,250,36,34,38,242,40,2*75
$GAGSV,2,2,05,30,28,314,27,2*49
$GAGSV,2,1,05,25,36,159,32,36,79,350,43,02,73,250,46,34,38,242,39,7*70
$GAGSV,2,2,05,30,28,314,26,7*4D
$GNGGA,044435.00,3954.70237959,N,11627.09417075,E,4,18,1.6,38.9996,M,-8.2887,M,2.0,1828*75
$GNRMC,044435.00,D,3954.70237959,N,11627.09417075,E,3.859,357.9,240425,7.2,W,R,S*58
$GPGSV,2,1,06,03,41,060,31,14,52,180,44,17,72,032,42,22,70,212,43,1*6D
$GPGSV,2,2,06,19,57,316,38,06,44,251,37,1*63
$GPGSV,1,1,04,14,52,180,41,17,72,032,37,22,70,212,33,06,44,251,37,4*6F
$GPGSV,1,1,02,14,52,180,41,06,44,251,39,8*6B
$GLGSV,2,1,06,76,33,196,47,71,25,084,34,77,55,262,37,78,19,328,33,1*77
$GLGSV,2,2,06,86,40,039,41,87,57,323,37,1*70
$GLGSV,1,1,02,76,33,196,37,86,40,039,32,3*72
$GBGSV,4,1,13,60,29,227,41,10,72,306,40,27,23,073,30,30,68,026,41,1*74
$GBGSV,4,2,13,38,44,176,41,40,72,053,44,36,39,230,45,59,36,146,23,1*7F
$GBGSV,4,3,13,08,32,182,34,07,84,341,39,29,40,284,32,03,42,189,41,1*71
$GBGSV,4,4,13,45,32,293,32,1*4D
$GBGSV,3,1,09,10,72,306,34,27,23,073,22,30,68,026,34,38,44,176,34,8*70
$GBGSV,3,2,09,40,72,053,34,08,32,182,28,07,84,341,32,29,40,284,22,8*72
$GBGSV,3,3,09,03,42,189,30,8*40
$GBGSV,2,1,05,10,72,306,41,08,32,182,37,07,84,341,40,03,42,189,39,B*07
$GBGSV,2,2,05,02,30,222,33,B*33
$GAGSV,2,1,05,25,36,159,22,36,79,350,37,02,73,250,32,34,38,242,28,1*77
$GAGSV,2,2,05,30,28,314,26,1*4B
$GAGSV,2,1,05,25,36,159,26,36,79,350,41,02,73,250,35,34,38,242,40,2*78
$GAGSV,2,2,05,30,28,314,27,2*49
$GAGSV,2,1,05,25,36,159,30,36,79,350,42,02,73,250,45,34,38,242,40,7*7E
$GAGSV,2,2,05,30,28,314,29,7*42
$GNGGA,044436.00,3954.70310103,N,11627.09413881,E,4,18,1.6,38.9709,M,-8.2887,M,2.0,1828*7A
$GNRMC,044436.00,D,3954.70310103,N,11627.09413881,E,1.332,358.3,240425,7.2,W,R,S*5E
$GPGSV,2,1,06,03,41,060,31,14,52,180,45,17,72,032,42,22,70,212,42,1*6D
$GPGSV,2,2,06,19,57,316,37,06,44,251,36,1*6D
$GPGSV,1,1,04,14,52,180,40,17,72,032,37,22,70,212,32,06,44,251,34,4*6C
$GPGSV,1,1,02,14,52,180,41,06,44,251,38,8*6A
$GLGSV,2,1,06,76,33,196,46,71,25,084,39,77,55,262,38,78,19,328,31,1*76
$GLGSV,2,2,06,86,40,039,42,87,57,323,37,1*73
$GLGSV,1,1,02,76,33,196,35,86,40,039,34,3*76
$GBGSV,3,1,12,60,29,227,41,10,72,306,40,30,68,026,41,38,44,176,42,1*7C
$GBGSV,3,2,12,40,72,053,43,36,39,230,44,59,36,146,26,08,32,182,34,1*71
$GBGSV,3,3,12,07,84,341,39,29,40,284,29,03,42,189,42,45,32,293,37,1*77
$GBGSV,3,1,10,10,72,306,34,27,23,073,23,30,68,026,34,38,44,176,33,8*7E
