NMEA,GNSS_20B_W24.42.1_Q FL_22B_W24.01.5,1744081211000
NMEA,$RD_RSSI, 498, 622, 0, 0,1744081211000
NMEA,$GPGGA,030051.719,3958.873576,N,11628.605649,E,1,19,1.028,40.392,M,0,M,,*4E,1744081251719
NMEA,$GPRMC,030051.719,A,3958.873576,N,11628.605649,E,0.098,0.000,080425,,E,A*22,1744081251719
NMEA,$GPGLL,3958.873576,N,11628.605649,E,030051.719,A,A*5A,1744081251719
NMEA,$GPGSA,A,3,1,2,30,7,8,17,22,194,14,,,,2.610,1.028,2.399*0D,1744081251719
NMEA,$BDGSA,A,3,240,207,245,229,210,209,235,226,,,,,2.610,1.028,2.399*2F,1744081251719
NMEA,$GAGSA,A,3,125,127,,,,,,,,,,,2.610,1.028,2.399*2E,1744081251719
NMEA,$GPGSV,4,1,14,1,66,142,41.4,194,64,104,37.9,2,59,62,36.2,30,50,258,45.2*7F,1744081251719
NMEA,$GPGSV,4,2,14,7,43,205,34.7,14,41,309,37.7,8,37,61,38.2,17,30,262,38.4*4A,1744081251719
NMEA,$GPGSV,4,3,14,22,23,305,31.0,19,3,253,0.0,193,1,,0.0,195,1,,0.0*77,1744081251719
NMEA,$GPGSV,4,4,14,196,1,,0.0,47,1,,0.0*41,1744081251719
NMEA,$BDGSV,3,1,9,240,73,342,38.7,207,73,297,40.5,245,69,178,43.5,229,67,43,33.5*6E,1744081251719
NMEA,$BDGSV,3,2,9,210,61,282,35.5,209,54,217,38.0,235,48,238,46.2,226,43,307,32.0*5F,1744081251719
NMEA,$BDGSV,3,3,9,206,43,198,7.6*7D,1744081251719
NMEA,$GAGSV,2,1,6,125,71,81,39.7,127,60,72,41.0,96,16,87,0.0,101,1,178,0.0*63,1744081251719
NMEA,$GAGSV,2,2,6,105,38,77,0.0,107,29,136,0.0*68,1744081251719
NMEA,$GPVTG,0.000,T,,M,0.098,N,0.182,K,A*07,1744081251719
NMEA,$RD_RSSI, 487, 613, 0, 0,1744081251719
NMEA,$GPGGA,030052.719,3958.872819,N,11628.607273,E,1,20,0.927,27.881,M,0,M,,*42,1744081252719
NMEA,$GPRMC,030052.719,A,3958.872819,N,11628.607273,E,0.000,0.000,080425,,E,A*2A,1744081252719
NMEA,$GPGLL,3958.872819,N,11628.607273,E,030052.719,A,A*53,1744081252719
NMEA,$GPGSA,A,3,2,7,8,17,22,194,30,14,1,,,,2.309,0.927,2.115*01,1744081252719
NMEA,$BDGSA,A,3,240,207,245,229,210,209,235,226,206,,,,2.309,0.927,2.115*17,1744081252719
NMEA,$GAGSA,A,3,125,127,,,,,,,,,,,2.309,0.927,2.115*22,1744081252719
NMEA,$GPGSV,4,1,14,1,66,142,41.9,2,59,62,35.0,7,43,205,34.7,8,37,61,38.0*78,1744081252719
NMEA,$GPGSV,4,2,14,17,30,262,39.2,22,23,305,31.6,194,64,105,38.2,30,50,258,45.2*4B,1744081252719
NMEA,$GPGSV,4,3,14,14,41,309,36.5,19,3,253,0.0,193,1,,0.0,195,1,,0.0*78,1744081252719
NMEA,$GPGSV,4,4,14,196,1,,0.0,47,1,,0.0*41,1744081252719
NMEA,$BDGSV,3,1,9,240,73,342,38.0,207,73,297,40.0,245,69,178,43.7,229,67,43,35.0*6D,1744081252719
NMEA,$BDGSV,3,2,9,210,61,282,35.5,209,54,217,38.2,235,48,238,46.5,226,43,307,29.3*53,1744081252719
NMEA,$BDGSV,3,3,9,206,43,198,12.3*4C,1744081252719
NMEA,$GAGSV,2,1,6,125,71,81,39.5,127,60,72,40.2,96,16,87,0.0,101,1,178,0.0*62,1744081252719
NMEA,$GAGSV,2,2,6,105,38,77,0.0,107,29,136,0.0*68,1744081252719
NMEA,$GPVTG,0.000,T,,M,0.000,N,0.000,K,A*0D,1744081252719
NMEA,$RD_RSSI, 500, 623, 0, 0,1744081252719
NMEA,$GPGGA,030053.719,3958.872558,N,11628.608015,E,1,20,0.927,22.205,M,0,M,,*45,1744081253719
NMEA,$GPRMC,030053.719,A,3958.872558,N,11628.608015,E,0.158,0.000,080425,,E,A*22,1744081253719
NMEA,$GPGLL,3958.872558,N,11628.608015,E,030053.719,A,A*57,1744081253719
NMEA,$GPGSA,A,3,2,7,8,17,22,194,30,14,1,,,,2.309,0.927,2.115*01,1744081253719
NMEA,$BDGSA,A,3,240,207,245,229,210,209,235,226,206,,,,2.309,0.927,2.115*17,1744081253719
NMEA,$GAGSA,A,3,125,127,,,,,,,,,,,2.309,0.927,2.115*22,1744081253719
NMEA,$GPGSV,4,1,14,2,59,62,35.2,7,43,205,35.0,8,37,61,38.7,17,30,263,38.7*4F,1744081253719
NMEA,$GPGSV,4,2,14,22,23,305,31.7,194,64,105,38.9,30,50,258,44.7,14,41,309,34.5*46,1744081253719
NMEA,$GPGSV,4,3,14,1,66,142,42.2,19,3,253,0.0,193,1,,0.0,195,1,,0.0*40,1744081253719
NMEA,$GPGSV,4,4,14,196,1,,0.0,47,1,,0.0*41,1744081253719
NMEA,$BDGSV,3,1,9,240,73,342,37.9,207,73,297,39.5,245,69,178,44.0,229,67,43,34.0*61,1744081253719
NMEA,$BDGSV,3,2,9,210,61,282,34.4,209,54,217,38.5,235,48,238,46.9,226,43,307,27.2*57,1744081253719
NMEA,$BDGSV,3,3,9,206,43,198,23.2*4F,1744081253719
NMEA,$GAGSV,2,1,6,125,71,81,40.0,127,60,72,40.0,96,16,87,0.0,101,1,178,0.0*6B,1744081253719
NMEA,$GAGSV,2,2,6,105,38,77,0.0,107,29,136,0.0*68,1744081253719
NMEA,$GPVTG,0.000,T,,M,0.158,N,0.293,K,A*09,1744081253719
NMEA,$RD_RSSI, 493, 610, 0, 0,1744081253719
NMEA,$GPGGA,030054.719,3958.872615,N,11628.608555,E,1,20,0.926,18.336,M,0,M,,*40,1744081254719
NMEA,$GPRMC,030054.719,A,3958.872615,N,11628.608555,E,0.000,0.000,080425,,E,A*22,1744081254719
NMEA,$GPGLL,3958.872615,N,11628.608555,E,030054.719,A,A*5B,1744081254719
NMEA,$GPGSA,A,3,2,7,8,17,22,194,30,14,1,,,,2.309,0.926,2.115*00,1744081254719
NMEA,$BDGSA,A,3,240,207,245,229,210,209,235,226,206,,,,2.309,0.926,2.115*16,1744081254719
NMEA,$GAGSA,A,3,125,127,,,,,,,,,,,2.309,0.926,2.115*23,1744081254719
NMEA,$GPGSV,4,1,14,2,59,62,36.0,7,43,205,35.5,8,37,61,39.2,17,30,263,38.5*4D,1744081254719
NMEA,$GPGSV,4,2,14,22,23,305,31.3,194,64,105,39.2,30,50,258,44.7,14,41,309,33.0*4A,1744081254719
NMEA,$GPGSV,4,3,14,1,66,142,42.2,19,3,253,0.0,193,1,,0.0,195,1,,0.0*40,1744081254719
NMEA,$GPGSV,4,4,14,196,1,,0.0,47,1,,0.0*41,1744081254719
NMEA,$BDGSV,3,1,9,240,73,342,37.7,207,73,297,39.2,245,69,178,43.7,229,67,43,33.2*6D,1744081254719
NMEA,$BDGSV,3,2,9,210,61,282,34.5,209,54,217,38.7,235,48,238,47.0,226,43,307,25.0*5C,1744081254719
NMEA,$BDGSV,3,3,9,206,43,198,24.2*48,1744081254719
NMEA,$GAGSV,2,1,6,125,71,81,40.2,127,60,72,40.4,96,16,87,0.0,101,1,178,0.0*6D,1744081254719
NMEA,$GAGSV,2,2,6,105,38,77,0.0,107,29,136,0.0*68,1744081254719
NMEA,$GPVTG,0.000,T,,M,0.000,N,0.000,K,A*0D,1744081254719
NMEA,$RD_RSSI, 487, 613, 0, 0,1744081254719
NMEA,$GPGGA,030055.719,3958.872574,N,11628.608933,E,1,20,0.926,16.321,M,0,M,,*41,1744081255719
NMEA,$GPRMC,030055.719,A,3958.872574,N,11628.608933,E,0.000,0.000,080425,,E,A*2B,1744081255719
NMEA,$GPGLL,3958.872574,N,11628.608933,E,030055.719,A,A*52,1744081255719
NMEA,$GPGSA,A,3,2,7,8,17,22,194,30,14,1,,,,2.309,0.926,2.114*01,1744081255719
NMEA,$BDGSA,A,3,240,207,245,229,210,209,235,226,206,,,,2.309,0.926,2.114*17,1744081255719
NMEA,$GAGSA,A,3,125,127,,,,,,,,,,,2.309,0.926,2.114*22,1744081255719
NMEA,$GPGSV,4,1,14,2,59,62,36.5,7,43,205,36.0,8,37,61,39.4,17,30,263,38.5*48,1744081255719
NMEA,$GPGSV,4,2,14,22,23,305,31.6,194,64,105,39.2,30,50,258,44.5,14,41,309,32.0*4C,1744081255719
NMEA,$GPGSV,4,3,14,1,66,142,41.9,19,3,253,0.0,193,1,,0.0,195,1,,0.0*48,1744081255719
NMEA,$GPGSV,4,4,14,196,1,,0.0,47,1,,0.0*41,1744081255719
NMEA,$BDGSV,3,1,9,240,73,342,37.7,207,73,297,39.0,245,69,178,43.7,229,67,43,32.2*6E,1744081255719
NMEA,$BDGSV,3,2,9,210,61,282,34.7,209,54,217,38.7,235,48,238,47.2,226,43,307,25.2*5E,1744081255719
NMEA,$BDGSV,3,3,9,206,43,198,24.7*4D,1744081255719
NMEA,$GAGSV,2,1,6,125,71,81,40.5,127,60,72,40.4,96,16,87,0.0,101,1,178,0.0*6A,1744081255719
NMEA,$GAGSV,2,2,6,105,38,77,0.0,107,29,136,0.0*68,1744081255719
NMEA,$GPVTG,0.000,T,,M,0.000,N,0.000,K,A*0D,1744081255719
NMEA,$RD_RSSI, 481, 614, 0, 0,1744081255719
NMEA,$GPGGA,030056.719,3958.872434,N,11628.609061,E,1,20,0.926,15.494,M,0,M,,*42,1744081256719
NMEA,$GPRMC,030056.719,A,3958.872434,N,11628.609061,E,0.000,0.000,080425,,E,A*22,1744081256719
NMEA,$GPGLL,3958.872434,N,11628.609061,E,030056.719,A,A*5B,1744081256719
NMEA,$GPGSA,A,3,2,7,8,17,22,194,30,14,1,,,,2.309,0.926,2.114*01,1744081256719
NMEA,$BDGSA,A,3,240,207,245,229,210,209,235,226,206,,,,2.309,0.926,2.114*17,1744081256719
NMEA,$GAGSA,A,3,125,127,,,,,,,,,,,2.309,0.926,2.114*22,1744081256719
NMEA,$GPGSV,4,1,14,2,59,62,37.0,7,43,205,36.5,8,37,61,39.2,17,30,263,38.0*4A,1744081256719
NMEA,$GPGSV,4,2,14,22,23,305,31.2,194,64,105,39.4,30,50,258,44.5,14,41,309,31.5*48,1744081256719
NMEA,$GPGSV,4,3,14,1,66,142,41.7,19,3,253,0.0,193,1,,0.0,195,1,,0.0*46,1744081256719
NMEA,$GPGSV,4,4,14,196,1,,0.0,47,1,,0.0*41,1744081256719
NMEA,$BDGSV,3,1,9,240,73,342,37.5,207,73,297,38.7,245,69,178,44.0,229,66,43,32.0*69,1744081256719
NMEA,$BDGSV,3,2,9,210,61,282,34.9,209,54,217,38.7,235,48,238,47.4,226,43,307,23.8*5A,1744081256719
NMEA,$BDGSV,3,3,9,206,43,198,25.1*4A,1744081256719
NMEA,$GAGSV,2,1,6,125,71,81,40.5,127,60,72,40.2,96,16,87,0.0,101,1,178,0.0*6C,1744081256719
NMEA,$GAGSV,2,2,6,105,38,77,0.0,107,29,136,0.0*68,1744081256719
NMEA,$GPVTG,0.000,T,,M,0.000,N,0.000,K,A*0D,1744081256719
NMEA,$RD_RSSI, 492, 626, 0, 0,1744081256719
NMEA,$GPGGA,030057.719,3958.872322,N,11628.609063,E,1,20,0.926,14.969,M,0,M,,*4F,1744081257719
NMEA,$GPRMC,030057.719,A,3958.872322,N,11628.609063,E,0.000,0.000,080425,,E,A*21,1744081257719
NMEA,$GPGLL,3958.872322,N,11628.609063,E,030057.719,A,A*58,1744081257719
NMEA,$GPGSA,A,3,2,7,8,17,22,194,30,14,1,,,,2.308,0.926,2.114*00,1744081257719
NMEA,$BDGSA,A,3,240,207,245,229,210,209,235,226,206,,,,2.308,0.926,2.114*16,1744081257719
NMEA,$GAGSA,A,3,125,127,,,,,,,,,,,2.308,0.926,2.114*23,1744081257719
NMEA,$GPGSV,4,1,14,2,59,62,37.2,7,42,205,37.2,8,37,61,39.7,17,30,263,37.2*47,1744081257719
NMEA,$GPGSV,4,2,14,22,23,305,31.1,194,64,105,39.4,30,50,258,44.4,14,41,309,32.0*4C,1744081257719
NMEA,$GPGSV,4,3,14,1,66,142,41.7,19,3,253,0.0,193,1,,0.0,195,1,,0.0*46,1744081257719
NMEA,$GPGSV,4,4,14,196,1,,0.0,47,1,,0.0*41,1744081257719
NMEA,$BDGSV,3,1,9,240,73,342,37.4,207,73,297,39.2,245,69,178,44.0,229,66,43,32.5*69,1744081257719
NMEA,$BDGSV,3,2,9,210,61,282,34.0,209,54,217,38.5,235,48,238,47.4,226,43,307,19.6*56,1744081257719
NMEA,$BDGSV,3,3,9,206,43,198,23.3*4E,1744081257719
NMEA,$GAGSV,2,1,6,125,71,81,40.7,127,60,72,40.2,96,16,87,0.0,101,1,178,0.0*6E,1744081257719
NMEA,$GAGSV,2,2,6,105,38,77,0.0,107,29,136,0.0*68,1744081257719
NMEA,$GPVTG,0.000,T,,M,0.000,N,0.000,K,A*0D,1744081257719
NMEA,$RD_RSSI, 476, 611, 0, 0,1744081257719
NMEA,$GPGGA,030058.719,3958.872101,N,11628.609036,E,1,20,0.926,14.995,M,0,M,,*40,1744081258719
NMEA,$GPRMC,030058.719,A,3958.872101,N,11628.609036,E,0.387,0.000,080425,,E,A*21,1744081258719
NMEA,$GPGLL,3958.872101,N,11628.609036,E,030058.719,A,A*54,1744081258719
NMEA,$GPGSA,A,3,2,7,8,17,22,194,30,14,1,,,,2.308,0.926,2.114*00,1744081258719
NMEA,$BDGSA,A,3,240,207,245,229,210,209,235,226,206,,,,2.308,0.926,2.114*16,1744081258719
NMEA,$GAGSA,A,3,125,127,,,,,,,,,,,2.308,0.926,2.114*23,1744081258719
NMEA,$GPGSV,4,1,14,2,59,62,36.7,7,42,205,37.2,8,37,61,40.2,17,30,263,37.2*48,1744081258719
NMEA,$GPGSV,4,2,14,22,23,305,30.8,194,64,105,39.2,30,50,258,44.4,14,41,309,32.9*4B,1744081258719
NMEA,$GPGSV,4,3,14,1,66,142,41.9,19,3,253,0.0,193,1,,0.0,195,1,,0.0*48,1744081258719
NMEA,$GPGSV,4,4,14,196,1,,0.0,47,1,,0.0*41,1744081258719
NMEA,$BDGSV,3,1,9,240,73,342,37.5,207,73,297,39.7,245,69,178,44.0,229,66,43,32.7*6F,1744081258719
NMEA,$BDGSV,3,2,9,210,61,282,33.2,209,54,217,38.7,235,48,238,47.2,226,43,307,24.2*5D,1744081258719
NMEA,$BDGSV,3,3,9,206,43,198,23.7*4A,1744081258719
NMEA,$GAGSV,2,1,6,125,71,81,40.7,127,60,72,40.4,96,16,87,0.0,101,1,178,0.0*68,1744081258719
NMEA,$GAGSV,2,2,6,105,38,77,0.0,107,29,136,0.0*68,1744081258719
NMEA,$GPVTG,0.000,T,,M,0.387,N,0.716,K,A*01,1744081258719
NMEA,$RD_RSSI, 486, 628, 0, 0,1744081258719
NMEA,$GPGGA,030059.719,3958.871887,N,11628.609021,E,1,20,0.926,15.240,M,0,M,,*41,1744081259719
NMEA,$GPRMC,030059.719,A,3958.871887,N,11628.609021,E,0.000,0.000,080425,,E,A*2E,1744081259719
NMEA,$GPGLL,3958.871887,N,11628.609021,E,030059.719,A,A*57,1744081259719
NMEA,$GPGSA,A,3,2,7,8,17,22,194,30,14,1,,,,2.308,0.926,2.114*00,1744081259719
NMEA,$BDGSA,A,3,240,207,245,229,210,209,235,226,206,,,,2.308,0.926,2.114*16,1744081259719
NMEA,$GAGSA,A,3,125,127,,,,,,,,,,,2.308,0.926,2.114*23,1744081259719
NMEA,$GPGSV,4,1,14,2,59,62,37.5,7,42,205,36.7,8,37,61,40.4,17,30,263,37.2*49,1744081259719
NMEA,$GPGSV,4,2,14,22,23,305,31.5,194,64,105,39.2,30,50,258,44.7,14,41,309,32.5*48,1744081259719
NMEA,$GPGSV,4,3,14,1,66,142,41.9,19,3,253,0.0,193,1,,0.0,195,1,,0.0*48,1744081259719
NMEA,$GPGSV,4,4,14,196,1,,0.0,47,1,,0.0*41,1744081259719
NMEA,$BDGSV,3,1,9,240,73,342,37.7,207,73,297,39.5,245,69,178,44.2,229,66,43,33.5*6E,1744081259719
NMEA,$BDGSV,3,2,9,210,61,282,33.9,209,54,217,39.0,235,48,238,47.2,226,43,307,22.6*52,1744081259719
NMEA,$BDGSV,3,3,9,206,43,198,23.5*48,1744081259719
NMEA,$GAGSV,2,1,6,125,71,81,40.7,127,60,72,40.4,96,16,87,0.0,101,1,178,0.0*68,1744081259719
NMEA,$GAGSV,2,2,6,105,38,77,0.0,107,29,136,0.0*68,1744081259719
NMEA,$GPVTG,0.000,T,,M,0.000,N,0.000,K,A*0D,1744081259719
NMEA,$RD_RSSI, 592, 628, 0, 0,1744081259719
NMEA,$GPGGA,030100.719,3958.871675,N,11628.609003,E,1,20,0.926,15.471,M,0,M,,*4B,1744081259719
NMEA,$GPRMC,030100.719,A,3958.871675,N,11628.609003,E,0.333,0.000,080425,,E,A*23,1744081260719
NMEA,$GPGLL,3958.871675,N,11628.609003,E,030100.719,A,A*59,1744081260719
NMEA,$GPGSA,A,3,2,7,8,17,22,194,30,14,1,,,,2.308,0.926,2.114*00,1744081260719
NMEA,$BDGSA,A,3,240,207,245,229,210,209,235,226,206,,,,2.308,0.926,2.114*16,1744081260719
NMEA,$GAGSA,A,3,125,127,,,,,,,,,,,2.308,0.926,2.114*23,1744081260719
NMEA,$GPGSV,4,1,15,2,59,62,38.0,7,42,205,37.0,42,37,145,36.2,8,37,61,40.2*43,1744081260719
NMEA,$GPGSV,4,2,15,17,30,263,37.2,22,23,305,31.2,194,64,105,39.0,30,50,258,45.2*42,1744081260719
NMEA,$GPGSV,4,3,15,14,41,309,32.2,1,66,142,42.0,19,3,253,0.0,193,1,,0.0*46,1744081260719
NMEA,$GPGSV,4,4,15,195,1,,0.0,196,1,,0.0,47,1,,0.0*62,1744081260719
NMEA,$BDGSV,3,1,9,240,73,342,37.5,207,73,297,39.4,245,69,178,43.9,229,66,43,33.5*61,1744081260719
NMEA,$BDGSV,3,2,9,210,61,282,34.2,209,54,217,39.2,235,48,238,47.2,226,43,307,22.2*58,1744081260719
NMEA,$BDGSV,3,3,9,206,43,198,21.8*47,1744081260719
NMEA,$GAGSV,2,1,6,125,71,81,40.5,127,59,72,40.4,96,16,87,0.0,101,1,178,0.0*60,1744081260719
NMEA,$GAGSV,2,2,6,105,38,77,0.0,107,29,136,0.0*68,1744081260719
NMEA,$GPVTG,0.000,T,,M,0.333,N,0.617,K,A*0E,1744081260719
NMEA,$RD_RSSI, 494, 606, 0, 0,1744081260719
NMEA,$GPGGA,030101.719,3958.871545,N,11628.609030,E,1,20,0.926,15.590,M,0,M,,*44,1744081260719
NMEA,$GPRMC,030101.719,A,3958.871545,N,11628.609030,E,0.469,0.000,080425,,E,A*2A,1744081261719
NMEA,$GPGLL,3958.871545,N,11628.609030,E,030101.719,A,A*58,1744081261719
NMEA,$GPGSA,A,3,2,7,8,17,22,194,30,14,1,,,,2.308,0.926,2.114*00,1744081261719
NMEA,$BDGSA,A,3,240,207,245,229,210,209,235,226,206,,,,2.308,0.926,2.114*16,1744081261719
NMEA,$GAGSA,A,3,125,127,,,,,,,,,,,2.308,0.926,2.114*23,1744081261719
NMEA,$GPGSV,4,1,15,2,59,62,36.9,7,42,205,37.7,42,37,145,36.5,8,37,61,39.2*4A,1744081261719
NMEA,$GPGSV,4,2,15,17,30,263,38.2,22,23,305,31.5,194,64,105,39.2,30,50,258,45.0*4A,1744081261719
NMEA,$GPGSV,4,3,15,14,41,309,29.6,1,66,142,41.5,19,3,253,0.0,193,1,,0.0*4E,1744081261719
NMEA,$GPGSV,4,4,15,195,1,,0.0,196,1,,0.0,47,1,,0.0*62,1744081261719
NMEA,$BDGSV,3,1,9,240,73,342,36.2,207,73,297,39.7,245,69,178,43.2,229,66,43,34.2*6F,1744081261719
NMEA,$BDGSV,3,2,9,210,61,282,33.5,209,54,217,38.7,235,48,238,47.0,226,43,307,24.2*58,1744081261719
NMEA,$BDGSV,3,3,9,206,43,198,25.2*49,1744081261719
NMEA,$GAGSV,2,1,6,125,71,81,40.4,127,59,72,40.0,96,16,87,0.0,101,1,178,0.0*65,1744081261719
NMEA,$GAGSV,2,2,6,105,38,77,0.0,107,29,136,0.0*68,1744081261719
NMEA,$GPVTG,0.000,T,,M,0.469,N,0.868,K,A*00,1744081261719
NMEA,$RD_RSSI, 489, 610, 0, 0,1744081261719
NMEA,$GPGGA,030102.719,3958.871473,N,11628.609054,E,1,20,0.925,15.515,M,0,M,,*4F,1744081262719
NMEA,$GPRMC,030102.719,A,3958.871473,N,11628.609054,E,0.000,0.000,080425,,E,A*24,1744081262719
NMEA,$GPGLL,3958.871473,N,11628.609054,E,030102.719,A,A*5D,1744081262719
NMEA,$GPGSA,A,3,2,7,8,17,22,194,30,14,1,,,,2.308,0.925,2.114*03,1744081262719
NMEA,$BDGSA,A,3,240,207,245,229,210,209,235,226,206,,,,2.308,0.925,2.114*15,1744081262719
NMEA,$GAGSA,A,3,125,127,,,,,,,,,,,2.308,0.925,2.114*20,1744081262719
NMEA,$GPGSV,4,1,15,2,59,62,36.7,7,42,205,37.9,42,37,145,36.9,8,37,61,40.0*4A,1744081262719
NMEA,$GPGSV,4,2,15,17,30,263,37.4,22,23,305,30.7,194,64,105,39.0,30,50,258,45.2*40,1744081262719
NMEA,$GPGSV,4,3,15,14,41,309,30.0,1,66,142,41.7,19,3,253,0.0,193,1,,0.0*42,1744081262719
NMEA,$GPGSV,4,4,15,195,1,,0.0,196,1,,0.0,47,1,,0.0*62,1744081262719
NMEA,$BDGSV,3,1,9,240,73,342,36.4,207,73,297,39.9,245,69,178,43.4,229,66,43,33.5*61,1744081262719
NMEA,$BDGSV,3,2,9,210,61,282,33.2,209,54,217,39.0,235,48,238,47.2,226,43,307,25.6*5E,1744081262719
NMEA,$BDGSV,3,3,9,206,43,198,24.8*42,1744081262719
NMEA,$GAGSV,2,1,6,125,71,81,40.7,127,59,72,40.4,96,16,87,0.0,101,1,178,0.0*62,1744081262719
NMEA,$GAGSV,2,2,6,105,38,77,0.0,107,29,136,0.0*68,1744081262719
NMEA,$GPVTG,0.000,T,,M,0.000,N,0.000,K,A*0D,1744081262719
NMEA,$RD_RSSI, 494, 614, 0, 0,1744081262719
NMEA,$GPGGA,030103.719,3958.871390,N,11628.609067,E,1,20,0.925,15.591,M,0,M,,*48,1744081263719
NMEA,$GPRMC,030103.719,A,3958.871390,N,11628.609067,E,0.023,0.000,080425,,E,A*2E,1744081263719
NMEA,$GPGLL,3958.871390,N,11628.609067,E,030103.719,A,A*56,1744081263719
NMEA,$GPGSA,A,3,2,7,8,17,22,194,30,14,1,,,,2.308,0.925,2.114*03,1744081263719
NMEA,$BDGSA,A,3,240,207,245,229,210,209,235,226,206,,,,2.308,0.925,2.114*15,1744081263719
NMEA,$GAGSA,A,3,125,127,,,,,,,,,,,2.308,0.925,2.114*20,1744081263719
NMEA,$GPGSV,4,1,15,2,59,62,37.2,7,42,205,37.2,42,37,145,37.5,8,37,61,39.7*41,1744081263719
NMEA,$GPGSV,4,2,15,17,30,263,36.4,22,23,305,30.3,194,64,105,39.0,30,50,258,45.4*43,1744081263719
NMEA,$GPGSV,4,3,15,14,41,309,32.5,1,66,142,41.7,19,3,253,0.0,193,1,,0.0*45,1744081263719
NMEA,$GPGSV,4,4,15,195,1,,0.0,196,1,,0.0,47,1,,0.0*62,1744081263719
NMEA,$BDGSV,3,1,9,240,73,342,37.2,207,73,297,39.0,245,69,178,43.5,229,66,43,34.2*6E,1744081263719
NMEA,$BDGSV,3,2,9,210,61,282,33.5,209,54,217,38.7,235,48,238,47.2,226,43,307,27.3*58,1744081263719
NMEA,$BDGSV,3,3,9,206,43,198,24.7*4D,1744081263719
NMEA,$GAGSV,2,1,6,125,71,81,40.5,127,59,72,40.0,96,16,87,0.0,101,1,178,0.0*64,1744081263719
NMEA,$GAGSV,2,2,6,105,38,77,0.0,107,29,136,0.0*68,1744081263719
NMEA,$GPVTG,0.000,T,,M,0.023,N,0.042,K,A*0A,1744081263719
NMEA,$RD_RSSI, 486, 608, 0, 0,1744081263719
NMEA,$GPGGA,030104.719,3958.871305,N,11628.609052,E,1,20,0.925,15.743,M,0,M,,*48,1744081264719
NMEA,$GPRMC,030104.719,A,3958.871305,N,11628.609052,E,0.000,0.000,080425,,E,A*22,1744081264719
NMEA,$GPGLL,3958.871305,N,11628.609052,E,030104.719,A,A*5B,1744081264719
NMEA,$GPGSA,A,3,2,7,8,17,22,194,30,14,1,,,,2.307,0.925,2.114*0C,1744081264719
NMEA,$BDGSA,A,3,240,207,245,229,210,209,235,226,206,,,,2.307,0.925,2.114*1A,1744081264719
NMEA,$GAGSA,A,3,125,127,,,,,,,,,,,2.307,0.925,2.114*2F,1744081264719
NMEA,$GPGSV,4,1,15,2,59,62,37.7,7,42,205,36.7,42,37,145,37.5,8,37,61,40.7*4E,1744081264719
NMEA,$GPGSV,4,2,15,17,30,263,35.4,22,23,305,30.2,194,64,105,39.0,30,50,258,45.0*45,1744081264719
NMEA,$GPGSV,4,3,15,14,41,309,33.4,1,66,142,42.0,19,3,253,0.0,193,1,,0.0*41,1744081264719
NMEA,$GPGSV,4,4,15,195,1,,0.0,196,1,,0.0,47,1,,0.0*62,1744081264719
NMEA,$BDGSV,3,1,9,240,73,342,38.2,207,73,297,39.2,245,69,178,43.7,229,66,43,35.2*60,1744081264719
NMEA,$BDGSV,3,2,9,210,61,282,33.0,209,54,217,38.7,235,48,238,47.2,226,43,307,30.8*50,1744081264719
NMEA,$BDGSV,3,3,9,206,43,198,25.7*4C,1744081264719
NMEA,$GAGSV,2,1,6,125,71,81,40.5,127,59,72,39.7,96,16,87,0.0,101,1,178,0.0*6D,1744081264719
NMEA,$GAGSV,2,2,6,105,38,77,0.0,107,29,136,0.0*68,1744081264719
NMEA,$GPVTG,0.000,T,,M,0.000,N,0.000,K,A*0D,1744081264719
NMEA,$RD_RSSI, 477, 615, 0, 0,1744081264719
NMEA,$GPGGA,030105.719,3958.871324,N,11628.609022,E,1,20,0.925,15.975,M,0,M,,*46,1744081264719
NMEA,$GPRMC,030105.719,A,3958.871324,N,11628.609022,E,0.000,0.000,080425,,E,A*27,1744081265719
NMEA,$GPGLL,3958.871324,N,11628.609022,E,030105.719,A,A*5E,1744081265719
NMEA,$GPGSA,A,3,2,7,8,17,22,194,30,14,1,,,,2.307,0.925,2.114*0C,1744081265719
NMEA,$BDGSA,A,3,240,207,245,229,210,209,235,226,206,,,,2.307,0.925,2.114*1A,1744081265719
NMEA,$GAGSA,A,3,125,127,,,,,,,,,,,2.307,0.925,2.114*2F,1744081265719
NMEA,$GPGSV,4,1,15,2,59,62,37.7,7,42,205,37.7,42,37,145,37.7,8,37,61,41.4*4F,1744081265719
NMEA,$GPGSV,4,2,15,17,30,263,35.0,22,23,305,30.2,194,64,105,39.2,30,50,258,45.0*43,1744081265719
NMEA,$GPGSV,4,3,15,14,41,309,31.3,1,66,142,42.0,19,3,253,0.0,193,1,,0.0*44,1744081265719
NMEA,$GPGSV,4,4,15,195,1,,0.0,196,1,,0.0,47,1,,0.0*62,1744081265719
NMEA,$BDGSV,3,1,9,240,73,342,37.2,207,73,297,39.7,245,69,178,43.5,229,66,43,34.2*69,1744081265719
NMEA,$BDGSV,3,2,9,210,61,282,32.4,209,54,217,38.9,235,48,238,47.5,226,43,307,26.8*5B,1744081265719
NMEA,$BDGSV,3,3,9,206,43,198,24.1*4B,1744081265719
NMEA,$GAGSV,2,1,6,125,71,82,40.5,127,59,72,40.4,96,16,87,0.0,101,1,178,0.0*63,1744081265719
NMEA,$GAGSV,2,2,6,105,38,77,0.0,107,29,136,0.0*68,1744081265719
NMEA,$GPVTG,0.000,T,,M,0.000,N,0.000,K,A*0D,1744081265719
NMEA,$RD_RSSI, 483, 613, 0, 0,1744081265719
NMEA,$GPGGA,030106.718,3958.871393,N,11628.608964,E,1,20,0.925,16.406,M,0,M,,*48,1744081266718
NMEA,$GPRMC,030106.718,A,3958.871393,N,11628.608964,E,0.466,0.000,080425,,E,A*27,1744081266718
NMEA,$GPGLL,3958.871393,N,11628.608964,E,030106.718,A,A*5A,1744081266718
NMEA,$GPGSA,A,3,2,7,8,17,22,194,30,14,1,,,,2.307,0.925,2.113*0B,1744081266718
NMEA,$BDGSA,A,3,240,207,245,229,210,209,235,226,206,,,,2.307,0.925,2.113*1D,1744081266718
NMEA,$GAGSA,A,3,125,127,,,,,,,,,,,2.307,0.925,2.113*28,1744081266718
NMEA,$GPGSV,4,1,15,2,59,62,37.2,7,42,205,38.4,42,37,145,37.5,8,37,61,41.0*40,1744081266718
NMEA,$GPGSV,4,2,15,17,30,263,35.4,22,23,305,31.0,194,64,105,39.2,30,50,258,45.0*44,1744081266718
NMEA,$GPGSV,4,3,15,14,41,309,30.3,1,66,142,42.2,19,3,253,0.0,193,1,,0.0*47,1744081266718
NMEA,$GPGSV,4,4,15,195,1,,0.0,196,1,,0.0,47,1,,0.0*62,1744081266718
NMEA,$BDGSV,3,1,9,240,73,342,37.2,207,73,297,39.2,245,69,178,43.5,229,66,43,34.2*6C,1744081266718
NMEA,$BDGSV,3,2,9,210,61,282,32.2,209,54,217,38.5,235,48,238,47.4,226,43,307,22.2*5E,1744081266718
NMEA,$BDGSV,3,3,9,206,43,198,24.7*4D,1744081266718
NMEA,$GAGSV,2,1,6,125,71,82,40.2,127,59,72,40.2,96,16,87,0.0,101,1,178,0.0*62,1744081266718
NMEA,$GAGSV,2,2,6,105,38,77,0.0,107,29,136,0.0*68,1744081266718
NMEA,$GPVTG,0.000,T,,M,0.466,N,0.863,K,A*04,1744081266718
NMEA,$RD_RSSI, 488, 608, 0, 0,1744081266718
NMEA,$GPGGA,030107.718,3958.871387,N,11628.608950,E,1,20,0.925,16.910,M,0,M,,*41,1744081267718
NMEA,$GPRMC,030107.718,A,3958.871387,N,11628.608950,E,0.415,0.000,080425,,E,A*20,1744081267718
NMEA,$GPGLL,3958.871387,N,11628.608950,E,030107.718,A,A*59,1744081267718
NMEA,$GPGSA,A,3,2,7,8,17,22,194,30,14,1,,,,2.307,0.925,2.113*0B,1744081267718
NMEA,$BDGSA,A,3,240,207,245,229,210,209,235,226,206,,,,2.307,0.925,2.113*1D,1744081267718
NMEA,$GAGSA,A,3,125,127,,,,,,,,,,,2.307,0.925,2.113*28,1744081267718
NMEA,$GPGSV,4,1,15,2,59,62,36.5,7,42,205,39.4,42,37,145,37.7,8,37,61,40.7*43,1744081267718
NMEA,$GPGSV,4,2,15,17,30,263,36.0,22,23,305,31.7,194,64,105,39.2,30,50,258,45.0*44,1744081267718
NMEA,$GPGSV,4,3,15,14,41,309,29.6,1,66,142,42.0,19,3,253,0.0,193,1,,0.0*48,1744081267718
NMEA,$GPGSV,4,4,15,195,1,,0.0,196,1,,0.0,47,1,,0.0*62,1744081267718
NMEA,$BDGSV,3,1,9,240,73,342,36.9,207,73,297,39.7,245,69,178,43.2,229,66,43,33.9*68,1744081267718
NMEA,$BDGSV,3,2,9,210,61,282,31.6,209,54,217,38.7,235,48,238,47.5,226,43,307,22.5*5D,1744081267718
NMEA,$BDGSV,3,3,9,206,43,198,25.5*4E,1744081267718
NMEA,$GAGSV,2,1,6,125,71,82,40.5,127,59,72,40.5,96,16,87,0.0,101,1,178,0.0*62,1744081267718
NMEA,$GAGSV,2,2,6,105,38,77,0.0,107,29,136,0.0*68,1744081267718
NMEA,$GPVTG,0.000,T,,M,0.415,N,0.768,K,A*04,1744081267718
NMEA,$RD_RSSI, 489, 590, 0, 0,1744081267718
NMEA,$GPGGA,030108.718,3958.871468,N,11628.608892,E,1,20,0.925,17.186,M,0,M,,*41,1744081268718
NMEA,$GPRMC,030108.718,A,3958.871468,N,11628.608892,E,0.000,0.000,080425,,E,A*26,1744081268718
NMEA,$GPGLL,3958.871468,N,11628.608892,E,030108.718,A,A*5F,1744081268718
NMEA,$GPGSA,A,3,2,7,8,17,22,194,30,14,1,,,,2.307,0.925,2.113*0B,1744081268718
NMEA,$BDGSA,A,3,240,207,245,229,210,209,235,226,206,,,,2.307,0.925,2.113*1D,1744081268718
NMEA,$GAGSA,A,3,125,127,,,,,,,,,,,2.307,0.925,2.113*28,1744081268718
NMEA,$GPGSV,4,1,15,2,59,62,37.5,7,42,205,39.2,42,37,145,37.7,8,37,61,41.0*42,1744081268718
NMEA,$GPGSV,4,2,15,17,30,263,35.7,22,23,305,32.5,194,64,105,39.2,30,50,258,45.0*41,1744081268718
NMEA,$GPGSV,4,3,15,14,41,309,27.8,1,66,142,41.9,19,3,253,0.0,193,1,,0.0*42,1744081268718
NMEA,$GPGSV,4,4,15,195,1,,0.0,196,1,,0.0,47,1,,0.0*62,1744081268718
NMEA,$BDGSV,3,1,9,240,73,342,36.0,207,73,297,39.7,245,69,178,43.2,229,66,43,34.0*6F,1744081268718
NMEA,$BDGSV,3,2,9,210,61,282,31.2,209,54,217,38.7,235,48,238,47.4,226,43,307,22.6*5B,1744081268718
NMEA,$BDGSV,3,3,9,206,43,198,25.7*4C,1744081268718
NMEA,$GAGSV,2,1,6,125,71,82,40.7,127,59,72,40.4,96,16,87,0.0,101,1,178,0.0*61,1744081268718
NMEA,$GAGSV,2,2,6,105,38,77,0.0,107,29,136,0.0*68,1744081268718
NMEA,$GPVTG,0.000,T,,M,0.000,N,0.000,K,A*0D,1744081268718
NMEA,$RD_RSSI, 489, 621, 0, 0,1744081268718
NMEA,$GPGGA,030109.718,3958.871504,N,11628.608758,E,1,20,0.925,17.640,M,0,M,,*4F,1744081269718
NMEA,$GPRMC,030109.718,A,3958.871504,N,11628.608758,E,0.000,0.000,080425,,E,A*25,1744081269718
NMEA,$GPGLL,3958.871504,N,11628.608758,E,030109.718,A,A*5C,1744081269718
NMEA,$GPGSA,A,3,2,7,8,17,22,194,30,14,1,,,,2.307,0.925,2.113*0B,1744081269718
NMEA,$BDGSA,A,3,240,207,245,229,210,209,235,226,206,,,,2.307,0.925,2.113*1D,1744081269718
NMEA,$GAGSA,A,3,125,127,,,,,,,,,,,2.307,0.925,2.113*28,1744081269718
NMEA,$GPGSV,4,1,15,2,59,62,38.4,7,42,205,39.0,42,37,145,37.2,8,37,61,42.2*4A,1744081269718
NMEA,$GPGSV,4,2,15,17,30,263,35.4,22,23,305,33.0,194,64,105,39.2,30,50,258,45.0*46,1744081269718
NMEA,$GPGSV,4,3,15,14,41,309,28.3,1,66,142,42.0,19,3,253,0.0,193,1,,0.0*4C,1744081269718
NMEA,$GPGSV,4,4,15,195,1,,0.0,196,1,,0.0,47,1,,0.0*62,1744081269718
NMEA,$BDGSV,3,1,9,240,73,342,36.7,207,73,297,39.5,245,69,178,43.2,229,66,43,34.7*6D,1744081269718
NMEA,$BDGSV,3,2,9,210,61,282,30.3,209,54,217,38.5,235,48,238,47.2,226,43,307,21.7*5D,1744081269718
NMEA,$BDGSV,3,3,9,206,43,198,24.0*4A,1744081269718
NMEA,$GAGSV,2,1,6,125,71,82,40.4,127,59,72,40.2,96,16,87,0.0,101,1,178,0.0*64,1744081269718
NMEA,$GAGSV,2,2,6,105,38,77,0.0,107,29,136,0.0*68,1744081269718
NMEA,$GPVTG,0.000,T,,M,0.000,N,0.000,K,A*0D,1744081269718
NMEA,$RD_RSSI, 502, 617, 0, 0,1744081269718
NMEA,$GPGGA,030110.718,3958.871566,N,11628.608627,E,1,20,0.924,18.156,M,0,M,,*44,1744081270718
NMEA,$GPRMC,030110.718,A,3958.871566,N,11628.608627,E,0.000,0.000,080425,,E,A*20,1744081270718
NMEA,$GPGLL,3958.871566,N,11628.608627,E,030110.718,A,A*59,1744081270718
NMEA,$GPGSA,A,3,2,7,8,17,22,194,30,14,1,,,,2.307,0.924,2.113*0A,1744081270718
NMEA,$BDGSA,A,3,240,207,245,229,210,209,235,226,206,,,,2.307,0.924,2.113*1C,1744081270718
NMEA,$GAGSA,A,3,125,127,,,,,,,,,,,2.307,0.924,2.113*29,1744081270718
NMEA,$GPGSV,4,1,15,2,59,62,37.7,7,42,205,38.7,42,37,145,37.7,8,37,61,41.2*46,1744081270718
NMEA,$GPGSV,4,2,15,17,30,263,36.5,22,23,305,33.2,194,64,105,39.2,30,50,258,45.5*43,1744081270718
NMEA,$GPGSV,4,3,15,14,41,309,30.7,1,66,142,42.4,19,3,253,0.0,193,1,,0.0*45,1744081270718
NMEA,$GPGSV,4,4,15,195,1,,0.0,196,1,,0.0,47,1,,0.0*62,1744081270718
NMEA,$BDGSV,3,1,9,240,73,342,37.2,207,73,297,40.0,245,69,178,43.2,229,66,43,35.2*66,1744081270718
NMEA,$BDGSV,3,2,9,210,61,282,31.1,209,54,217,38.9,235,48,238,47.2,226,43,307,23.7*50,1744081270718
NMEA,$BDGSV,3,3,9,206,43,198,26.7*4F,1744081270718
NMEA,$GAGSV,2,1,6,125,71,82,40.0,127,59,72,39.7,96,16,87,0.0,101,1,178,0.0*6B,1744081270718
NMEA,$GAGSV,2,2,6,105,38,77,0.0,107,29,136,0.0*68,1744081270718
NMEA,$GPVTG,0.000,T,,M,0.000,N,0.000,K,A*0D,1744081270718
NMEA,$RD_RSSI, 488, 602, 0, 0,1744081270718
NMEA,$GPGGA,030111.718,3958.871583,N,11628.608567,E,1,20,0.924,18.692,M,0,M,,*46,1744081271718
NMEA,$GPRMC,030111.718,A,3958.871583,N,11628.608567,E,0.000,0.000,080425,,E,A*2D,1744081271718
NMEA,$GPGLL,3958.871583,N,11628.608567,E,030111.718,A,A*54,1744081271718
NMEA,$GPGSA,A,3,2,7,8,17,22,194,30,14,1,,,,2.306,0.924,2.113*0B,1744081271718
NMEA,$BDGSA,A,3,240,207,245,229,210,209,235,226,206,,,,2.306,0.924,2.113*1D,1744081271718
NMEA,$GAGSA,A,3,125,127,,,,,,,,,,,2.306,0.924,2.113*28,1744081271718
NMEA,$GPGSV,4,1,15,2,59,62,37.5,7,42,205,37.7,42,37,145,37.4,8,37,61,40.5*4E,1744081271718
NMEA,$GPGSV,4,2,15,17,30,263,36.5,22,23,305,33.7,194,64,105,38.7,30,50,258,46.0*44,1744081271718
NMEA,$GPGSV,4,3,15,14,41,309,32.7,1,66,142,42.2,19,3,253,0.0,193,1,,0.0*41,1744081271718
NMEA,$GPGSV,4,4,15,195,1,,0.0,196,1,,0.0,47,1,,0.0*62,1744081271718
NMEA,$BDGSV,3,1,9,240,73,342,37.5,207,73,297,39.7,245,69,178,43.0,229,66,43,34.9*60,1744081271718
NMEA,$BDGSV,3,2,9,210,61,282,33.9,209,54,217,38.4,235,48,238,46.5,226,43,307,28.2*5F,1744081271718
NMEA,$BDGSV,3,3,9,206,43,198,26.3*4B,1744081271718
NMEA,$GAGSV,2,1,6,125,71,82,39.7,127,59,72,39.5,96,16,87,0.0,101,1,178,0.0*60,1744081271718
NMEA,$GAGSV,2,2,6,105,38,77,0.0,107,29,136,0.0*68,1744081271718
NMEA,$GPVTG,0.000,T,,M,0.000,N,0.000,K,A*0D,1744081271718
NMEA,$RD_RSSI, 490, 588, 0, 0,1744081271718
NMEA,$GPGGA,030112.718,3958.871648,N,11628.608445,E,1,20,0.924,19.415,M,0,M,,*4C,1744081272718
NMEA,$GPRMC,030112.718,A,3958.871648,N,11628.608445,E,0.000,0.000,080425,,E,A*2B,1744081272718
NMEA,$GPGLL,3958.871648,N,11628.608445,E,030112.718,A,A*52,1744081272718
NMEA,$GPGSA,A,3,2,7,8,17,22,194,30,14,1,,,,2.306,0.924,2.113*0B,1744081272718
NMEA,$BDGSA,A,3,240,207,245,229,210,209,235,226,206,,,,2.306,0.924,2.113*1D,1744081272718
NMEA,$GAGSA,A,3,125,127,,,,,,,,,,,2.306,0.924,2.113*28,1744081272718
NMEA,$GPGSV,4,1,15,193,1,,15.3,2,59,62,38.2,7,42,205,38.0,42,37,145,36.7*7B,1744081272718
NMEA,$GPGSV,4,2,15,8,37,61,41.7,17,30,263,35.5,22,23,305,34.2,194,64,105,39.5*44,1744081272718
NMEA,$GPGSV,4,3,15,30,50,258,45.7,14,41,309,29.3,1,66,142,42.4,19,3,253,0.0*4C,1744081272718
NMEA,$GPGSV,4,4,15,195,1,,0.0,196,1,,0.0,47,1,,0.0*62,1744081272718
NMEA,$BDGSV,3,1,9,240,73,342,35.4,207,73,297,41.4,245,69,178,43.5,229,66,43,31.0*66,1744081272718
NMEA,$BDGSV,3,2,9,210,61,282,33.5,209,54,217,37.9,235,48,238,47.0,226,43,307,28.7*50,1744081272718
NMEA,$BDGSV,3,3,9,206,43,198,27.2*4B,1744081272718
NMEA,$GAGSV,2,1,6,125,71,82,40.2,127,59,72,39.7,96,16,87,0.0,101,1,178,0.0*69,1744081272718
NMEA,$GAGSV,2,2,6,105,38,77,0.0,107,29,136,0.0*68,1744081272718
NMEA,$GPVTG,0.000,T,,M,0.000,N,0.000,K,A*0D,1744081272718
NMEA,$RD_RSSI, 507, 603, 0, 0,1744081272718
NMEA,$GPGGA,030113.618,3958.871660,N,11628.608446,E,1,20,0.924,20.165,M,0,M,,*4D,1744081273618
NMEA,$GPRMC,030113.618,A,3958.871660,N,11628.608446,E,0.000,0.000,080425,,E,A*22,1744081273618
NMEA,$GPGLL,3958.871660,N,11628.608446,E,030113.618,A,A*5B,1744081273618
NMEA,$GPGSA,A,3,2,7,8,17,22,194,30,14,1,,,,2.306,0.924,2.113*0B,1744081273618
NMEA,$BDGSA,A,3,240,207,245,229,210,209,235,226,206,,,,2.306,0.924,2.113*1D,1744081273618
NMEA,$GAGSA,A,3,125,127,,,,,,,,,,,2.306,0.924,2.113*28,1744081273618
NMEA,$GPGSV,4,1,15,2,59,62,38.7,7,42,205,37.7,42,37,145,36.9,8,37,61,41.9*42,1744081273618
NMEA,$GPGSV,4,2,15,17,30,263,34.7,22,23,305,34.9,194,64,105,39.9,30,50,258,45.5*44,1744081273618
NMEA,$GPGSV,4,3,15,14,41,309,28.7,1,66,142,42.2,19,3,253,0.0,193,1,,0.0*4A,1744081273618
NMEA,$GPGSV,4,4,15,195,1,,0.0,196,1,,0.0,47,1,,0.0*62,1744081273618
NMEA,$BDGSV,3,1,9,240,73,342,35.2,207,73,297,41.5,245,69,178,43.2,229,66,43,31.6*60,1744081273618
NMEA,$BDGSV,3,2,9,210,61,282,34.0,209,53,217,37.7,235,48,238,47.2,226,43,307,32.0*55,1744081273618
NMEA,$BDGSV,3,3,9,206,43,198,26.5*4D,1744081273618
NMEA,$GAGSV,2,1,6,125,71,82,40.0,127,59,72,40.0,96,16,87,0.0,101,1,178,0.0*62,1744081273618
NMEA,$GAGSV,2,2,6,105,38,77,0.0,107,29,136,0.0*68,1744081273618
NMEA,$GPVTG,0.000,T,,M,0.000,N,0.000,K,A*0D,1744081273618
NMEA,$RD_RSSI, 497, 620, 0, 0,1744081273618
NMEA,$GPGGA,030114.518,3958.871673,N,11628.608446,E,1,20,0.924,20.915,M,0,M,,*44,1744081274518
NMEA,$GPRMC,030114.518,A,3958.871673,N,11628.608446,E,0.000,0.000,080425,,E,A*24,1744081274518
NMEA,$GPGLL,3958.871673,N,11628.608446,E,030114.518,A,A*5D,1744081274518
NMEA,$GPGSA,A,3,2,7,8,17,22,194,30,14,1,,,,2.306,0.924,2.113*0B,1744081274518
NMEA,$BDGSA,A,3,240,207,245,229,210,209,235,226,206,,,,2.306,0.924,2.113*1D,1744081274518
NMEA,$GAGSA,A,3,125,127,,,,,,,,,,,2.306,0.924,2.113*28,1744081274518
NMEA,$GPGSV,4,1,15,2,59,62,37.9,7,42,205,37.2,42,37,145,36.7,8,37,61,42.0*42,1744081274518
NMEA,$GPGSV,4,2,15,17,30,263,35.2,22,23,305,34.4,194,64,105,39.9,30,50,258,45.9*41,1744081274518
NMEA,$GPGSV,4,3,15,14,41,309,28.2,1,66,142,41.9,19,3,253,0.0,193,1,,0.0*47,1744081274518
NMEA,$GPGSV,4,4,15,195,1,,0.0,196,1,,0.0,47,1,,0.0*62,1744081274518
NMEA,$BDGSV,3,1,9,240,73,342,35.5,207,73,297,41.2,245,69,178,43.5,229,66,43,30.5*65,1744081274518
NMEA,$BDGSV,3,2,9,210,61,282,34.4,209,53,217,37.9,235,48,238,47.2,226,43,307,33.0*5E,1744081274518
NMEA,$BDGSV,3,3,9,206,43,198,26.5*4D,1744081274518
NMEA,$GAGSV,2,1,6,125,71,82,39.5,127,59,72,40.0,96,16,87,0.0,101,1,178,0.0*69,1744081274518
NMEA,$GAGSV,2,2,6,105,38,77,0.0,107,29,136,0.0*68,1744081274518
NMEA,$GPVTG,0.000,T,,M,0.000,N,0.000,K,A*0D,1744081274518
NMEA,$RD_RSSI, 492, 594, 0, 0,1744081274518
NMEA,$GPGGA,030115.418,3958.871686,N,11628.608447,E,1,20,0.924,21.664,M,0,M,,*47,1744081275418
NMEA,$GPRMC,030115.418,A,3958.871686,N,11628.608447,E,0.000,0.000,080425,,E,A*2F,1744081275418
NMEA,$GPGLL,3958.871686,N,11628.608447,E,030115.418,A,A*56,1744081275418
NMEA,$GPGSA,A,3,2,7,8,17,22,194,30,14,1,,,,2.306,0.924,2.113*0B,1744081275418
NMEA,$BDGSA,A,3,240,207,245,229,210,209,235,226,206,,,,2.306,0.924,2.113*1D,1744081275418
NMEA,$GAGSA,A,3,125,127,,,,,,,,,,,2.306,0.924,2.113*28,1744081275418
NMEA,$GPGSV,4,1,15,2,59,62,38.4,7,42,205,37.5,42,37,145,36.2,8,37,61,42.5*47,1744081275418
NMEA,$GPGSV,4,2,15,17,30,263,37.0,22,23,305,34.7,194,64,105,39.4,30,50,258,45.9*4F,1744081275418
NMEA,$GPGSV,4,3,15,14,41,309,30.8,1,66,142,41.5,19,3,253,0.0,193,1,,0.0*48,1744081275418
NMEA,$GPGSV,4,4,15,195,1,,0.0,196,1,,0.0,47,1,,0.0*62,1744081275418
NMEA,$BDGSV,3,1,9,240,73,342,35.9,207,73,297,40.9,245,69,178,43.5,229,66,43,30.6*60,1744081275418
NMEA,$BDGSV,3,2,9,210,61,282,35.0,209,53,217,38.4,235,48,238,47.0,226,43,307,31.7*5E,1744081275418
NMEA,$BDGSV,3,3,9,206,43,198,25.7*4C,1744081275418
NMEA,$GAGSV,2,1,6,125,71,82,39.7,127,59,72,40.0,96,16,87,0.0,101,1,178,0.0*6B,1744081275418
NMEA,$GAGSV,2,2,6,105,38,77,0.0,107,29,136,0.0*68,1744081275418
NMEA,$GPVTG,0.000,T,,M,0.000,N,0.000,K,A*0D,1744081275418
NMEA,$RD_RSSI, 494, 612, 0, 0,1744081275418
NMEA,$GPGGA,030116.318,3958.871699,N,11628.608448,E,1,20,0.924,22.414,M,0,M,,*44,1744081275418
NMEA,$GPRMC,030116.318,A,3958.871699,N,11628.608448,E,0.000,0.000,080425,,E,A*2A,1744081276318
NMEA,$GPGLL,3958.871699,N,11628.608448,E,030116.318,A,A*53,1744081276318
NMEA,$GPGSA,A,3,2,7,8,17,22,194,30,14,1,,,,2.306,0.924,2.112*0A,1744081276318
NMEA,$BDGSA,A,3,240,207,245,229,210,209,235,226,206,,,,2.306,0.924,2.112*1C,1744081276318
NMEA,$GAGSA,A,3,125,127,,,,,,,,,,,2.306,0.924,2.112*29,1744081276318
NMEA,$GPGSV,4,1,16,2,59,62,37.7,7,42,205,37.9,42,37,145,36.7,8,37,61,42.7*43,1744081276318
NMEA,$GPGSV,4,2,16,17,30,263,38.5,22,23,305,33.9,194,64,105,37.7,30,50,258,46.0*48,1744081276318
NMEA,$GPGSV,4,3,16,14,41,309,34.4,16,1,,16.8,1,66,141,40.5,19,3,253,0.0*42,1744081276318
NMEA,$GPGSV,4,4,16,193,1,,0.0,195,1,,0.0,196,1,,0.0,47,1,,0.0*45,1744081276318
NMEA,$BDGSV,3,1,9,240,73,342,35.0,207,73,297,40.9,245,69,178,43.2,229,66,43,31.5*6C,1744081276318
NMEA,$BDGSV,3,2,9,210,61,282,36.2,209,53,217,38.4,235,48,238,46.2,226,43,307,31.2*59,1744081276318
NMEA,$BDGSV,3,3,9,206,43,198,25.8*43,1744081276318
NMEA,$GAGSV,2,1,6,125,71,82,39.4,127,59,72,40.2,96,16,87,0.0,101,1,178,0.0*6A,1744081276318
NMEA,$GAGSV,2,2,6,105,38,77,0.0,107,29,136,0.0*68,1744081276318
NMEA,$GPVTG,0.000,T,,M,0.000,N,0.000,K,A*0D,1744081276318
NMEA,$RD_RSSI, 483, 583, 0, 0,1744081276318
NMEA,$GPGGA,030117.218,3958.871609,N,11628.608448,E,1,20,0.924,23.003,M,0,M,,*4E,1744081277218
NMEA,$GPRMC,030117.218,A,3958.871609,N,11628.608448,E,0.000,0.000,080425,,E,A*23,1744081277218
NMEA,$GPGLL,3958.871609,N,11628.608448,E,030117.218,A,A*5A,1744081277218
NMEA,$GPGSA,A,3,2,7,8,17,22,194,30,14,1,,,,2.306,0.924,2.112*0A,1744081277218
NMEA,$BDGSA,A,3,240,207,245,229,210,209,235,226,206,,,,2.306,0.924,2.112*1C,1744081277218
NMEA,$GAGSA,A,3,125,127,,,,,,,,,,,2.306,0.924,2.112*29,1744081277218
NMEA,$GPGSV,4,1,15,2,59,62,37.7,7,42,205,37.7,42,37,145,37.5,8,37,61,42.5*4F,1744081277218
NMEA,$GPGSV,4,2,15,17,30,263,37.7,22,23,305,32.9,194,64,105,37.9,30,50,258,45.5*4F,1744081277218
NMEA,$GPGSV,4,3,15,14,41,309,36.4,1,66,141,40.5,19,3,253,0.0,193,1,,0.0*40,1744081277218
NMEA,$GPGSV,4,4,15,195,1,,0.0,196,1,,0.0,47,1,,0.0*62,1744081277218
NMEA,$BDGSV,3,1,9,240,73,342,36.4,207,73,297,40.9,245,69,178,43.4,229,66,43,33.5*6F,1744081277218
NMEA,$BDGSV,3,2,9,210,61,282,36.7,209,53,217,38.0,235,48,238,45.5,226,43,307,30.0*5F,1744081277218
NMEA,$BDGSV,3,3,9,206,43,198,28.8*4E,1744081277218
NMEA,$GAGSV,2,1,6,125,71,82,39.7,127,59,72,40.0,96,16,87,0.0,101,1,178,0.0*6B,1744081277218
NMEA,$GAGSV,2,2,6,105,38,77,0.0,107,29,136,0.0*68,1744081277218
NMEA,$GPVTG,0.000,T,,M,0.000,N,0.000,K,A*0D,1744081277218
NMEA,$RD_RSSI, 497, 606, 0, 0,1744081277218
NMEA,$GPGGA,030118.118,3958.871518,N,11628.608449,E,1,20,0.924,23.592,M,0,M,,*4D,1744081278118
NMEA,$GPRMC,030118.118,A,3958.871518,N,11628.608449,E,0.000,0.000,080425,,E,A*2D,1744081278118
NMEA,$GPGLL,3958.871518,N,11628.608449,E,030118.118,A,A*54,1744081278118
NMEA,$GPGSA,A,3,2,7,8,17,22,194,30,14,1,,,,2.306,0.924,2.112*0A,1744081278118
NMEA,$BDGSA,A,3,240,207,245,229,210,209,235,226,206,,,,2.306,0.924,2.112*1C,1744081278118
NMEA,$GAGSA,A,3,125,127,,,,,,,,,,,2.306,0.924,2.112*29,1744081278118
NMEA,$GPGSV,4,1,15,2,59,62,38.5,7,42,205,37.7,42,37,145,38.5,8,37,61,41.9*42,1744081278118
NMEA,$GPGSV,4,2,15,17,30,263,37.5,22,23,305,31.7,194,64,105,38.2,30,50,258,45.7*46,1744081278118
NMEA,$GPGSV,4,3,15,14,41,309,39.0,1,66,141,40.7,19,3,253,0.0,193,1,,0.0*49,1744081278118
NMEA,$GPGSV,4,4,15,195,1,,0.0,196,1,,0.0,47,1,,0.0*62,1744081278118
NMEA,$BDGSV,3,1,9,240,73,342,37.4,207,73,297,39.9,245,69,178,43.9,229,66,43,34.5*6A,1744081278118
NMEA,$BDGSV,3,2,9,210,61,282,37.5,209,53,217,38.4,235,48,238,45.7,226,43,307,36.0*5C,1744081278118
NMEA,$BDGSV,3,3,9,206,43,198,28.6*40,1744081278118
NMEA,$GAGSV,2,1,6,125,71,82,40.5,127,59,72,39.7,96,16,87,0.0,101,1,178,0.0*6E,1744081278118
NMEA,$GAGSV,2,2,6,105,38,77,0.0,107,29,136,0.0*68,1744081278118
NMEA,$GPVTG,0.000,T,,M,0.000,N,0.000,K,A*0D,1744081278118
NMEA,$RD_RSSI, 494, 590, 0, 0,1744081278118
NMEA,$GPGGA,030119.018,3958.871428,N,11628.608449,E,1,20,0.923,24.181,M,0,M,,*49,1744081279018
NMEA,$GPRMC,030119.018,A,3958.871428,N,11628.608449,E,0.000,0.000,080425,,E,A*2F,1744081279018
NMEA,$GPGLL,3958.871428,N,11628.608449,E,030119.018,A,A*56,1744081279018
NMEA,$GPGSA,A,3,2,7,8,17,22,194,30,14,1,,,,2.305,0.923,2.112*0E,1744081279018
NMEA,$BDGSA,A,3,240,207,245,229,210,209,235,226,206,,,,2.305,0.923,2.112*18,1744081279018
NMEA,$GAGSA,A,3,125,127,,,,,,,,,,,2.305,0.923,2.112*2D,1744081279018
NMEA,$GPGSV,4,1,15,2,59,62,38.0,7,42,205,38.4,42,37,145,38.5,8,37,61,41.7*45,1744081279018
NMEA,$GPGSV,4,2,15,17,30,263,37.7,22,23,305,31.2,194,64,105,38.0,30,50,258,45.7*43,1744081279018
NMEA,$GPGSV,4,3,15,14,41,309,40.2,1,66,141,40.7,19,3,253,0.0,193,1,,0.0*45,1744081279018
NMEA,$GPGSV,4,4,15,195,1,,0.0,196,1,,0.0,47,1,,0.0*62,1744081279018
NMEA,$BDGSV,3,1,9,240,73,342,38.0,207,73,297,39.5,245,69,178,43.7,229,66,43,35.5*62,1744081279018
NMEA,$BDGSV,3,2,9,210,61,282,37.2,209,53,217,38.2,235,48,238,45.7,226,43,307,38.0*53,1744081279018
NMEA,$BDGSV,3,3,9,206,43,198,28.2*44,1744081279018
NMEA,$GAGSV,2,1,7,125,71,82,40.2,127,59,72,39.7,118,1,,35.9,96,16,87,0.0*61,1744081279018
NMEA,$GAGSV,2,2,7,101,1,178,0.0,105,38,77,0.0,107,29,136,0.0*78,1744081279018
NMEA,$GPVTG,0.000,T,,M,0.000,N,0.000,K,A*0D,1744081279018
NMEA,$RD_RSSI, 499, 603, 0, 0,1744081279018
NMEA,$GPGGA,030120.000,3958.871337,N,11628.608450,E,1,20,0.923,24.770,M,0,M,,*43,1744081280000
NMEA,$GPRMC,030120.000,A,3958.871337,N,11628.608450,E,0.000,0.000,080425,,E,A*2D,1744081280000
NMEA,$GPGLL,3958.871337,N,11628.608450,E,030120.000,A,A*54,1744081280000
NMEA,$GPGSA,A,3,2,7,8,17,22,194,30,14,1,,,,2.305,0.923,2.112*0E,1744081280000
NMEA,$BDGSA,A,3,240,207,245,229,210,209,235,226,206,,,,2.305,0.923,2.112*18,1744081280000
NMEA,$GAGSA,A,3,125,127,,,,,,,,,,,2.305,0.923,2.112*2D,1744081280000
NMEA,$GPGSV,4,1,15,2,59,62,36.5,7,42,205,38.5,42,37,145,38.2,8,37,61,41.2*4D,1744081280000
NMEA,$GPGSV,4,2,15,17,30,263,37.7,22,23,305,32.0,194,64,105,37.7,30,50,258,45.4*49,1744081280000
NMEA,$GPGSV,4,3,15,14,41,309,40.7,1,66,141,40.4,19,3,253,0.0,193,1,,0.0*43,1744081280000
NMEA,$GPGSV,4,4,15,195,1,,0.0,196,1,,0.0,47,1,,0.0*62,1744081280000
NMEA,$BDGSV,3,1,9,240,73,342,38.5,207,73,297,39.7,245,69,178,43.9,229,66,43,36.7*6A,1744081280000
NMEA,$BDGSV,3,2,9,210,61,282,36.7,209,53,217,38.2,235,48,238,45.5,226,43,307,38.9*5C,1744081280000
NMEA,$BDGSV,3,3,9,206,43,198,28.0*46,1744081280000
NMEA,$GAGSV,2,1,7,125,71,82,40.0,127,59,72,39.2,118,1,,35.5,96,16,87,0.0*6A,1744081280000
NMEA,$GAGSV,2,2,7,101,1,178,0.0,105,38,77,0.0,107,29,136,0.0*78,1744081280000
NMEA,$GPVTG,0.000,T,,M,0.000,N,0.000,K,A*0D,1744081280000
NMEA,$RD_RSSI, 495, 594, 0, 0,1744081280000
NMEA,$GPGGA,030121.000,3958.871246,N,11628.608451,E,1,20,0.923,25.359,M,0,M,,*4A,1744081281000
NMEA,$GPRMC,030121.000,A,3958.871246,N,11628.608451,E,0.000,0.000,080425,,E,A*2A,1744081281000
NMEA,$GPGLL,3958.871246,N,11628.608451,E,030121.000,A,A*53,1744081281000
NMEA,$GPGSA,A,3,2,7,8,17,22,194,30,14,1,,,,2.305,0.923,2.112*0E,1744081281000
NMEA,$BDGSA,A,3,240,207,245,229,210,209,235,226,206,,,,2.305,0.923,2.112*18,1744081281000
NMEA,$GAGSA,A,3,125,127,,,,,,,,,,,2.305,0.923,2.112*2D,1744081281000
NMEA,$GPGSV,4,1,15,2,59,62,35.7,7,42,205,38.5,42,37,145,38.5,8,37,61,41.0*49,1744081281000
NMEA,$GPGSV,4,2,15,17,30,263,38.5,22,23,305,32.7,194,64,105,37.9,30,50,258,45.0*49,1744081281000
NMEA,$GPGSV,4,3,15,14,41,309,41.0,1,66,141,40.0,19,3,253,0.0,193,1,,0.0*41,1744081281000
NMEA,$GPGSV,4,4,15,195,1,,0.0,196,1,,0.0,47,1,,0.0*62,1744081281000
NMEA,$BDGSV,3,1,9,240,73,342,39.0,207,73,297,40.0,245,69,178,43.7,229,66,43,37.2*6D,1744081281000
NMEA,$BDGSV,3,2,9,210,61,282,36.5,209,53,217,38.0,235,48,238,45.5,226,43,307,39.4*50,1744081281000
NMEA,$BDGSV,3,3,9,206,43,198,27.5*4C,1744081281000
NMEA,$GAGSV,2,1,7,125,71,82,39.5,127,59,72,38.7,118,1,,34.9,96,16,87,0.0*68,1744081281000
NMEA,$GAGSV,2,2,7,101,1,178,0.0,105,38,77,0.0,107,29,136,0.0*78,1744081281000
NMEA,$GPVTG,0.000,T,,M,0.000,N,0.000,K,A*0D,1744081281000
NMEA,$RD_RSSI, 487, 597, 0, 0,1744081281000
NMEA,$GPGGA,030122.000,3958.871237,N,11628.608380,E,1,20,0.923,25.358,M,0,M,,*45,1744081281000
NMEA,$GPRMC,030122.000,A,3958.871237,N,11628.608380,E,0.000,0.000,080425,,E,A*24,1744081282000
NMEA,$GPGLL,3958.871237,N,11628.608380,E,030122.000,A,A*5D,1744081282000
NMEA,$GPGSA,A,3,2,7,8,17,22,194,30,14,1,,,,2.305,0.923,2.112*0E,1744081282000
NMEA,$BDGSA,A,3,240,207,245,229,210,209,235,226,206,,,,2.305,0.923,2.112*18,1744081282000
NMEA,$GAGSA,A,3,125,127,,,,,,,,,,,2.305,0.923,2.112*2D,1744081282000
NMEA,$GPGSV,4,1,15,2,59,62,35.5,7,42,205,38.5,42,37,145,38.5,8,37,61,40.7*4D,1744081282000
NMEA,$GPGSV,4,2,15,17,30,263,38.5,22,23,305,32.7,194,64,105,37.4,30,50,258,44.9*4C,1744081282000
NMEA,$GPGSV,4,3,15,14,41,309,40.7,1,66,141,40.2,19,3,253,0.0,193,1,,0.0*45,1744081282000
NMEA,$GPGSV,4,4,15,195,1,,0.0,196,1,,0.0,47,1,,0.0*62,1744081282000
NMEA,$BDGSV,3,1,9,240,73,342,38.7,207,73,297,40.0,245,69,178,43.7,229,66,43,37.7*6E,1744081282000
NMEA,$BDGSV,3,2,9,210,61,282,36.7,209,53,217,38.0,235,48,238,45.4,226,43,307,39.5*52,1744081282000
NMEA,$BDGSV,3,3,9,206,43,198,26.5*4D,1744081282000
NMEA,$GAGSV,2,1,7,125,71,82,39.4,127,59,72,38.4,118,1,,35.2,96,16,87,0.0*60,1744081282000
NMEA,$GAGSV,2,2,7,101,1,178,0.0,105,38,77,0.0,107,29,136,0.0*78,1744081282000
NMEA,$GPVTG,0.000,T,,M,0.000,N,0.000,K,A*0D,1744081282000
NMEA,$RD_RSSI, 528, 652, 0, 0,1744081282000
NMEA,$GPGGA,030123.000,3958.871237,N,11628.608380,E,1,20,0.923,25.358,M,0,M,,*44,1744081283000
NMEA,$GPRMC,030123.000,A,3958.871237,N,11628.608380,E,0.000,0.000,080425,,E,A*25,1744081283000
NMEA,$GPGLL,3958.871237,N,11628.608380,E,030123.000,A,A*5C,1744081283000
NMEA,$GPGSA,A,3,2,7,8,17,22,194,30,14,1,,,,2.305,0.923,2.112*0E,1744081283000
NMEA,$BDGSA,A,3,240,207,245,229,210,209,235,226,206,,,,2.305,0.923,2.112*18,1744081283000
NMEA,$GAGSA,A,3,125,127,,,,,,,,,,,2.305,0.923,2.112*2D,1744081283000
NMEA,$GPGSV,4,1,15,2,59,62,36.5,7,42,205,37.9,42,37,145,39.0,8,37,61,41.2*4D,1744081283000
NMEA,$GPGSV,4,2,15,17,30,263,39.2,22,23,305,33.0,194,64,105,37.9,30,50,258,45.5*4C,1744081283000
NMEA,$GPGSV,4,3,15,14,42,309,39.5,1,66,141,39.5,19,3,253,0.0,193,1,,0.0*43,1744081283000
NMEA,$GPGSV,4,4,15,195,1,,0.0,196,1,,0.0,47,1,,0.0*62,1744081283000
NMEA,$BDGSV,3,1,9,240,73,342,37.9,207,73,297,39.2,245,69,178,44.4,229,66,43,36.4*65,1744081283000
NMEA,$BDGSV,3,2,9,210,61,282,36.0,209,53,217,37.7,235,48,238,45.2,226,43,307,39.0*5E,1744081283000
NMEA,$BDGSV,3,3,9,206,43,198,25.5*4E,1744081283000
NMEA,$GAGSV,2,1,7,125,71,82,39.4,127,59,72,38.2,118,1,,37.2,96,16,87,0.0*64,1744081283000
NMEA,$GAGSV,2,2,7,101,1,178,0.0,105,38,77,0.0,107,29,136,0.0*78,1744081283000
NMEA,$GPVTG,0.000,T,,M,0.000,N,0.000,K,A*0D,1744081283000
NMEA,$RD_RSSI, 489, 606, 0, 0,1744081283000
NMEA,$GPGGA,030124.000,3958.871237,N,11628.608380,E,1,20,0.923,25.358,M,0,M,,*43,1744081284000
NMEA,$GPRMC,030124.000,A,3958.871237,N,11628.608380,E,0.000,0.000,080425,,E,A*22,1744081284000
NMEA,$GPGLL,3958.871237,N,11628.608380,E,030124.000,A,A*5B,1744081284000
NMEA,$GPGSA,A,3,2,7,8,17,22,194,30,14,1,,,,2.305,0.923,2.112*0E,1744081284000
NMEA,$BDGSA,A,3,240,207,245,229,210,209,235,226,206,,,,2.305,0.923,2.112*18,1744081284000
NMEA,$GAGSA,A,3,125,127,,,,,,,,,,,2.305,0.923,2.112*2D,1744081284000
NMEA,$GPGSV,4,1,15,2,59,62,38.2,7,42,205,38.0,42,37,145,38.5,8,37,61,42.0*47,1744081284000
NMEA,$GPGSV,4,2,15,17,30,263,38.2,22,23,305,33.2,194,64,105,39.0,30,50,258,45.9*44,1744081284000
NMEA,$GPGSV,4,3,15,14,42,309,36.0,1,66,141,39.2,19,3,253,0.0,193,1,,0.0*4E,1744081284000
NMEA,$GPGSV,4,4,15,195,1,,0.0,196,1,,0.0,47,1,,0.0*62,1744081284000
NMEA,$BDGSV,3,1,9,240,73,342,38.0,207,73,297,39.5,245,69,178,44.2,229,66,43,33.4*67,1744081284000
NMEA,$BDGSV,3,2,9,210,61,282,34.5,209,53,217,37.2,235,48,238,45.0,226,43,307,35.2*50,1744081284000
NMEA,$BDGSV,3,3,9,206,43,198,26.5*4D,1744081284000
NMEA,$GAGSV,2,1,7,125,71,82,39.5,127,59,72,39.5,118,54,46,37.5,96,16,87,0.0*56,1744081284000
NMEA,$GAGSV,2,2,7,101,1,178,0.0,105,38,77,0.0,107,29,136,0.0*78,1744081284000
NMEA,$GPVTG,0.000,T,,M,0.000,N,0.000,K,A*0D,1744081284000
NMEA,$RD_RSSI, 522, 639, 0, 0,1744081284000
NMEA,$GPGGA,030125.000,3958.871237,N,11628.608380,E,1,20,0.923,25.358,M,0,M,,*42,1744081285000
NMEA,$GPRMC,030125.000,A,3958.871237,N,11628.608380,E,0.000,0.000,080425,,E,A*23,1744081285000
NMEA,$GPGLL,3958.871237,N,11628.608380,E,030125.000,A,A*5A,1744081285000
NMEA,$GPGSA,A,3,2,7,8,17,22,194,30,14,1,,,,2.305,0.923,2.112*0E,1744081285000
NMEA,$BDGSA,A,3,240,207,245,229,210,209,235,226,206,,,,2.305,0.923,2.112*18,1744081285000
NMEA,$GAGSA,A,3,125,127,,,,,,,,,,,2.305,0.923,2.112*2D,1744081285000
NMEA,$GPGSV,4,1,15,2,59,62,38.7,7,42,205,39.0,42,37,145,38.7,8,37,61,41.7*45,1744081285000
NMEA,$GPGSV,4,2,15,17,30,263,38.4,22,23,305,33.5,194,64,105,38.2,30,50,258,45.5*4A,1744081285000
NMEA,$GPGSV,4,3,15,14,42,309,38.2,1,66,141,39.9,19,3,253,0.0,193,1,,0.0*49,1744081285000
NMEA,$GPGSV,4,4,15,195,1,,0.0,196,1,,0.0,47,1,,0.0*62,1744081285000
NMEA,$BDGSV,3,1,9,240,73,342,38.0,207,73,297,39.7,245,69,178,43.9,229,66,43,31.5*6A,1744081285000
NMEA,$BDGSV,3,2,9,210,61,282,36.2,209,53,217,37.7,235,48,238,45.2,226,43,307,35.7*57,1744081285000
NMEA,$BDGSV,3,3,9,206,43,198,27.1*48,1744081285000
NMEA,$GAGSV,2,1,7,125,71,82,39.9,127,59,72,39.7,118,54,46,37.0,96,16,87,0.0*5D,1744081285000
NMEA,$GAGSV,2,2,7,101,1,178,0.0,105,38,77,0.0,107,29,136,0.0*78,1744081285000
NMEA,$GPVTG,0.000,T,,M,0.000,N,0.000,K,A*0D,1744081285000
NMEA,$RD_RSSI, 512, 650, 0, 0,1744081285000
NMEA,$GPGGA,030126.000,3958.871237,N,11628.608380,E,1,20,0.923,25.358,M,0,M,,*41,1744081286000
NMEA,$GPRMC,030126.000,A,3958.871237,N,11628.608380,E,0.214,0.000,080425,,E,A*27,1744081286000
NMEA,$GPGLL,3958.871237,N,11628.608380,E,030126.000,A,A*59,1744081286000
NMEA,$GPGSA,A,3,2,7,8,17,22,194,30,14,1,,,,2.304,0.923,2.112*0F,1744081286000
NMEA,$BDGSA,A,3,240,207,245,229,210,209,235,226,206,,,,2.304,0.923,2.112*19,1744081286000
NMEA,$GAGSA,A,3,125,127,,,,,,,,,,,2.304,0.923,2.112*2C,1744081286000
NMEA,$GPGSV,4,1,15,2,59,62,39.2,7,42,205,39.5,42,37,145,38.5,8,37,61,41.4*45,1744081286000
NMEA,$GPGSV,4,2,15,17,30,263,38.2,22,23,305,32.0,194,64,105,37.5,30,50,258,45.2*47,1744081286000
NMEA,$GPGSV,4,3,15,14,42,309,37.9,1,66,141,39.5,19,3,253,0.0,193,1,,0.0*41,1744081286000
NMEA,$GPGSV,4,4,15,195,1,,0.0,196,1,,0.0,47,1,,0.0*62,1744081286000
NMEA,$BDGSV,3,1,9,240,73,342,37.5,207,73,297,38.5,245,69,178,43.5,229,66,43,31.2*68,1744081286000
NMEA,$BDGSV,3,2,9,210,61,282,36.5,209,53,217,37.7,235,48,238,44.9,226,43,307,34.9*55,1744081286000
NMEA,$BDGSV,3,3,9,206,43,198,27.1*48,1744081286000
NMEA,$GAGSV,2,1,7,125,71,82,40.4,127,59,72,40.2,118,54,46,37.9,96,16,87,0.0*5C,1744081286000
NMEA,$GAGSV,2,2,7,101,1,178,0.0,105,38,77,0.0,107,29,136,0.0*78,1744081286000
NMEA,$GPVTG,0.000,T,,M,0.214,N,0.397,K,A*07,1744081286000
NMEA,$RD_RSSI, 508, 594, 0, 0,1744081286000
NMEA,$GPGGA,030127.000,3958.871237,N,11628.608380,E,1,20,0.922,25.358,M,0,M,,*41,1744081286000
NMEA,$GPRMC,030127.000,A,3958.871237,N,11628.608380,E,0.413,0.000,080425,,E,A*27,1744081287000
NMEA,$GPGLL,3958.871237,N,11628.608380,E,030127.000,A,A*58,1744081287000
NMEA,$GPGSA,A,3,2,7,8,17,22,194,30,14,1,,,,2.304,0.922,2.111*0D,1744081287000
NMEA,$BDGSA,A,3,240,207,245,229,210,209,235,226,206,,,,2.304,0.922,2.111*1B,1744081287000
NMEA,$GAGSA,A,3,125,127,,,,,,,,,,,2.304,0.922,2.111*2E,1744081287000
NMEA,$GPGSV,4,1,15,2,59,62,39.7,7,42,205,40.0,42,37,145,37.5,8,37,61,41.7*47,1744081287000
NMEA,$GPGSV,4,2,15,17,30,263,37.5,22,23,305,31.1,194,64,105,37.7,30,50,258,45.5*48,1744081287000
NMEA,$GPGSV,4,3,15,14,42,309,37.5,1,66,141,39.0,19,3,253,0.0,193,1,,0.0*48,1744081287000
NMEA,$GPGSV,4,4,15,195,1,,0.0,196,1,,0.0,47,1,,0.0*62,1744081287000
NMEA,$BDGSV,3,1,9,240,73,342,37.2,207,73,297,38.2,245,69,178,43.5,229,66,43,29.8*6B,1744081287000
NMEA,$BDGSV,3,2,9,210,61,282,36.5,209,53,217,37.9,235,48,238,45.2,226,43,307,35.5*5C,1744081287000
NMEA,$BDGSV,3,3,9,206,43,198,26.7*4F,1744081287000
NMEA,$GAGSV,2,1,7,125,71,82,40.5,127,59,72,40.0,118,54,46,40.0,96,16,87,0.0*56,1744081287000
NMEA,$GAGSV,2,2,7,101,1,178,0.0,105,38,77,0.0,107,29,136,0.0*78,1744081287000
NMEA,$GPVTG,0.000,T,,M,0.413,N,0.765,K,A*0F,1744081287000
NMEA,$RD_RSSI, 494, 609, 0, 0,1744081287000
NMEA,$GPGGA,030128.000,3958.871237,N,11628.608380,E,1,20,0.922,25.358,M,0,M,,*4E,1744081288000
NMEA,$GPRMC,030128.000,A,3958.871237,N,11628.608380,E,0.729,0.000,080425,,E,A*22,1744081288000
NMEA,$GPGLL,3958.871237,N,11628.608380,E,030128.000,A,A*57,1744081288000
NMEA,$GPGSA,A,3,2,7,8,17,22,194,30,14,1,,,,2.304,0.922,2.111*0D,1744081288000
NMEA,$BDGSA,A,3,240,207,245,229,210,209,235,226,206,,,,2.304,0.922,2.111*1B,1744081288000
NMEA,$GAGSA,A,3,125,127,,,,,,,,,,,2.304,0.922,2.111*2E,1744081288000
NMEA,$GPGSV,4,1,15,2,59,62,39.5,7,42,205,40.0,42,37,145,37.5,8,37,61,42.0*41,1744081288000
NMEA,$GPGSV,4,2,15,17,30,263,37.7,22,23,305,32.4,194,64,105,38.2,30,50,258,45.9*4A,1744081288000
NMEA,$GPGSV,4,3,15,14,42,309,38.2,1,66,141,39.0,19,3,253,0.0,193,1,,0.0*40,1744081288000
NMEA,$GPGSV,4,4,15,195,1,,0.0,196,1,,0.0,47,1,,0.0*62,1744081288000
NMEA,$BDGSV,3,1,9,240,73,342,38.2,207,73,297,38.7,245,69,178,43.9,229,66,43,29.6*63,1744081288000
NMEA,$BDGSV,3,2,9,210,61,282,36.0,209,53,217,38.2,235,48,238,45.5,226,43,307,35.9*56,1744081288000
NMEA,$BDGSV,3,3,9,206,43,198,25.6*4D,1744081288000
NMEA,$GAGSV,2,1,7,125,71,82,40.2,127,59,72,40.2,118,54,46,39.5,96,16,87,0.0*58,1744081288000
NMEA,$GAGSV,2,2,7,101,1,178,0.0,105,38,77,0.0,107,29,136,0.0*78,1744081288000
NMEA,$GPVTG,0.000,T,,M,0.729,N,1.350,K,A*06,1744081288000
NMEA,$RD_RSSI, 508, 615, 0, 0,1744081288000
NMEA,$GPGGA,030129.000,3958.871237,N,11628.608380,E,1,20,0.922,25.358,M,0,M,,*4F,1744081289000
NMEA,$GPRMC,030129.000,A,3958.871237,N,11628.608380,E,0.000,0.000,080425,,E,A*2F,1744081289000
NMEA,$GPGLL,3958.871237,N,11628.608380,E,030129.000,A,A*56,1744081289000
NMEA,$GPGSA,A,3,2,7,8,17,22,194,30,14,1,,,,2.304,0.922,2.111*0D,1744081289000
NMEA,$BDGSA,A,3,240,207,245,229,210,209,235,226,206,,,,2.304,0.922,2.111*1B,1744081289000
NMEA,$GAGSA,A,3,125,127,,,,,,,,,,,2.304,0.922,2.111*2E,1744081289000
NMEA,$GPGSV,4,1,15,2,59,62,38.4,7,42,205,40.0,42,37,145,37.7,8,37,61,42.0*43,1744081289000
NMEA,$GPGSV,4,2,15,17,30,263,38.7,22,23,305,32.5,194,64,105,38.5,30,50,258,45.9*43,1744081289000
NMEA,$GPGSV,4,3,15,14,42,309,39.2,1,66,141,39.4,19,3,253,0.0,193,1,,0.0*45,1744081289000
NMEA,$GPGSV,4,4,15,195,1,,0.0,196,1,,0.0,47,1,,0.0*62,1744081289000
NMEA,$BDGSV,3,1,9,240,73,342,38.2,207,73,297,39.5,245,69,178,44.0,229,66,43,32.5*67,1744081289000
NMEA,$BDGSV,3,2,9,210,61,282,35.7,209,53,217,38.2,235,48,238,45.2,226,43,307,36.0*5F,1744081289000
NMEA,$BDGSV,3,3,9,206,43,198,26.2*4A,1744081289000
NMEA,$GAGSV,2,1,7,125,71,82,39.2,127,59,72,39.4,118,54,46,38.7,96,16,87,0.0*5D,1744081289000
NMEA,$GAGSV,2,2,7,101,1,178,0.0,105,38,77,0.0,107,29,136,0.0*78,1744081289000
NMEA,$GPVTG,0.000,T,,M,0.000,N,0.000,K,A*0D,1744081289000
NMEA,$RD_RSSI, 507, 622, 0, 0,1744081289000
NMEA,$GPGGA,030130.000,3958.871237,N,11628.608380,E,1,20,0.922,25.358,M,0,M,,*47,1744081290000
NMEA,$GPRMC,030130.000,A,3958.871237,N,11628.608380,E,0.000,0.000,080425,,E,A*27,1744081290000
NMEA,$GPGLL,3958.871237,N,11628.608380,E,030130.000,A,A*5E,1744081290000
NMEA,$GPGSA,A,3,2,7,8,17,22,194,30,14,1,,,,2.304,0.922,2.111*0D,1744081290000
NMEA,$BDGSA,A,3,240,207,245,229,210,209,235,226,206,,,,2.304,0.922,2.111*1B,1744081290000
NMEA,$GAGSA,A,3,125,127,,,,,,,,,,,2.304,0.922,2.111*2E,1744081290000
NMEA,$GPGSV,4,1,15,2,59,62,38.5,7,42,205,39.5,42,37,145,37.4,8,37,61,42.0*4A,1744081290000
NMEA,$GPGSV,4,2,15,17,30,263,38.0,22,23,305,32.2,194,64,105,38.7,30,50,258,46.4*4F,1744081290000
NMEA,$GPGSV,4,3,15,14,42,309,40.2,1,66,141,40.4,19,3,253,0.0,193,1,,0.0*45,1744081290000
NMEA,$GPGSV,4,4,15,195,1,,0.0,196,1,,0.0,47,1,,0.0*62,1744081290000
NMEA,$BDGSV,3,1,9,240,73,342,37.2,207,73,297,39.5,245,69,178,44.2,229,66,43,35.5*6D,1744081290000
NMEA,$BDGSV,3,2,9,210,61,282,34.0,209,53,217,37.9,235,48,238,45.0,226,43,307,34.5*58,1744081290000
NMEA,$BDGSV,3,3,9,206,43,198,27.2*4B,1744081290000
NMEA,$GAGSV,2,1,7,125,71,82,37.0,127,59,72,38.5,118,54,46,37.9,96,16,87,0.0*50,1744081290000
NMEA,$GAGSV,2,2,7,101,1,178,0.0,105,38,77,0.0,107,29,136,0.0*78,1744081290000
NMEA,$GPVTG,0.000,T,,M,0.000,N,0.000,K,A*0D,1744081290000
NMEA,$RD_RSSI, 496, 599, 0, 0,1744081290000
NMEA,$GPGGA,030131.000,3958.871237,N,11628.608380,E,1,20,0.922,25.358,M,0,M,,*46,1744081291000
NMEA,$GPRMC,030131.000,A,3958.871237,N,11628.608380,E,0.000,0.000,080425,,E,A*26,1744081291000
NMEA,$GPGLL,3958.871237,N,11628.608380,E,030131.000,A,A*5F,1744081291000
NMEA,$GPGSA,A,3,2,7,8,17,22,194,30,14,1,,,,2.304,0.922,2.111*0D,1744081291000
NMEA,$BDGSA,A,3,240,207,245,229,210,209,235,226,206,,,,2.304,0.922,2.111*1B,1744081291000
NMEA,$GAGSA,A,3,125,127,,,,,,,,,,,2.304,0.922,2.111*2E,1744081291000
NMEA,$GPGSV,4,1,15,2,59,62,37.9,7,42,205,38.9,42,37,145,37.2,8,37,61,41.7*46,1744081291000
NMEA,$GPGSV,4,2,15,17,30,263,37.9,22,23,305,32.2,194,64,105,38.2,30,50,258,46.9*41,1744081291000
NMEA,$GPGSV,4,3,15,14,42,309,40.0,1,66,141,40.2,19,3,253,0.0,193,1,,0.0*41,1744081291000
NMEA,$GPGSV,4,4,15,195,1,,0.0,196,1,,0.0,47,1,,0.0*62,1744081291000
NMEA,$BDGSV,3,1,9,240,73,342,37.0,207,73,297,39.2,245,69,178,44.5,229,66,43,36.0*69,1744081291000
NMEA,$BDGSV,3,2,9,210,61,282,33.0,209,53,217,37.5,235,48,238,45.2,226,43,307,34.5*51,1744081291000
NMEA,$BDGSV,3,3,9,206,43,198,27.2*4B,1744081291000
NMEA,$GAGSV,2,1,7,125,71,82,36.2,127,59,72,38.0,118,54,46,38.2,96,16,87,0.0*52,1744081291000
NMEA,$GAGSV,2,2,7,101,1,178,0.0,105,38,77,0.0,107,29,136,0.0*78,1744081291000
NMEA,$GPVTG,0.000,T,,M,0.000,N,0.000,K,A*0D,1744081291000
NMEA,$RD_RSSI, 500, 632, 0, 0,1744081291000
NMEA,$GPGGA,030132.000,3958.871237,N,11628.608380,E,1,20,0.922,25.358,M,0,M,,*45,1744081291000
NMEA,$GPRMC,030132.000,A,3958.871237,N,11628.608380,E,0.000,0.000,080425,,E,A*25,1744081292000
NMEA,$GPGLL,3958.871237,N,11628.608380,E,030132.000,A,A*5C,1744081292000
NMEA,$GPGSA,A,3,2,7,8,17,22,194,30,14,1,,,,2.304,0.922,2.111*0D,1744081292000
NMEA,$BDGSA,A,3,240,207,245,229,210,209,235,226,206,,,,2.304,0.922,2.111*1B,1744081292000
NMEA,$GAGSA,A,3,125,127,,,,,,,,,,,2.304,0.922,2.111*2E,1744081292000
NMEA,$GPGSV,4,1,15,2,59,62,38.5,7,42,205,38.9,42,37,145,38.2,8,37,61,41.9*44,1744081292000
NMEA,$GPGSV,4,2,15,17,30,263,37.5,22,23,305,32.4,194,64,105,37.7,30,50,258,46.0*48,1744081292000
NMEA,$GPGSV,4,3,15,14,42,309,38.0,1,66,141,39.5,19,3,253,0.0,193,1,,0.0*47,1744081292000
NMEA,$GPGSV,4,4,15,195,1,,0.0,196,1,,0.0,47,1,,0.0*62,1744081292000
NMEA,$BDGSV,3,1,9,240,73,342,37.0,207,73,297,39.5,245,69,178,44.0,229,66,43,35.0*68,1744081292000
NMEA,$BDGSV,3,2,9,210,61,282,33.4,209,53,217,37.7,235,48,238,45.5,226,43,307,33.4*56,1744081292000
NMEA,$BDGSV,3,3,9,206,43,198,28.0*46,1744081292000
NMEA,$GAGSV,2,1,7,125,71,82,37.0,127,59,72,39.5,118,54,46,38.2,96,16,87,0.0*55,1744081292000
NMEA,$GAGSV,2,2,7,101,1,178,0.0,105,38,77,0.0,107,29,136,0.0*78,1744081292000
NMEA,$GPVTG,0.000,T,,M,0.000,N,0.000,K,A*0D,1744081292000
NMEA,$RD_RSSI, 495, 611, 0, 0,1744081292000
NMEA,$GPGGA,030133.000,3958.871237,N,11628.608380,E,1,20,0.922,25.358,M,0,M,,*44,1744081293000
NMEA,$GPRMC,030133.000,A,3958.871237,N,11628.608380,E,0.000,0.000,080425,,E,A*24,1744081293000
NMEA,$GPGLL,3958.871237,N,11628.608380,E,030133.000,A,A*5D,1744081293000
NMEA,$GPGSA,A,3,2,7,8,17,22,194,30,14,1,,,,2.303,0.922,2.111*0A,1744081293000
NMEA,$BDGSA,A,3,240,207,245,229,210,209,235,226,206,,,,2.303,0.922,2.111*1C,1744081293000
NMEA,$GAGSA,A,3,125,127,,,,,,,,,,,2.303,0.922,2.111*29,1744081293000
NMEA,$GPGSV,4,1,15,2,59,62,37.9,7,42,205,39.7,42,37,145,38.4,8,37,61,43.0*45,1744081293000
NMEA,$GPGSV,4,2,15,17,30,263,35.9,22,23,305,33.5,194,64,105,37.5,30,50,258,45.2*45,1744081293000
NMEA,$GPGSV,4,3,15,14,42,309,34.9,1,66,141,40.5,19,3,253,0.0,193,1,,0.0*4C,1744081293000
NMEA,$GPGSV,4,4,15,195,1,,0.0,196,1,,0.0,47,1,,0.0*62,1744081293000
NMEA,$BDGSV,3,1,9,240,73,342,36.4,207,73,297,38.9,245,69,178,43.2,229,66,43,31.5*64,1744081293000
NMEA,$BDGSV,3,2,9,210,61,282,33.7,209,53,217,37.0,235,48,238,46.0,226,43,307,32.2*53,1744081293000
NMEA,$BDGSV,3,3,9,206,43,198,28.2*44,1744081293000
NMEA,$GAGSV,2,1,7,125,71,82,38.0,127,59,71,40.7,118,54,46,39.2,96,16,87,0.0*54,1744081293000
NMEA,$GAGSV,2,2,7,101,1,178,0.0,105,38,77,0.0,107,29,136,0.0*78,1744081293000
NMEA,$GPVTG,0.000,T,,M,0.000,N,0.000,K,A*0D,1744081293000
NMEA,$RD_RSSI, 499, 591, 0, 0,1744081293000
NMEA,$GPGGA,030134.000,3958.871237,N,11628.608380,E,1,20,0.922,25.358,M,0,M,,*43,1744081294000
NMEA,$GPRMC,030134.000,A,3958.871237,N,11628.608380,E,0.000,0.000,080425,,E,A*23,1744081294000
NMEA,$GPGLL,3958.871237,N,11628.608380,E,030134.000,A,A*5A,1744081294000
NMEA,$GPGSA,A,3,2,7,8,17,22,194,30,14,1,,,,2.303,0.922,2.111*0A,1744081294000
NMEA,$BDGSA,A,3,240,207,245,229,210,209,235,226,206,,,,2.303,0.922,2.111*1C,1744081294000
NMEA,$GAGSA,A,3,125,127,,,,,,,,,,,2.303,0.922,2.111*29,1744081294000
NMEA,$GPGSV,4,1,15,2,59,62,37.9,7,42,205,40.5,42,37,145,39.0,8,37,61,43.7*4B,1744081294000
NMEA,$GPGSV,4,2,15,17,30,263,36.0,22,23,305,33.7,194,64,105,37.7,30,50,258,44.9*45,1744081294000
NMEA,$GPGSV,4,3,15,14,42,309,34.0,1,66,141,40.9,19,3,253,0.0,193,1,,0.0*49,1744081294000
NMEA,$GPGSV,4,4,15,195,1,,0.0,196,1,,0.0,47,1,,0.0*62,1744081294000
NMEA,$BDGSV,3,1,9,240,73,342,36.5,207,73,297,38.0,245,69,178,43.2,229,66,43,29.6*66,1744081294000
NMEA,$BDGSV,3,2,9,210,61,282,33.5,209,53,217,36.2,235,48,238,45.9,226,43,307,33.2*59,1744081294000
NMEA,$BDGSV,3,3,9,206,43,198,24.3*49,1744081294000
NMEA,$GAGSV,2,1,7,125,71,82,37.9,127,59,71,41.0,118,53,46,40.0,96,16,87,0.0*5F,1744081294000
NMEA,$GAGSV,2,2,7,101,1,178,0.0,105,38,77,0.0,107,29,136,0.0*78,1744081294000
NMEA,$GPVTG,0.000,T,,M,0.000,N,0.000,K,A*0D,1744081294000
NMEA,$RD_RSSI, 491, 601, 0, 0,1744081294000
NMEA,$GPGGA,030135.000,3958.871237,N,11628.608380,E,1,20,0.922,25.358,M,0,M,,*42,1744081295000
NMEA,$GPRMC,030135.000,A,3958.871237,N,11628.608380,E,0.533,0.000,080425,,E,A*27,1744081295000
NMEA,$GPGLL,3958.871237,N,11628.608380,E,030135.000,A,A*5B,1744081295000
NMEA,$GPGSA,A,3,2,7,8,17,22,194,30,14,1,,,,2.303,0.922,2.111*0A,1744081295000
