$GNGGA,030136.00,3958.87375335,N,11628.60499951,E,4,24,0.7,35.7395,M,-8.1437,M,1.0,1828*78
$GNRMC,030136.00,D,3958.87375335,N,11628.60499951,E,0.001,359.3,080425,7.2,W,R,S*5B
$GPGSV,2,1,08,01,66,141,43,02,59,062,48,08,37,061,45,10,06,035,39,1*6A
$GPGSV,2,2,08,17,30,263,27,13,06,298,25,30,50,258,45,14,41,309,28,1*63
$GPGSV,2,1,07,01,66,141,46,02,59,062,42,08,37,061,37,10,06,035,38,4*6B
$GPGSV,2,2,07,17,30,263,33,30,50,258,38,14,41,309,45,4*5D
$GPGSV,2,1,05,01,66,141,43,08,37,061,38,10,06,035,34,30,50,258,44,8*66
$GPGSV,2,2,05,14,41,309,41,8*57
$GLGSV,2,1,05,84,14,034,32,86,49,223,43,76,41,326,49,75,73,128,46,1*77
$GLGSV,2,2,05,85,66,022,44,1*40
$GLGSV,2,1,05,84,14,034,40,86,49,223,35,76,41,326,38,75,73,128,37,3*71
$GLGSV,2,2,05,85,66,022,40,3*46
$GBGSV,2,1,07,02,30,222,36,07,73,297,44,09,53,217,27,10,61,282,37,1*7F
$GBGSV,2,2,07,06,43,198,33,26,43,307,45,29,66,043,45,1*4B
$GBGSV,2,1,06,07,73,297,38,09,53,217,32,10,61,282,37,06,43,198,34,8*78
$GBGSV,2,2,06,26,43,307,40,29,66,043,39,8*7C
$GBGSV,2,1,05,02,30,222,37,07,73,297,44,09,53,217,44,10,61,282,45,B*0F
$GBGSV,2,2,05,06,43,198,43,B*36
$GAGSV,2,1,06,26,16,038,29,31,71,082,40,33,59,071,42,16,21,304,28,1*7C
$GAGSV,2,2,06,24,47,311,39,05,07,276,18,1*77
$GAGSV,2,1,06,26,16,038,35,31,71,082,45,33,59,071,46,16,21,304,34,2*7E
$GAGSV,2,2,06,24,47,311,44,05,07,276,17,2*71
$GAGSV,2,1,06,26,16,038,40,31,71,082,46,33,59,071,47,16,21,304,29,7*77
$GAGSV,2,2,06,24,47,311,43,05,07,276,12,7*76
$GNGGA,030137.00,3958.87375432,N,11628.60500156,E,4,24,0.7,35.7209,M,-8.1437,M,1.0,1828*73
$GNRMC,030137.00,D,3958.87375432,N,11628.60500156,E,0.003,343.8,080425,7.2,W,R,S*56
$GPGSV,2,1,08,01,66,141,42,02,59,062,48,08,37,061,45,10,06,035,39,1*6B
$GPGSV,2,2,08,17,30,263,26,13,06,298,25,30,50,258,45,14,41,309,29,1*63
$GPGSV,2,1,07,01,66,141,46,02,59,062,42,08,37,061,37,10,06,035,38,4*6B
$GPGSV,2,2,07,17,30,263,34,30,50,258,38,14,41,309,45,4*5A
$GPGSV,2,1,05,01,66,141,43,08,37,061,38,10,06,035,34,30,50,258,44,8*66
$GPGSV,2,2,05,14,41,309,41,8*57
$GLGSV,2,1,05,84,14,034,32,86,49,223,43,76,41,326,49,75,73,128,46,1*77
$GLGSV,2,2,05,85,66,022,44,1*40
$GLGSV,2,1,05,84,14,034,40,86,49,223,35,76,41,326,38,75,73,128,38,3*7E
$GLGSV,2,2,05,85,66,022,40,3*46
$GBGSV,2,1,07,02,30,222,36,07,73,297,44,09,53,217,28,10,61,282,37,1*70
$GBGSV,2,2,07,06,43,198,33,26,43,307,45,29,66,043,45,1*4B
$GBGSV,2,1,06,07,73,297,38,09,53,217,32,10,61,282,38,06,43,198,34,8*77
$GBGSV,2,2,06,26,43,307,40,29,66,043,39,8*7C
$GBGSV,2,1,05,02,30,222,36,07,73,297,44,09,53,217,44,10,61,282,44,B*0F
$GBGSV,2,2,05,06,43,198,43,B*36
$GAGSV,2,1,06,26,16,038,29,31,71,082,40,33,59,071,42,16,21,304,28,1*7C
$GAGSV,2,2,06,24,47,311,39,05,07,276,17,1*78
$GAGSV,2,1,06,26,16,038,35,31,71,082,45,33,59,071,46,16,21,304,34,2*7E
$GAGSV,2,2,06,24,47,311,44,05,07,276,17,2*71
$GAGSV,2,1,06,26,16,038,40,31,71,082,46,33,59,071,47,16,21,304,30,7*7F
$GAGSV,2,2,06,24,47,311,43,05,07,276,12,7*76
$GNGGA,030138.00,3958.87375385,N,11628.60499880,E,4,24,0.7,35.7366,M,-8.1437,M,1.0,1828*7C
$GNRMC,030138.00,D,3958.87375385,N,11628.60499880,E,0.002,321.3,080425,7.2,W,R,S*5F
$GPGSV,2,1,08,01,66,141,42,02,59,062,48,08,37,061,45,10,06,035,39,1*6B
$GPGSV,2,2,08,17,30,263,27,13,06,298,25,30,50,258,45,14,41,309,30,1*6A
$GPGSV,2,1,07,01,66,141,46,02,59,062,42,08,37,061,37,10,06,035,38,4*6B
$GPGSV,2,2,07,17,30,263,34,30,50,258,39,14,41,309,45,4*5B
$GPGSV,2,1,05,01,66,141,43,08,37,061,38,10,06,035,34,30,50,258,44,8*66
$GPGSV,2,2,05,14,41,309,41,8*57
$GLGSV,2,1,05,84,14,034,32,86,49,223,43,76,41,326,49,75,73,128,46,1*77
$GLGSV,2,2,05,85,66,022,44,1*40
$GLGSV,2,1,05,84,14,034,40,86,49,223,35,76,41,326,38,75,73,128,38,3*7E
$GLGSV,2,2,05,85,66,022,40,3*46
$GBGSV,2,1,07,02,30,222,36,07,73,297,44,09,53,217,28,10,61,282,37,1*70
$GBGSV,2,2,07,06,43,198,33,26,43,307,45,29,66,043,45,1*4B
$GBGSV,2,1,06,07,73,297,38,09,53,217,32,10,61,282,38,06,43,198,34,8*77
$GBGSV,2,2,06,26,43,307,40,29,66,043,39,8*7C
$GBGSV,2,1,05,02,30,222,36,07,73,297,44,09,53,217,44,10,61,282,44,B*0F
$GBGSV,2,2,05,06,43,198,44,B*31
$GAGSV,2,1,06,26,16,038,29,31,71,082,40,33,59,071,42,16,21,304,27,1*73
$GAGSV,2,2,06,24,47,311,39,05,07,276,17,1*78
$GAGSV,2,1,06,26,16,038,35,31,71,082,45,33,59,071,46,16,21,304,34,2*7E
$GAGSV,2,2,06,24,47,311,44,05,07,276,18,2*7E
$GAGSV,2,1,06,26,16,038,40,31,71,082,46,33,59,071,47,16,21,304,31,7*7E
$GAGSV,2,2,06,24,47,311,42,05,07,276,12,7*77
$GNGGA,030139.00,3958.87375360,N,11628.60500088,E,4,24,0.7,35.7206,M,-8.1437,M,1.0,1828*70
$GNRMC,030139.00,D,3958.87375360,N,11628.60500088,E,0.003,337.8,080425,7.2,W,R,S*59
$GPGSV,2,1,08,01,66,141,42,02,59,062,48,08,37,061,45,10,06,035,39,1*6B
$GPGSV,2,2,08,17,30,263,27,13,06,298,25,30,50,258,45,14,41,309,30,1*6A
$GPGSV,2,1,07,01,66,141,46,02,59,062,42,08,37,061,37,10,06,035,39,4*6A
$GPGSV,2,2,07,17,30,263,34,30,50,258,39,14,41,309,45,4*5B
$GPGSV,2,1,05,01,66,141,43,08,37,061,38,10,06,035,33,30,50,258,44,8*61
$GPGSV,2,2,05,14,41,309,41,8*57
$GLGSV,2,1,05,84,14,034,32,86,49,223,44,76,41,326,49,75,73,128,46,1*70
$GLGSV,2,2,05,85,66,022,44,1*40
$GLGSV,2,1,05,84,14,034,40,86,49,223,35,76,41,326,38,75,73,128,38,3*7E
$GLGSV,2,2,05,85,66,022,40,3*46
$GBGSV,2,1,07,02,30,222,36,07,73,297,44,09,53,217,28,10,61,282,37,1*70
$GBGSV,2,2,07,06,43,198,32,26,43,307,45,29,66,043,45,1*4A
$GBGSV,2,1,06,07,73,297,38,09,53,217,32,10,61,282,38,06,43,198,34,8*77
$GBGSV,2,2,06,26,43,307,39,29,66,043,39,8*72
$GBGSV,2,1,05,02,30,222,36,07,73,297,44,09,53,217,44,10,61,282,44,B*0F
$GBGSV,2,2,05,06,43,198,44,B*31
$GAGSV,2,1,06,26,16,038,29,31,71,082,40,33,59,071,42,16,21,304,27,1*73
$GAGSV,2,2,06,24,47,311,39,05,07,276,16,1*79
$GAGSV,2,1,06,26,16,038,35,31,71,082,45,33,59,071,46,16,21,304,34,2*7E
$GAGSV,2,2,06,24,47,311,44,05,07,276,18,2*7E
$GAGSV,2,1,06,26,16,038,40,31,71,082,46,33,59,071,47,16,21,304,31,7*7E
$GAGSV,2,2,06,24,47,311,42,05,07,276,12,7*77
$GNGGA,030140.00,3958.87375251,N,11628.60499985,E,4,24,0.7,35.7284,M,-8.1437,M,2.0,1828*71
$GNRMC,030140.00,D,3958.87375251,N,11628.60499985,E,0.003,338.3,080425,7.2,W,R,S*55
$GPGSV,2,1,08,01,66,141,42,02,59,062,48,08,37,061,45,10,06,035,39,1*6B
$GPGSV,2,2,08,17,30,263,25,13,06,298,24,30,50,258,45,14,41,309,31,1*68
$GPGSV,2,1,07,01,66,141,46,02,59,062,42,08,37,061,37,10,06,035,38,4*6B
$GPGSV,2,2,07,17,30,263,34,30,50,258,39,14,41,309,45,4*5B
$GPGSV,2,1,05,01,66,141,43,08,37,061,39,10,06,035,33,30,50,258,44,8*60
$GPGSV,2,2,05,14,41,309,41,8*57
$GLGSV,2,1,05,84,14,034,31,86,49,223,43,76,41,326,48,75,73,128,46,1*75
$GLGSV,2,2,05,85,66,022,44,1*40
$GLGSV,2,1,05,84,14,034,40,86,49,223,34,76,41,326,37,75,73,128,38,3*70
$GLGSV,2,2,05,85,66,022,40,3*46
$GBGSV,2,1,07,02,30,222,36,07,73,297,44,09,53,217,28,10,61,282,37,1*70
$GBGSV,2,2,07,06,43,198,33,26,44,307,46,29,66,043,45,1*4F
$GBGSV,2,1,06,07,73,297,38,09,53,217,32,10,61,282,38,06,43,198,34,8*77
$GBGSV,2,2,06,26,44,307,39,29,66,043,39,8*75
$GBGSV,2,1,05,02,30,222,36,07,73,297,44,09,53,217,44,10,61,282,44,B*0F
$GBGSV,2,2,05,06,43,198,44,B*31
$GAGSV,2,1,06,26,16,038,29,31,71,082,40,33,59,071,42,16,21,304,27,1*73
$GAGSV,2,2,06,24,47,311,39,05,07,276,16,1*79
$GAGSV,2,1,06,26,16,038,35,31,71,082,45,33,59,071,46,16,21,304,34,2*7E
$GAGSV,2,2,06,24,47,311,44,05,07,276,17,2*71
$GAGSV,2,1,06,26,16,038,40,31,71,082,46,33,59,071,47,16,21,304,32,7*7D
$GAGSV,2,2,06,24,47,311,42,05,07,276,13,7*76
$GNGGA,030141.00,3958.87375309,N,11628.60500065,E,4,24,0.7,35.7254,M,-8.1437,M,1.0,1828*74
$GNRMC,030141.00,D,3958.87375309,N,11628.60500065,E,0.002,337.6,080425,7.2,W,R,S*55
$GPGSV,2,1,07,01,66,141,42,02,59,062,48,08,37,061,45,10,06,035,39,1*64
$GPGSV,2,2,07,13,06,298,25,30,50,258,44,14,41,309,29,1*5B
$GPGSV,2,1,07,01,66,141,46,02,59,062,42,08,37,061,37,10,06,035,38,4*6B
$GPGSV,2,2,07,17,30,263,34,30,50,258,39,14,41,309,45,4*5B
$GPGSV,2,1,05,01,66,141,43,08,37,061,39,10,06,035,33,30,50,258,44,8*60
$GPGSV,2,2,05,14,41,309,41,8*57
$GLGSV,2,1,05,84,14,034,32,86,49,223,43,76,41,326,48,75,73,128,46,1*76
$GLGSV,2,2,05,85,66,022,45,1*41
$GLGSV,2,1,05,84,14,034,40,86,49,223,34,76,41,326,37,75,73,128,38,3*70
$GLGSV,2,2,05,85,66,022,40,3*46
$GBGSV,2,1,07,02,30,222,36,07,73,297,44,09,53,217,29,10,61,282,37,1*71
$GBGSV,2,2,07,06,43,198,33,26,44,307,46,29,66,043,45,1*4F
$GBGSV,2,1,06,07,73,297,38,09,53,217,32,10,61,282,38,06,43,198,34,8*77
$GBGSV,2,2,06,26,44,307,39,29,66,043,39,8*75
$GBGSV,2,1,05,02,30,222,37,07,73,297,44,09,53,217,44,10,61,282,45,B*0F
$GBGSV,2,2,05,06,43,198,44,B*31
$GAGSV,2,1,06,26,16,038,29,31,71,082,40,33,59,071,42,16,21,304,27,1*73
$GAGSV,2,2,06,24,47,311,39,05,07,276,16,1*79
$GAGSV,2,1,06,26,16,038,35,31,71,082,45,33,59,071,46,16,21,304,34,2*7E
$GAGSV,2,2,06,24,47,311,44,05,07,276,16,2*70
$GAGSV,2,1,06,26,16,038,40,31,71,082,46,33,59,071,47,16,21,304,32,7*7D
$GAGSV,2,2,06,24,47,311,42,05,07,276,13,7*76
$GNGGA,030142.00,3958.87375505,N,11628.60500003,E,4,24,0.7,35.7250,M,-8.1437,M,2.0,1828*7A
$GNRMC,030142.00,D,3958.87375505,N,11628.60500003,E,0.002,322.6,080425,7.2,W,R,S*58
$GPGSV,2,1,08,01,66,141,43,02,59,062,48,08,37,061,45,10,06,035,39,1*6A
$GPGSV,2,2,08,17,30,263,23,13,06,298,25,30,50,258,45,14,41,309,30,1*6E
$GPGSV,2,1,07,01,66,141,46,02,59,062,42,08,37,061,37,10,06,035,38,4*6B
$GPGSV,2,2,07,17,30,263,33,30,50,258,38,14,41,309,45,4*5D
$GPGSV,2,1,05,01,66,141,43,08,37,061,38,10,06,035,34,30,50,258,44,8*66
$GPGSV,2,2,05,14,41,309,41,8*57
$GLGSV,2,1,05,84,14,034,32,86,49,223,43,76,41,326,48,75,73,128,46,1*76
$GLGSV,2,2,05,85,66,022,45,1*41
$GLGSV,2,1,05,84,14,034,39,86,49,223,35,76,41,326,36,75,73,128,38,3*7E
$GLGSV,2,2,05,85,66,022,40,3*46
$GBGSV,2,1,07,02,30,222,36,07,73,297,44,09,53,217,29,10,61,282,37,1*71
$GBGSV,2,2,07,06,43,198,33,26,44,307,45,29,66,043,45,1*4C
$GBGSV,2,1,06,07,73,297,38,09,53,217,32,10,61,282,37,06,43,198,34,8*78
$GBGSV,2,2,06,26,44,307,39,29,66,043,39,8*75
$GBGSV,2,1,05,02,30,222,37,07,73,297,44,09,53,217,44,10,61,282,45,B*0F
$GBGSV,2,2,05,06,43,198,44,B*31
$GAGSV,2,1,06,26,16,038,29,31,71,082,40,33,59,071,42,16,21,304,27,1*73
$GAGSV,2,2,06,24,47,311,39,05,07,276,15,1*7A
$GAGSV,2,1,06,26,16,038,35,31,71,082,45,33,59,071,46,16,21,304,34,2*7E
$GAGSV,2,2,06,24,47,311,44,05,07,276,15,2*73
$GAGSV,2,1,06,26,16,038,40,31,71,082,46,33,59,071,47,16,21,304,31,7*7E
$GAGSV,2,2,06,24,47,311,41,05,07,276,11,7*77
$GNGGA,030143.00,3958.87375351,N,11628.60499942,E,4,24,0.7,35.7268,M,-8.1437,M,1.0,1828*79
$GNRMC,030143.00,D,3958.87375351,N,11628.60499942,E,0.002,326.0,080425,7.2,W,R,S*51
$GPGSV,2,1,08,01,66,141,43,02,59,062,48,08,37,061,45,10,06,035,39,1*6A
$GPGSV,2,2,08,17,30,263,28,13,06,298,25,30,50,258,44,14,41,309,30,1*64
$GPGSV,2,1,07,01,66,141,46,02,59,062,42,08,37,061,37,10,06,035,38,4*6B
$GPGSV,2,2,07,17,30,263,33,30,50,258,39,14,41,309,45,4*5C
$GPGSV,2,1,05,01,66,141,43,08,37,061,38,10,06,035,33,30,50,258,44,8*61
$GPGSV,2,2,05,14,41,309,41,8*57
$GLGSV,2,1,05,84,14,034,31,86,49,223,42,76,41,326,48,75,73,128,46,1*74
$GLGSV,2,2,05,85,66,022,45,1*41
$GLGSV,2,1,05,84,14,034,40,86,49,223,35,76,41,326,36,75,73,128,38,3*70
$GLGSV,2,2,05,85,66,022,41,3*47
$GBGSV,2,1,07,02,30,222,36,07,73,297,44,09,53,217,29,10,61,282,37,1*71
$GBGSV,2,2,07,06,43,198,33,26,44,307,45,29,66,043,45,1*4C
$GBGSV,2,1,06,07,73,297,38,09,53,217,32,10,61,282,37,06,43,198,34,8*78
$GBGSV,2,2,06,26,44,307,39,29,66,043,39,8*75
$GBGSV,2,1,05,02,30,222,37,07,73,297,44,09,53,217,44,10,61,282,45,B*0F
$GBGSV,2,2,05,06,43,198,44,B*31
$GAGSV,2,1,06,26,16,038,29,31,71,082,40,33,59,071,42,16,21,304,27,1*73
$GAGSV,2,2,06,24,47,311,39,05,07,276,14,1*7B
$GAGSV,2,1,06,26,16,038,35,31,71,082,45,33,59,071,46,16,21,304,35,2*7F
$GAGSV,2,2,06,24,47,311,44,05,07,276,14,2*72
$GAGSV,2,1,06,26,16,038,40,31,71,082,46,33,59,071,47,16,21,304,30,7*7F
$GAGSV,2,2,06,24,47,311,41,05,07,276,10,7*76
$GNGGA,030144.00,3958.87375380,N,11628.60499942,E,4,24,0.7,35.7289,M,-8.1437,M,1.0,1828*7D
$GNRMC,030144.00,D,3958.87375380,N,11628.60499942,E,0.001,348.6,080425,7.2,W,R,S*57
$GPGSV,2,1,08,01,66,141,43,02,59,062,48,08,37,061,45,10,06,035,39,1*6A
$GPGSV,2,2,08,17,30,263,28,13,06,298,23,30,50,258,44,14,42,309,30,1*61
$GPGSV,2,1,07,01,66,141,46,02,59,062,42,08,37,061,37,10,06,035,38,4*6B
$GPGSV,2,2,07,17,30,263,33,30,50,258,39,14,42,309,45,4*5F
$GPGSV,2,1,05,01,66,141,43,08,37,061,38,10,06,035,33,30,50,258,44,8*61
$GPGSV,2,2,05,14,42,309,42,8*57
$GLGSV,2,1,05,84,14,034,31,86,49,223,43,76,41,326,48,75,73,128,46,1*75
$GLGSV,2,2,05,85,66,022,44,1*40
$GLGSV,2,1,05,84,14,034,40,86,49,223,35,76,41,326,36,75,73,128,38,3*70
$GLGSV,2,2,05,85,66,022,41,3*47
$GBGSV,2,1,07,02,30,222,35,07,73,297,44,09,53,217,29,10,61,282,37,1*72
$GBGSV,2,2,07,06,43,198,33,26,44,307,45,29,66,043,45,1*4C
$GBGSV,2,1,06,07,73,297,38,09,53,217,32,10,61,282,37,06,43,198,34,8*78
$GBGSV,2,2,06,26,44,307,39,29,66,043,39,8*75
$GBGSV,2,1,05,02,30,222,37,07,73,297,44,09,53,217,44,10,61,282,45,B*0F
$GBGSV,2,2,05,06,43,198,44,B*31
$GAGSV,2,1,06,26,16,038,29,31,71,082,40,33,59,071,42,16,21,304,27,1*73
$GAGSV,2,2,06,24,47,311,39,05,07,276,14,1*7B
$GAGSV,2,1,06,26,16,038,35,31,71,082,45,33,59,071,46,16,21,304,35,2*7F
$GAGSV,2,2,06,24,47,311,44,05,07,276,13,2*75
$GAGSV,2,1,05,26,16,038,40,31,71,082,46,33,59,071,47,16,21,304,31,7*7D
$GAGSV,2,2,05,24,47,311,41,7*45
$GNGGA,030145.00,3958.87375311,N,11628.60500114,E,4,24,0.7,35.7267,M,-8.1437,M,1.0,1828*7E
$GNRMC,030145.00,D,3958.87375311,N,11628.60500114,E,0.001,27.6,080425,7.2,W,R,S*6E
$GPGSV,2,1,08,01,66,141,43,02,59,062,49,08,37,061,45,10,06,035,39,1*6B
$GPGSV,2,2,08,17,30,263,28,13,06,298,21,30,50,257,44,14,42,309,31,1*6D
$GPGSV,2,1,07,01,66,141,46,02,59,062,42,08,37,061,37,10,06,035,38,4*6B
$GPGSV,2,2,07,17,30,263,33,30,50,257,39,14,42,309,45,4*50
$GPGSV,2,1,05,01,66,141,43,08,37,061,38,10,06,035,33,30,50,257,44,8*6E
$GPGSV,2,2,05,14,42,309,41,8*54
$GLGSV,2,1,05,84,14,034,31,86,49,223,43,76,41,326,48,75,73,128,46,1*75
$GLGSV,2,2,05,85,66,022,44,1*40
$GLGSV,2,1,05,84,14,034,40,86,49,223,35,76,41,326,36,75,73,128,38,3*70
$GLGSV,2,2,05,85,66,022,41,3*47
$GBGSV,2,1,07,02,30,222,35,07,73,297,44,09,53,217,28,10,61,282,37,1*73
$GBGSV,2,2,07,06,43,198,33,26,44,307,45,29,66,043,45,1*4C
$GBGSV,2,1,06,07,73,297,38,09,53,217,32,10,61,282,37,06,43,198,34,8*78
$GBGSV,2,2,06,26,44,307,39,29,66,043,39,8*75
$GBGSV,2,1,05,02,30,222,37,07,73,297,44,09,53,217,44,10,61,282,45,B*0F
$GBGSV,2,2,05,06,43,198,44,B*31
$GAGSV,2,1,06,26,16,038,28,31,71,082,40,33,59,071,42,16,21,304,27,1*72
$GAGSV,2,2,06,24,47,311,39,05,07,276,14,1*7B
$GAGSV,2,1,06,26,16,038,35,31,71,082,45,33,59,071,46,16,21,304,35,2*7F
$GAGSV,2,2,06,24,47,311,44,05,07,276,13,2*75
$GAGSV,2,1,05,26,16,038,40,31,71,082,46,33,59,071,47,16,21,304,31,7*7D
$GAGSV,2,2,05,24,47,311,41,7*45
$GNGGA,030146.00,3958.87375421,N,11628.60499989,E,4,24,0.7,35.7110,M,-8.1437,M,1.0,1828*77
$GNRMC,030146.00,D,3958.87375421,N,11628.60499989,E,0.001,50.7,080425,7.2,W,R,S*65
$GPGSV,2,1,08,01,66,141,43,02,59,062,49,08,37,061,46,10,06,035,39,1*68
$GPGSV,2,2,08,17,30,263,30,13,06,298,21,30,50,257,44,14,42,309,30,1*65
$GPGSV,2,1,07,01,66,141,46,02,59,062,42,08,37,061,37,10,06,035,38,4*6B
$GPGSV,2,2,07,17,30,263,33,30,50,257,39,14,42,309,46,4*53
$GPGSV,2,1,05,01,66,141,43,08,37,061,38,10,06,035,33,30,50,257,44,8*6E
$GPGSV,2,2,05,14,42,309,41,8*54
$GLGSV,2,1,05,84,14,034,31,86,49,223,43,76,41,326,48,75,73,128,46,1*75
$GLGSV,2,2,05,85,66,022,44,1*40
$GLGSV,2,1,05,84,14,034,40,86,49,223,35,76,41,326,37,75,73,128,39,3*70
$GLGSV,2,2,05,85,66,022,41,3*47
$GBGSV,2,1,07,02,30,222,36,07,73,297,44,09,53,217,28,10,61,282,37,1*70
$GBGSV,2,2,07,06,43,198,33,26,44,307,45,29,66,043,45,1*4C
$GBGSV,2,1,06,07,73,297,38,09,53,217,32,10,61,282,37,06,43,198,34,8*78
$GBGSV,2,2,06,26,44,307,39,29,66,043,39,8*75
$GBGSV,2,1,05,02,30,222,36,07,73,297,44,09,53,217,44,10,61,282,45,B*0E
$GBGSV,2,2,05,06,43,198,44,B*31
$GAGSV,2,1,06,26,16,038,29,31,71,082,40,33,59,071,42,16,21,304,27,1*73
$GAGSV,2,2,06,24,47,311,39,05,07,276,13,1*7C
$GAGSV,2,1,06,26,16,038,35,31,71,082,46,33,59,071,47,16,21,304,35,2*7D
$GAGSV,2,2,06,24,47,311,44,05,07,276,13,2*75
$GAGSV,2,1,05,26,16,038,40,31,71,082,46,33,59,071,47,16,21,304,32,7*7E
$GAGSV,2,2,05,24,47,311,40,7*44
$GNGGA,030147.00,3958.87375089,N,11628.60500185,E,4,24,0.7,35.7223,M,-8.1437,M,1.0,1828*76
$GNRMC,030147.00,D,3958.87375089,N,11628.60500185,E,0.002,26.2,080425,7.2,W,R,S*60
$GPGSV,2,1,08,01,66,141,43,02,59,062,48,08,37,061,45,10,06,035,39,1*6A
$GPGSV,2,2,08,17,30,263,29,13,06,298,20,30,50,257,44,14,42,309,31,1*6D
$GPGSV,2,1,07,01,66,141,46,02,59,062,42,08,37,061,38,10,06,035,38,4*64
$GPGSV,2,2,07,17,30,263,33,30,50,257,39,14,42,309,46,4*53
$GPGSV,2,1,05,01,66,141,43,08,37,061,38,10,06,035,33,30,50,257,44,8*6E
$GPGSV,2,2,05,14,42,309,41,8*54
$GLGSV,2,1,05,84,14,034,31,86,49,223,44,76,41,326,47,75,73,128,46,1*7D
$GLGSV,2,2,05,85,66,022,44,1*40
$GLGSV,2,1,05,84,14,034,40,86,49,223,35,76,41,326,37,75,73,128,39,3*70
$GLGSV,2,2,05,85,66,022,41,3*47
$GBGSV,2,1,07,02,30,222,35,07,73,297,44,09,53,217,29,10,61,282,38,1*7D
$GBGSV,2,2,07,06,43,198,33,26,44,307,44,29,66,043,45,1*4D
$GBGSV,2,1,06,07,73,297,38,09,53,217,32,10,61,282,38,06,43,198,34,8*77
$GBGSV,2,2,06,26,44,307,39,29,66,043,39,8*75
$GBGSV,2,1,05,02,30,222,36,07,73,297,44,09,53,217,44,10,61,282,45,B*0E
$GBGSV,2,2,05,06,43,198,43,B*36
$GAGSV,2,1,06,26,16,038,28,31,71,082,40,33,59,071,41,16,21,304,28,1*7E
$GAGSV,2,2,06,24,47,311,39,05,07,276,14,1*7B
$GAGSV,2,1,06,26,16,038,35,31,71,082,45,33,59,071,47,16,21,304,35,2*7E
$GAGSV,2,2,06,24,47,311,44,05,07,276,12,2*74
$GAGSV,2,1,05,26,16,038,40,31,71,082,46,33,59,071,47,16,21,304,32,7*7E
$GAGSV,2,2,05,24,47,311,40,7*44
$GNGGA,030148.00,3958.87375192,N,11628.60499894,E,4,24,0.7,35.7274,M,-8.1437,M,1.0,1828*78
$GNRMC,030148.00,D,3958.87375192,N,11628.60499894,E,0.003,21.1,080425,7.2,W,R,S*69
$GPGSV,2,1,08,01,66,141,43,02,59,062,48,08,37,061,46,10,06,035,39,1*69
$GPGSV,2,2,08,17,30,263,29,13,06,298,19,30,50,257,44,14,42,309,33,1*65
$GPGSV,2,1,07,01,66,141,46,02,59,062,42,08,37,061,37,10,06,035,38,4*6B
$GPGSV,2,2,07,17,30,263,33,30,50,257,39,14,42,309,46,4*53
$GPGSV,2,1,05,01,66,141,43,08,37,061,38,10,06,035,33,30,50,257,44,8*6E
$GPGSV,2,2,05,14,42,309,42,8*57
$GLGSV,2,1,05,84,14,034,31,86,49,223,43,76,41,326,47,75,73,128,46,1*7A
$GLGSV,2,2,05,85,66,022,44,1*40
$GLGSV,2,1,05,84,14,034,40,86,49,223,35,76,41,326,37,75,73,128,39,3*70
$GLGSV,2,2,05,85,66,022,41,3*47
$GBGSV,2,1,07,02,30,222,35,07,73,297,44,09,53,217,28,10,61,282,38,1*7C
$GBGSV,2,2,07,06,43,198,33,26,44,306,44,29,66,043,45,1*4C
$GBGSV,2,1,06,07,73,297,38,09,53,217,32,10,61,282,38,06,43,198,34,8*77
$GBGSV,2,2,06,26,44,306,39,29,66,043,39,8*74
$GBGSV,2,1,05,02,30,222,36,07,73,297,44,09,53,217,44,10,61,282,45,B*0E
$GBGSV,2,2,05,06,43,198,43,B*36
$GAGSV,2,1,06,26,16,038,29,31,71,082,40,33,59,071,42,16,21,304,27,1*73
$GAGSV,2,2,06,24,47,311,39,05,07,276,16,1*79
$GAGSV,2,1,06,26,16,038,35,31,71,082,45,33,59,071,47,16,21,304,35,2*7E
$GAGSV,2,2,06,24,47,311,44,05,07,276,14,2*72
$GAGSV,2,1,05,26,16,038,40,31,71,082,46,33,59,071,47,16,21,304,32,7*7E
$GAGSV,2,2,05,24,47,311,40,7*44
$GNGGA,030149.00,3958.87375075,N,11628.60500044,E,4,24,0.7,35.7203,M,-8.1437,M,1.0,1828*75
$GNRMC,030149.00,D,3958.87375075,N,11628.60500044,E,0.003,11.4,080425,7.2,W,R,S*62
$GPGSV,2,1,08,01,66,141,42,02,59,062,48,08,37,061,46,10,06,035,38,1*69
$GPGSV,2,2,08,17,30,263,29,13,06,298,18,30,50,257,44,14,42,309,34,1*63
$GPGSV,2,1,07,01,66,141,46,02,59,062,42,08,37,061,37,10,06,035,38,4*6B
$GPGSV,2,2,07,17,30,263,33,30,50,257,39,14,42,309,46,4*53
$GPGSV,2,1,05,01,66,141,43,08,37,061,38,10,06,035,33,30,50,257,44,8*6E
$GPGSV,2,2,05,14,42,309,41,8*54
$GLGSV,2,1,05,84,14,034,31,86,49,223,43,76,41,326,47,75,73,128,46,1*7A
$GLGSV,2,2,05,85,66,022,45,1*41
$GLGSV,2,1,05,84,14,034,40,86,49,223,35,76,41,326,36,75,73,128,39,3*71
$GLGSV,2,2,05,85,66,022,41,3*47
$GBGSV,2,1,07,02,30,222,35,07,73,297,43,09,53,217,27,10,61,282,37,1*7B
$GBGSV,2,2,07,06,43,198,33,26,44,306,44,29,66,043,45,1*4C
$GBGSV,2,1,06,07,73,297,38,09,53,217,32,10,61,282,38,06,43,198,34,8*77
$GBGSV,2,2,06,26,44,306,39,29,66,043,39,8*74
$GBGSV,2,1,05,02,30,222,36,07,73,297,44,09,53,217,44,10,61,282,45,B*0E
$GBGSV,2,2,05,06,43,198,43,B*36
$GAGSV,2,1,06,26,16,038,28,31,71,082,40,33,59,071,41,16,21,304,27,1*71
$GAGSV,2,2,06,24,47,311,39,05,07,276,19,1*76
$GAGSV,2,1,06,26,16,038,35,31,71,082,45,33,59,071,47,16,21,304,35,2*7E
$GAGSV,2,2,06,24,47,311,44,05,07,276,15,2*73
$GAGSV,2,1,05,26,16,038,40,31,71,082,46,33,59,071,47,16,21,304,31,7*7D
$GAGSV,2,2,05,24,47,311,40,7*44
$GNGGA,030150.00,3958.87374988,N,11628.60500058,E,4,24,0.7,35.7214,M,-8.1437,M,2.0,1828*7F
$GNRMC,030150.00,D,3958.87374988,N,11628.60500058,E,0.001,11.7,080425,7.2,W,R,S*6C
$GPGSV,2,1,08,01,66,141,43,02,59,062,48,08,37,061,46,10,06,035,39,1*69
$GPGSV,2,2,08,17,30,263,31,13,06,298,17,30,50,257,44,14,42,309,35,1*64
$GPGSV,2,1,07,01,66,141,46,02,59,062,42,08,37,061,37,10,06,035,38,4*6B
$GPGSV,2,2,07,17,30,263,33,30,50,257,40,14,42,309,46,4*5D
$GPGSV,2,1,05,01,66,141,43,08,37,061,38,10,06,035,33,30,50,257,44,8*6E
$GPGSV,2,2,05,14,42,309,41,8*54
$GLGSV,2,1,05,84,14,034,31,86,49,223,43,76,41,326,47,75,73,128,46,1*7A
$GLGSV,2,2,05,85,66,022,45,1*41
$GLGSV,2,1,05,84,14,034,40,86,49,223,36,76,41,326,37,75,73,128,39,3*73
$GLGSV,2,2,05,85,66,022,41,3*47
$GBGSV,2,1,07,02,30,222,36,07,73,297,43,09,53,217,27,10,61,282,37,1*78
$GBGSV,2,2,07,06,43,199,32,26,44,306,44,29,66,043,45,1*4C
$GBGSV,2,1,06,07,73,297,38,09,53,217,32,10,61,282,38,06,43,199,34,8*76
$GBGSV,2,2,06,26,44,306,39,29,66,043,39,8*74
$GBGSV,2,1,05,02,30,222,35,07,73,297,44,09,53,217,44,10,61,282,45,B*0D
$GBGSV,2,2,05,06,43,199,43,B*37
$GAGSV,2,1,06,26,16,038,28,31,71,082,40,33,59,071,42,16,21,304,27,1*72
$GAGSV,2,2,06,24,47,311,39,05,07,276,20,1*7C
$GAGSV,2,1,06,26,16,038,36,31,71,082,46,33,59,071,47,16,21,304,35,2*7E
$GAGSV,2,2,06,24,47,311,44,05,07,276,16,2*70
$GAGSV,2,1,05,26,16,038,40,31,71,082,46,33,59,071,47,16,21,304,31,7*7D
$GAGSV,2,2,05,24,47,311,40,7*44
$GNGGA,030151.00,3958.87374971,N,11628.60499669,E,4,24,0.7,35.7247,M,-8.1437,M,2.0,1828*7B
$GNRMC,030151.00,D,3958.87374971,N,11628.60499669,E,0.001,311.2,080425,7.2,W,R,S*58
$GPGSV,2,1,08,01,66,141,43,02,59,062,49,08,37,061,46,10,06,035,38,1*69
$GPGSV,2,2,08,17,30,263,32,13,06,298,16,30,50,257,44,14,42,309,36,1*65
$GPGSV,2,1,07,01,66,141,46,02,59,062,42,08,37,061,38,10,06,035,38,4*64
$GPGSV,2,2,07,17,30,263,32,30,50,257,39,14,42,309,45,4*51
$GPGSV,2,1,05,01,66,141,43,08,37,061,38,10,06,035,33,30,50,257,43,8*69
$GPGSV,2,2,05,14,42,309,41,8*54
$GLGSV,2,1,05,84,14,034,31,86,49,223,43,76,41,326,47,75,73,128,47,1*7B
$GLGSV,2,2,05,85,66,022,45,1*41
$GLGSV,2,1,05,84,14,034,40,86,49,223,35,76,41,326,37,75,73,128,39,3*70
$GLGSV,2,2,05,85,66,022,41,3*47
$GBGSV,2,1,07,02,30,222,36,07,73,297,44,09,53,217,27,10,61,282,38,1*70
$GBGSV,2,2,07,06,43,199,32,26,44,306,43,29,66,043,45,1*4B
$GBGSV,2,1,06,07,73,297,38,09,53,217,32,10,61,282,38,06,43,199,34,8*76
$GBGSV,2,2,06,26,44,306,39,29,66,043,39,8*74
$GBGSV,2,1,05,02,30,222,35,07,73,297,44,09,53,217,44,10,61,282,45,B*0D
$GBGSV,2,2,05,06,43,199,44,B*30
$GAGSV,2,1,06,26,16,038,28,31,71,082,40,33,59,071,42,16,21,304,27,1*72
$GAGSV,2,2,06,24,47,311,39,05,07,276,21,1*7D
$GAGSV,2,1,06,26,16,038,36,31,71,082,45,33,59,071,47,16,21,304,35,2*7D
$GAGSV,2,2,06,24,47,311,44,05,07,276,17,2*71
$GAGSV,2,1,05,26,16,038,40,31,71,082,46,33,59,071,47,16,21,304,31,7*7D
$GAGSV,2,2,05,24,47,311,40,7*44
$GNGGA,030152.00,3958.87375066,N,11628.60500037,E,4,24,0.7,35.7179,M,-8.1437,M,1.0,1828*77
$GNRMC,030152.00,D,3958.87375066,N,11628.60500037,E,0.001,355.5,080425,7.2,W,R,S*5E
$GPGSV,2,1,08,01,66,141,42,02,59,062,48,08,37,061,46,10,06,035,38,1*69
$GPGSV,2,2,08,17,30,263,32,13,06,298,15,30,50,257,44,14,42,309,35,1*65
$GPGSV,2,1,07,01,66,141,46,02,59,062,43,08,37,061,38,10,06,035,38,4*65
$GPGSV,2,2,07,17,30,263,32,30,50,257,40,14,42,309,45,4*5F
$GPGSV,2,1,05,01,66,141,43,08,37,061,38,10,06,035,33,30,50,257,44,8*6E
$GPGSV,2,2,05,14,42,309,41,8*54
$GLGSV,2,1,05,84,14,034,30,86,49,223,43,76,41,326,47,75,73,128,47,1*7A
$GLGSV,2,2,05,85,66,022,45,1*41
$GLGSV,2,1,05,84,14,034,40,86,49,223,36,76,41,326,37,75,73,128,39,3*73
$GLGSV,2,2,05,85,66,022,41,3*47
$GBGSV,2,1,07,02,30,222,36,07,73,297,44,09,53,217,27,10,61,282,38,1*70
$GBGSV,2,2,07,06,43,199,32,26,44,306,43,29,66,043,45,1*4B
$GBGSV,2,1,06,07,73,297,38,09,53,217,32,10,61,282,38,06,43,199,34,8*76
$GBGSV,2,2,06,26,44,306,39,29,66,043,39,8*74
$GBGSV,2,1,05,02,30,222,35,07,73,297,45,09,53,217,44,10,61,282,45,B*0C
$GBGSV,2,2,05,06,43,199,44,B*30
$GAGSV,2,1,06,26,16,038,28,31,71,082,40,33,59,071,42,16,21,304,27,1*72
$GAGSV,2,2,06,24,47,311,39,05,07,276,21,1*7D
$GAGSV,2,1,06,26,16,038,36,31,71,082,45,33,59,071,47,16,21,304,35,2*7D
$GAGSV,2,2,06,24,47,311,44,05,07,276,17,2*71
$GAGSV,2,1,05,26,16,038,40,31,71,082,46,33,59,071,47,16,21,304,30,7*7C
$GAGSV,2,2,05,24,47,311,40,7*44
$GNGGA,030153.00,3958.87374899,N,11628.60500158,E,4,24,0.7,35.7192,M,-8.1437,M,1.0,1828*72
$GNRMC,030153.00,D,3958.87374899,N,11628.60500158,E,0.002,331.9,080425,7.2,W,R,S*53
$GPGSV,2,1,08,01,66,141,43,02,59,062,49,08,37,061,46,10,06,035,39,1*68
$GPGSV,2,2,08,17,30,263,33,13,06,298,16,30,50,257,44,14,42,309,35,1*67
$GPGSV,2,1,07,01,66,141,46,02,59,062,43,08,37,061,38,10,06,035,38,4*65
$GPGSV,2,2,07,17,30,263,31,30,50,257,40,14,42,309,45,4*5C
$GPGSV,2,1,05,01,66,141,43,08,37,061,38,10,06,035,33,30,50,257,44,8*6E
$GPGSV,2,2,05,14,42,309,41,8*54
$GLGSV,2,1,05,84,14,034,30,86,49,223,43,76,41,326,47,75,73,128,47,1*7A
$GLGSV,2,2,05,85,66,022,45,1*41
$GLGSV,2,1,05,84,14,034,40,86,49,223,35,76,41,326,37,75,73,128,39,3*70
$GLGSV,2,2,05,85,66,022,41,3*47
$GBGSV,2,1,07,02,30,222,36,07,73,297,44,09,53,217,27,10,61,282,38,1*70
$GBGSV,2,2,07,06,43,199,32,26,44,306,43,29,66,043,45,1*4B
$GBGSV,2,1,06,07,73,297,38,09,53,217,33,10,61,282,38,06,43,199,34,8*77
$GBGSV,2,2,06,26,44,306,39,29,66,043,39,8*74
$GBGSV,2,1,05,02,30,222,35,07,73,297,45,09,53,217,44,10,61,282,45,B*0C
$GBGSV,2,2,05,06,43,199,44,B*30
$GAGSV,2,1,06,26,16,038,28,31,71,082,40,33,59,071,42,16,21,304,27,1*72
$GAGSV,2,2,06,24,47,311,39,05,07,276,22,1*7E
$GAGSV,2,1,06,26,16,038,36,31,71,082,46,33,59,071,47,16,21,304,35,2*7E
$GAGSV,2,2,06,24,47,311,44,05,07,276,17,2*71
$GAGSV,2,1,05,26,16,038,40,31,71,082,46,33,59,071,47,16,21,304,31,7*7D
$GAGSV,2,2,05,24,47,311,40,7*44
$GNGGA,030154.00,3958.87374972,N,11628.60500107,E,4,24,0.7,35.7194,M,-8.1437,M,1.0,1828*7D
$GNRMC,030154.00,D,3958.87374972,N,11628.60500107,E,0.002,320.3,080425,7.2,W,R,S*50
$GPGSV,2,1,08,01,66,141,43,02,59,062,49,08,37,061,47,10,06,035,38,1*68
$GPGSV,2,2,08,17,30,263,34,13,06,298,16,30,50,257,44,14,42,309,36,1*63
$GPGSV,2,1,07,01,66,141,46,02,59,062,43,08,37,061,38,10,06,035,38,4*65
$GPGSV,2,2,07,17,30,263,32,30,50,257,40,14,42,309,45,4*5F
$GPGSV,2,1,05,01,66,141,43,08,37,061,38,10,06,035,33,30,50,257,44,8*6E
$GPGSV,2,2,05,14,42,309,41,8*54
$GLGSV,2,1,05,84,14,034,30,86,49,223,43,76,41,326,47,75,73,128,47,1*7A
$GLGSV,2,2,05,85,66,022,45,1*41
$GLGSV,2,1,05,84,14,034,40,86,49,223,36,76,41,326,37,75,73,128,39,3*73
$GLGSV,2,2,05,85,66,022,41,3*47
$GBGSV,2,1,07,02,30,222,36,07,73,297,44,09,53,217,29,10,61,282,39,1*7F
$GBGSV,2,2,07,06,43,199,33,26,44,306,43,29,66,043,45,1*4A
$GBGSV,2,1,06,07,73,297,38,09,53,217,33,10,61,282,38,06,43,199,34,8*77
$GBGSV,2,2,06,26,44,306,39,29,66,043,39,8*74
$GBGSV,2,1,05,02,30,222,35,07,73,297,44,09,53,217,44,10,61,282,45,B*0D
$GBGSV,2,2,05,06,43,199,44,B*30
$GAGSV,2,1,06,26,16,038,28,31,71,082,40,33,59,071,42,16,21,304,27,1*72
$GAGSV,2,2,06,24,47,311,39,05,07,276,22,1*7E
$GAGSV,2,1,06,26,16,038,36,31,71,082,45,33,59,071,47,16,21,304,35,2*7D
$GAGSV,2,2,06,24,47,311,44,05,07,276,16,2*70
$GAGSV,2,1,05,26,16,038,40,31,71,082,46,33,59,071,47,16,21,304,31,7*7D
$GAGSV,2,2,05,24,47,311,40,7*44
$GNGGA,030155.00,3958.87374758,N,11628.60500265,E,4,24,0.7,35.7214,M,-8.1437,M,1.0,1828*76
$GNRMC,030155.00,D,3958.87374758,N,11628.60500265,E,0.003,333.6,080425,7.2,W,R,S*56
$GPGSV,2,1,08,01,66,141,42,02,59,062,49,08,37,061,47,10,06,035,39,1*68
$GPGSV,2,2,08,17,30,263,34,13,06,298,17,30,50,257,43,14,42,309,38,1*6B
$GPGSV,2,1,07,01,66,141,46,02,59,062,43,08,37,061,38,10,06,035,38,4*65
$GPGSV,2,2,07,17,30,263,31,30,50,257,40,14,42,309,45,4*5C
$GPGSV,2,1,05,01,66,141,43,08,37,061,38,10,06,035,33,30,50,257,43,8*69
$GPGSV,2,2,05,14,42,309,41,8*54
$GLGSV,2,1,05,84,14,034,31,86,49,223,43,76,41,326,46,75,73,128,47,1*7A
$GLGSV,2,2,05,85,66,022,45,1*41
$GLGSV,2,1,05,84,14,034,39,86,49,223,36,76,41,326,37,75,73,128,39,3*7D
$GLGSV,2,2,05,85,66,022,41,3*47
$GBGSV,2,1,07,02,30,222,36,07,73,297,44,09,53,217,29,10,61,282,38,1*7E
$GBGSV,2,2,07,06,43,199,34,26,44,306,42,29,66,043,45,1*4C
$GBGSV,2,1,06,07,73,297,38,09,53,217,32,10,61,282,38,06,43,199,34,8*76
$GBGSV,2,2,06,26,44,306,39,29,66,043,39,8*74
$GBGSV,2,1,05,02,30,222,35,07,73,297,44,09,53,217,44,10,61,282,45,B*0D
$GBGSV,2,2,05,06,43,199,44,B*30
$GAGSV,2,1,06,26,16,038,28,31,71,082,40,33,59,071,42,16,21,304,27,1*72
$GAGSV,2,2,06,24,47,311,39,05,07,276,22,1*7E
$GAGSV,2,1,06,26,16,038,35,31,71,082,45,33,59,071,46,16,21,304,35,2*7F
$GAGSV,2,2,06,24,47,311,44,05,07,276,16,2*70
$GAGSV,2,1,05,26,16,038,40,31,71,082,47,33,59,071,47,16,21,304,31,7*7C
$GAGSV,2,2,05,24,47,311,40,7*44
$GNGGA,030156.00,3958.87375098,N,11628.60500119,E,4,24,0.7,35.7267,M,-8.1437,M,2.0,1828*70
$GNRMC,030156.00,D,3958.87375098,N,11628.60500119,E,0.006,1.0,080425,7.2,W,R,S*56
$GPGSV,2,1,08,01,66,141,43,02,59,062,49,08,37,061,46,10,06,035,39,1*68
$GPGSV,2,2,08,17,30,263,35,13,06,298,18,30,50,257,43,14,42,309,39,1*64
$GPGSV,2,1,07,01,66,141,46,02,59,062,43,08,37,061,38,10,06,035,38,4*65
$GPGSV,2,2,07,17,30,263,31,30,50,257,40,14,42,309,45,4*5C
$GPGSV,2,1,05,01,66,141,43,08,37,061,38,10,06,035,34,30,50,257,44,8*69
$GPGSV,2,2,05,14,42,309,41,8*54
$GLGSV,2,1,05,84,14,034,31,86,49,223,42,76,41,326,45,75,73,128,47,1*78
$GLGSV,2,2,05,85,66,022,46,1*42
$GLGSV,2,1,05,84,14,034,40,86,49,223,35,76,41,326,37,75,73,128,38,3*71
$GLGSV,2,2,05,85,66,022,40,3*46
$GBGSV,2,1,07,02,30,222,36,07,73,297,44,09,53,217,30,10,61,282,38,1*76
$GBGSV,2,2,07,06,43,199,34,26,44,306,42,29,66,043,45,1*4C
$GBGSV,2,1,06,07,73,297,38,09,53,217,33,10,61,282,38,06,43,199,34,8*77
$GBGSV,2,2,06,26,44,306,39,29,66,043,39,8*74
$GBGSV,2,1,05,02,30,222,35,07,73,297,44,09,53,217,44,10,61,282,45,B*0D
$GBGSV,2,2,05,06,43,199,44,B*30
$GAGSV,2,1,06,26,16,038,28,31,71,082,40,33,59,071,42,16,21,304,27,1*72
$GAGSV,2,2,06,24,47,311,39,05,07,276,22,1*7E
$GAGSV,2,1,06,26,16,038,36,31,71,082,45,33,59,071,47,16,21,304,35,2*7D
$GAGSV,2,2,06,24,47,311,43,05,07,276,17,2*76
$GAGSV,2,1,05,26,16,038,40,31,71,082,47,33,59,071,47,16,21,304,31,7*7C
$GAGSV,2,2,05,24,47,311,40,7*44
$GNGGA,030157.00,3958.87375167,N,11628.60500215,E,4,24,0.7,35.7281,M,-8.1437,M,2.0,1828*77
$GNRMC,030157.00,D,3958.87375167,N,11628.60500215,E,0.007,12.6,080425,7.2,W,R,S*6C
$GPGSV,2,1,08,01,66,141,43,02,59,061,49,08,37,061,46,10,06,035,39,1*6B
$GPGSV,2,2,08,17,30,263,35,13,06,298,18,30,50,257,43,14,42,309,39,1*64
$GPGSV,2,1,07,01,66,141,46,02,59,061,43,08,37,061,38,10,06,035,38,4*66
$GPGSV,2,2,07,17,30,263,31,30,50,257,40,14,42,309,45,4*5C
$GPGSV,2,1,05,01,66,141,43,08,37,061,38,10,06,035,33,30,50,257,44,8*6E
$GPGSV,2,2,05,14,42,309,41,8*54
$GLGSV,2,1,05,84,14,034,31,86,49,223,42,76,41,326,45,75,73,128,47,1*78
$GLGSV,2,2,05,85,66,022,46,1*42
$GLGSV,2,1,05,84,14,034,40,86,49,223,35,76,41,326,37,75,73,128,38,3*71
$GLGSV,2,2,05,85,66,022,40,3*46
$GBGSV,2,1,07,02,30,222,36,07,73,297,44,09,53,217,29,10,61,282,38,1*7E
$GBGSV,2,2,07,06,43,199,34,26,44,306,43,29,66,043,45,1*4D
$GBGSV,2,1,06,07,73,297,38,09,53,217,32,10,61,282,38,06,43,199,34,8*76
$GBGSV,2,2,06,26,44,306,39,29,66,043,39,8*74
$GBGSV,2,1,05,02,30,222,36,07,73,297,44,09,53,217,44,10,61,282,45,B*0E
$GBGSV,2,2,05,06,43,199,44,B*30
$GAGSV,2,1,06,26,16,038,28,31,71,082,40,33,59,071,42,16,21,304,27,1*72
$GAGSV,2,2,06,24,47,311,39,05,07,276,22,1*7E
$GAGSV,2,1,06,26,16,038,35,31,71,082,45,33,59,071,47,16,21,304,35,2*7E
$GAGSV,2,2,06,24,47,311,43,05,07,276,17,2*76
$GAGSV,2,1,05,26,16,038,39,31,71,082,47,33,59,071,47,16,21,304,31,7*72
$GAGSV,2,2,05,24,47,311,40,7*44
$GNGGA,030158.00,3958.87375033,N,11628.60500335,E,4,24,0.7,35.7262,M,-8.1437,M,1.0,1828*75
$GNRMC,030158.00,D,3958.87375033,N,11628.60500335,E,0.006,8.7,080425,7.2,W,R,S*5B
$GPGSV,2,1,08,01,66,141,43,02,59,061,50,08,37,061,46,10,06,035,39,1*63
$GPGSV,2,2,08,17,30,263,36,13,06,298,19,30,50,257,43,14,42,309,39,1*66
$GPGSV,2,1,07,01,66,141,46,02,59,061,43,08,37,061,39,10,06,035,38,4*67
$GPGSV,2,2,07,17,30,263,31,30,50,257,40,14,42,309,45,4*5C
$GPGSV,2,1,05,01,66,141,43,08,37,061,38,10,06,035,33,30,50,257,44,8*6E
$GPGSV,2,2,05,14,42,309,41,8*54
$GLGSV,2,1,05,84,14,034,31,86,49,223,42,76,41,326,45,75,73,128,47,1*78
$GLGSV,2,2,05,85,66,022,46,1*42
$GLGSV,2,1,05,84,14,034,40,86,49,223,35,76,41,326,37,75,73,128,38,3*71
$GLGSV,2,2,05,85,66,022,40,3*46
$GBGSV,2,1,07,02,30,222,37,07,73,297,45,09,53,217,28,10,61,282,39,1*7E
$GBGSV,2,2,07,06,43,199,34,26,44,306,43,29,66,043,45,1*4D
$GBGSV,2,1,06,07,73,297,38,09,53,217,32,10,61,282,38,06,43,199,34,8*76
$GBGSV,2,2,06,26,44,306,39,29,66,043,39,8*74
$GBGSV,2,1,05,02,30,222,36,07,73,297,44,09,53,217,44,10,61,282,45,B*0E
$GBGSV,2,2,05,06,43,199,44,B*30
$GAGSV,2,1,06,26,16,038,28,31,71,082,40,33,59,071,42,16,21,304,26,1*73
$GAGSV,2,2,06,24,47,311,39,05,07,276,21,1*7D
$GAGSV,2,1,06,26,16,038,35,31,71,082,45,33,59,071,46,16,21,304,35,2*7F
$GAGSV,2,2,06,24,47,311,43,05,07,276,17,2*76
$GAGSV,2,1,05,26,16,038,40,31,71,082,47,33,59,071,47,16,21,304,32,7*7F
$GAGSV,2,2,05,24,47,311,40,7*44
$GNGGA,030159.00,3958.87374939,N,11628.60500230,E,4,24,0.7,35.7224,M,-8.1437,M,2.0,1828*73
$GNRMC,030159.00,D,3958.87374939,N,11628.60500230,E,0.006,0.3,080425,7.2,W,R,S*50
$GPGSV,2,1,08,01,66,141,43,02,59,061,50,08,37,061,46,10,06,035,39,1*63
$GPGSV,2,2,08,17,30,263,35,13,06,298,19,30,50,257,43,14,42,309,40,1*6B
$GPGSV,2,1,07,01,66,141,46,02,59,061,43,08,37,061,38,10,06,035,38,4*66
$GPGSV,2,2,07,17,30,263,31,30,50,257,40,14,42,309,45,4*5C
$GPGSV,2,1,05,01,66,141,43,08,37,061,38,10,06,035,33,30,50,257,44,8*6E
$GPGSV,2,2,05,14,42,309,41,8*54
$GLGSV,2,1,05,84,14,034,31,86,49,223,42,76,41,326,45,75,73,128,47,1*78
$GLGSV,2,2,05,85,66,022,46,1*42
$GLGSV,2,1,05,84,14,034,40,86,49,223,34,76,41,326,37,75,73,128,38,3*70
$GLGSV,2,2,05,85,66,022,39,3*48
$GBGSV,2,1,07,02,30,222,36,07,73,297,45,09,53,217,28,10,61,282,39,1*7F
$GBGSV,2,2,07,06,43,199,33,26,44,306,43,29,66,043,45,1*4A
$GBGSV,2,1,06,07,73,297,38,09,53,217,33,10,61,282,38,06,43,199,34,8*77
$GBGSV,2,2,06,26,44,306,39,29,66,043,39,8*74
$GBGSV,2,1,05,02,30,222,37,07,73,297,44,09,53,217,44,10,61,282,45,B*0F
$GBGSV,2,2,05,06,43,199,44,B*30
$GAGSV,2,1,06,26,16,038,28,31,71,082,40,33,59,071,42,16,21,304,26,1*73
$GAGSV,2,2,06,24,47,311,39,05,07,276,19,1*76
$GAGSV,2,1,06,26,16,038,35,31,71,082,45,33,59,071,46,16,21,304,35,2*7F
$GAGSV,2,2,06,24,47,311,43,05,07,276,18,2*79
$GAGSV,2,1,05,26,16,038,40,31,71,082,47,33,59,071,47,16,21,304,32,7*7F
$GAGSV,2,2,05,24,47,311,40,7*44
$GNGGA,030200.00,3958.87374794,N,11628.60500484,E,4,24,0.7,35.7225,M,-8.1437,M,1.0,1828*7E
$GNRMC,030200.00,D,3958.87374794,N,11628.60500484,E,0.005,13.8,080425,7.2,W,R,S*65
$GPGSV,2,1,08,01,66,141,43,02,59,061,50,08,37,061,46,10,06,035,39,1*63
$GPGSV,2,2,08,17,30,263,34,13,06,298,19,30,50,257,43,14,42,309,40,1*6A
$GPGSV,2,1,07,01,66,141,46,02,59,061,43,08,37,061,39,10,06,035,38,4*67
$GPGSV,2,2,07,17,30,263,31,30,50,257,39,14,42,309,45,4*52
$GPGSV,2,1,05,01,66,141,43,08,37,061,38,10,06,035,33,30,50,257,43,8*69
$GPGSV,2,2,05,14,42,309,41,8*54
$GLGSV,2,1,05,84,14,034,31,86,49,223,42,76,41,326,45,75,72,128,47,1*79
$GLGSV,2,2,05,85,66,022,46,1*42
$GLGSV,2,1,05,84,14,034,40,86,49,223,34,76,41,326,37,75,72,128,38,3*71
$GLGSV,2,2,05,85,66,022,40,3*46
$GBGSV,2,1,07,02,30,222,36,07,73,297,45,09,53,217,27,10,61,282,39,1*70
$GBGSV,2,2,07,06,43,199,33,26,44,306,43,29,66,043,45,1*4A
$GBGSV,2,1,06,07,73,297,38,09,53,217,33,10,61,282,38,06,43,199,34,8*77
$GBGSV,2,2,06,26,44,306,39,29,66,043,39,8*74
$GBGSV,2,1,05,02,30,222,37,07,73,297,44,09,53,217,44,10,61,282,45,B*0F
$GBGSV,2,2,05,06,43,199,44,B*30
$GAGSV,2,1,06,26,16,038,28,31,71,082,40,33,59,071,42,16,21,304,26,1*73
$GAGSV,2,2,06,24,47,311,39,05,07,276,19,1*76
$GAGSV,2,1,06,26,16,038,35,31,71,082,45,33,59,071,46,16,21,304,35,2*7F
$GAGSV,2,2,06,24,47,311,43,05,07,276,19,2*78
$GAGSV,2,1,05,26,16,038,40,31,71,082,47,33,59,071,47,16,21,304,32,7*7F
$GAGSV,2,2,05,24,47,311,41,7*45
$GNGGA,030201.00,3958.87374854,N,11628.60500402,E,4,24,0.7,35.7189,M,-8.1437,M,1.0,1828*77
$GNRMC,030201.00,D,3958.87374854,N,11628.60500402,E,0.005,26.1,080425,7.2,W,R,S*66
$GPGSV,2,1,08,01,66,141,43,02,59,061,50,08,37,061,46,10,06,035,39,1*63
$GPGSV,2,2,08,17,30,263,35,13,06,298,19,30,50,257,43,14,42,309,40,1*6B
$GPGSV,2,1,07,01,66,141,45,02,59,061,43,08,37,061,39,10,06,035,38,4*64
$GPGSV,2,2,07,17,30,263,31,30,50,257,39,14,42,309,44,4*53
$GPGSV,2,1,05,01,66,141,43,08,37,061,38,10,06,035,33,30,50,257,43,8*69
$GPGSV,2,2,05,14,42,309,41,8*54
$GLGSV,2,1,05,84,14,034,31,86,49,223,41,76,41,326,45,75,72,128,47,1*7A
$GLGSV,2,2,05,85,66,022,46,1*42
$GLGSV,2,1,05,84,14,034,40,86,49,223,34,76,41,326,37,75,72,128,38,3*71
$GLGSV,2,2,05,85,66,022,40,3*46
$GBGSV,2,1,07,02,30,222,36,07,73,297,44,09,53,217,28,10,61,282,39,1*7E
$GBGSV,2,2,07,06,43,199,33,26,44,306,42,29,66,043,45,1*4B
$GBGSV,2,1,06,07,73,297,38,09,53,217,33,10,61,282,38,06,43,199,34,8*77
$GBGSV,2,2,06,26,44,306,39,29,66,043,39,8*74
$GBGSV,2,1,05,02,30,222,37,07,73,297,44,09,53,217,44,10,61,282,45,B*0F
$GBGSV,2,2,05,06,43,199,44,B*30
$GAGSV,2,1,06,26,16,038,28,31,71,082,40,33,59,071,42,16,21,304,26,1*73
$GAGSV,2,2,06,24,47,311,39,05,07,276,20,1*7C
$GAGSV,2,1,06,26,16,038,35,31,71,082,45,33,59,071,46,16,21,304,35,2*7F
$GAGSV,2,2,06,24,47,311,43,05,07,276,20,2*72
$GAGSV,2,1,05,26,16,038,39,31,71,082,47,33,59,071,47,16,21,304,32,7*71
$GAGSV,2,2,05,24,47,311,41,7*45
$GNGGA,030202.00,3958.87374833,N,11628.60500494,E,4,24,0.7,35.7262,M,-8.1437,M,1.0,1828*7C
$GNRMC,030202.00,D,3958.87374833,N,11628.60500494,E,0.004,37.0,080425,7.2,W,R,S*6B
$GPGSV,2,1,08,01,66,141,43,02,59,061,50,08,37,061,46,10,06,035,39,1*63
$GPGSV,2,2,08,17,30,263,35,13,06,298,18,30,50,257,43,14,42,309,41,1*6B
$GPGSV,2,1,07,01,66,141,46,02,59,061,43,08,37,061,39,10,06,035,38,4*67
$GPGSV,2,2,07,17,30,263,31,30,50,257,39,14,42,309,44,4*53
$GPGSV,2,1,05,01,66,141,43,08,37,061,38,10,06,035,33,30,50,257,43,8*69
$GPGSV,2,2,05,14,42,309,41,8*54
$GLGSV,2,1,05,84,14,034,30,86,49,223,41,76,41,326,45,75,72,128,47,1*7B
$GLGSV,2,2,05,85,66,022,46,1*42
$GLGSV,2,1,05,84,14,034,40,86,49,223,34,76,41,326,37,75,72,128,38,3*71
$GLGSV,2,2,05,85,66,022,40,3*46
$GBGSV,2,1,07,02,30,222,36,07,73,297,44,09,53,217,27,10,61,282,39,1*71
$GBGSV,2,2,07,06,43,199,33,26,44,306,42,29,66,043,45,1*4B
$GBGSV,2,1,06,07,73,297,38,09,53,217,32,10,61,282,38,06,43,199,34,8*76
$GBGSV,2,2,06,26,44,306,39,29,66,043,39,8*74
$GBGSV,2,1,05,02,30,222,37,07,73,297,44,09,53,217,44,10,61,282,45,B*0F
$GBGSV,2,2,05,06,43,199,44,B*30
$GAGSV,2,1,06,26,16,038,28,31,71,082,40,33,59,071,42,16,21,304,25,1*70
$GAGSV,2,2,06,24,47,311,39,05,07,276,19,1*76
$GAGSV,2,1,06,26,16,038,35,31,71,082,45,33,59,071,46,16,21,304,35,2*7F
$GAGSV,2,2,06,24,47,311,43,05,07,276,21,2*73
$GAGSV,2,1,05,26,16,038,39,31,71,082,47,33,59,071,47,16,21,304,32,7*71
$GAGSV,2,2,05,24,47,311,41,7*45
$GNGGA,030203.00,3958.87374968,N,11628.60500534,E,4,24,0.7,35.7313,M,-8.1437,M,1.0,1828*7E
$GNRMC,030203.00,D,3958.87374968,N,11628.60500534,E,0.005,30.9,080425,7.2,W,R,S*61
$GPGSV,2,1,08,01,66,141,43,02,59,061,50,08,37,061,46,10,06,035,39,1*63
$GPGSV,2,2,08,17,30,263,34,13,06,298,19,30,50,257,42,14,42,309,41,1*6A
$GPGSV,2,1,07,01,66,141,46,02,59,061,43,08,37,061,39,10,06,035,38,4*67
$GPGSV,2,2,07,17,30,263,31,30,50,257,39,14,42,309,44,4*53
$GPGSV,2,1,05,01,66,141,43,08,37,061,38,10,06,035,33,30,50,257,43,8*69
$GPGSV,2,2,05,14,42,309,41,8*54
$GLGSV,2,1,05,84,14,034,30,86,49,223,41,76,41,326,45,75,72,128,47,1*7B
$GLGSV,2,2,05,85,66,022,46,1*42
$GLGSV,2,1,05,84,14,034,41,86,49,223,35,76,41,326,38,75,72,128,38,3*7E
$GLGSV,2,2,05,85,66,022,40,3*46
$GBGSV,2,1,07,02,30,222,36,07,73,297,44,09,53,217,26,10,61,282,39,1*70
$GBGSV,2,2,07,06,43,199,32,26,44,306,41,29,66,043,45,1*49
$GBGSV,2,1,06,07,73,297,38,09,53,217,33,10,61,282,38,06,43,199,34,8*77
$GBGSV,2,2,06,26,44,306,39,29,66,043,39,8*74
$GBGSV,2,1,05,02,30,222,37,07,73,297,44,09,53,217,44,10,61,282,45,B*0F
$GBGSV,2,2,05,06,43,199,43,B*37
$GAGSV,2,1,06,26,16,038,27,31,71,083,40,33,59,071,42,16,21,304,26,1*7D
$GAGSV,2,2,06,24,47,311,39,05,07,276,19,1*76
$GAGSV,2,1,06,26,16,038,36,31,71,083,45,33,59,071,46,16,21,304,35,2*7D
$GAGSV,2,2,06,24,47,311,43,05,07,276,22,2*70
$GAGSV,2,1,05,26,16,038,39,31,71,083,47,33,59,071,47,16,21,304,33,7*71
$GAGSV,2,2,05,24,47,311,41,7*45
$GNGGA,030204.00,3958.87375074,N,11628.60500389,E,4,24,0.7,35.7297,M,-8.1437,M,1.0,1828*71
$GNRMC,030204.00,D,3958.87375074,N,11628.60500389,E,0.002,36.4,080425,7.2,W,R,S*6F
$GPGSV,2,1,08,01,66,141,43,02,59,061,50,08,37,061,46,10,06,035,39,1*63
$GPGSV,2,2,08,17,30,263,34,13,06,298,19,30,50,257,42,14,42,309,41,1*6A
$GPGSV,2,1,07,01,66,141,46,02,59,061,43,08,37,061,39,10,06,035,37,4*68
$GPGSV,2,2,07,17,30,263,31,30,50,257,39,14,42,309,44,4*53
$GPGSV,2,1,05,01,66,141,43,08,37,061,38,10,06,035,33,30,50,257,43,8*69
$GPGSV,2,2,05,14,42,309,41,8*54
$GLGSV,2,1,05,84,14,034,30,86,49,223,42,76,41,326,44,75,72,128,47,1*79
$GLGSV,2,2,05,85,66,022,45,1*41
$GLGSV,2,1,05,84,14,034,41,86,49,223,35,76,41,326,38,75,72,128,38,3*7E
$GLGSV,2,2,05,85,66,022,40,3*46
$GBGSV,2,1,07,02,30,222,37,07,73,297,44,09,53,217,26,10,61,282,39,1*71
$GBGSV,2,2,07,06,43,199,33,26,44,306,41,29,66,043,45,1*48
$GBGSV,2,1,06,07,73,297,38,09,53,217,33,10,61,282,38,06,43,199,34,8*77
$GBGSV,2,2,06,26,44,306,39,29,66,043,39,8*74
$GBGSV,2,1,05,02,30,222,36,07,73,297,44,09,53,217,44,10,61,282,45,B*0E
$GBGSV,2,2,05,06,43,199,43,B*37
$GAGSV,2,1,06,26,16,038,27,31,71,083,40,33,59,071,42,16,21,304,26,1*7D
$GAGSV,2,2,06,24,47,311,39,05,07,276,20,1*7C
$GAGSV,2,1,06,26,16,038,36,31,71,083,46,33,59,071,47,16,21,304,35,2*7F
$GAGSV,2,2,06,24,47,311,43,05,07,276,22,2*70
$GAGSV,2,1,05,26,16,038,39,31,71,083,47,33,59,071,47,16,21,304,33,7*71
$GAGSV,2,2,05,24,47,311,41,7*45
$GNGGA,030205.00,3958.87375017,N,11628.60500406,E,4,24,0.7,35.7239,M,-8.1437,M,1.0,1828*71
$GNRMC,030205.00,D,3958.87375017,N,11628.60500406,E,0.002,4.4,080425,7.2,W,R,S*5A
$GPGSV,2,1,08,01,66,141,43,02,59,061,49,08,37,061,46,10,06,035,39,1*6B
$GPGSV,2,2,08,17,30,263,34,13,06,298,20,30,50,257,42,14,42,309,41,1*60
$GPGSV,2,1,07,01,66,141,46,02,59,061,43,08,37,061,39,10,06,035,38,4*67
$GPGSV,2,2,07,17,30,263,31,30,50,257,39,14,42,309,44,4*53
$GPGSV,2,1,05,01,66,141,43,08,37,061,38,10,06,035,33,30,50,257,43,8*69
$GPGSV,2,2,05,14,42,309,41,8*54
$GLGSV,2,1,05,84,14,034,31,86,49,223,41,76,41,326,45,75,72,128,47,1*7A
$GLGSV,2,2,05,85,66,022,45,1*41
$GLGSV,2,1,05,84,14,034,41,86,49,223,35,76,41,326,38,75,72,128,38,3*7E
$GLGSV,2,2,05,85,66,022,40,3*46
$GBGSV,2,1,07,02,30,222,37,07,73,297,44,09,53,217,28,10,61,282,39,1*7F
$GBGSV,2,2,07,06,43,199,33,26,44,306,40,29,66,043,45,1*49
$GBGSV,2,1,06,07,73,297,38,09,53,217,33,10,61,282,38,06,43,199,34,8*77
$GBGSV,2,2,06,26,44,306,39,29,66,043,39,8*74
$GBGSV,2,1,05,02,30,222,37,07,73,297,44,09,53,217,44,10,61,282,45,B*0F
$GBGSV,2,2,05,06,43,199,43,B*37
$GAGSV,2,1,06,26,16,038,27,31,71,083,40,33,59,071,42,16,21,304,25,1*7E
$GAGSV,2,2,06,24,47,311,39,05,07,276,20,1*7C
$GAGSV,2,1,06,26,16,038,36,31,71,083,46,33,59,071,47,16,21,304,35,2*7F
$GAGSV,2,2,06,24,47,311,43,05,07,276,22,2*70
$GAGSV,2,1,05,26,16,038,39,31,71,083,47,33,59,071,47,16,21,304,33,7*71
$GAGSV,2,2,05,24,47,311,41,7*45
$GNGGA,030206.00,3958.87374779,N,11628.60500549,E,4,24,0.7,35.7199,M,-8.1437,M,1.0,1828*7F
$GNRMC,030206.00,D,3958.87374779,N,11628.60500549,E,0.002,46.2,080425,7.2,W,R,S*6D
$GPGSV,2,1,08,01,66,141,43,02,59,061,49,08,37,061,46,10,06,035,40,1*65
$GPGSV,2,2,08,17,30,263,34,13,06,298,22,30,50,257,41,14,42,309,41,1*61
$GPGSV,2,1,07,01,66,141,46,02,59,061,43,08,37,061,40,10,06,035,37,4*66
$GPGSV,2,2,07,17,30,263,31,30,50,257,39,14,42,309,44,4*53
$GPGSV,2,1,05,01,66,141,43,08,37,061,38,10,06,035,33,30,50,257,43,8*69
$GPGSV,2,2,05,14,42,309,41,8*54
$GLGSV,2,1,05,84,14,034,31,86,49,223,41,76,41,326,44,75,72,128,47,1*7B
$GLGSV,2,2,05,85,66,022,45,1*41
$GLGSV,2,1,05,84,14,034,40,86,49,223,35,76,41,326,38,75,72,128,39,3*7E
$GLGSV,2,2,05,85,66,022,40,3*46
$GBGSV,2,1,07,02,30,222,37,07,73,297,45,09,53,217,29,10,61,282,39,1*7F
$GBGSV,2,2,07,06,43,199,32,26,44,306,41,29,66,043,45,1*49
$GBGSV,2,1,06,07,73,297,38,09,53,217,33,10,61,282,38,06,43,199,34,8*77
$GBGSV,2,2,06,26,44,306,39,29,66,043,39,8*74
$GBGSV,2,1,05,02,30,222,36,07,73,297,45,09,53,217,44,10,61,282,45,B*0F
$GBGSV,2,2,05,06,43,199,44,B*30
$GAGSV,2,1,06,26,16,038,27,31,71,083,40,33,59,071,42,16,21,304,26,1*7D
$GAGSV,2,2,06,24,47,311,39,05,07,276,20,1*7C
$GAGSV,2,1,06,26,16,038,36,31,71,083,46,33,59,071,47,16,21,304,35,2*7F
$GAGSV,2,2,06,24,47,311,43,05,07,276,23,2*71
$GAGSV,2,1,05,26,16,038,39,31,71,083,47,33,59,071,47,16,21,304,32,7*70
$GAGSV,2,2,05,24,47,311,42,7*46
$GNGGA,030207.00,3958.87374795,N,11628.60500784,E,4,24,0.7,35.7099,M,-8.1437,M,1.0,1828*7E
$GNRMC,030207.00,D,3958.87374795,N,11628.60500784,E,0.002,50.9,080425,7.2,W,R,S*61
$GPGSV,2,1,08,01,66,141,43,02,59,061,49,08,37,061,46,10,06,035,40,1*65
$GPGSV,2,2,08,17,30,263,34,13,06,298,27,30,50,257,41,14,42,309,40,1*65
$GPGSV,2,1,07,01,66,141,46,02,59,061,43,08,37,061,40,10,06,035,37,4*66
$GPGSV,2,2,07,17,30,263,30,30,50,257,39,14,42,309,44,4*52
$GPGSV,2,1,05,01,66,141,43,08,37,061,38,10,06,035,33,30,50,257,43,8*69
$GPGSV,2,2,05,14,42,309,41,8*54
$GLGSV,2,1,05,84,14,034,31,86,49,223,41,76,41,326,45,75,72,128,47,1*7A
$GLGSV,2,2,05,85,66,022,46,1*42
$GLGSV,2,1,05,84,14,034,40,86,49,223,35,76,41,326,38,75,72,128,39,3*7E
$GLGSV,2,2,05,85,66,022,40,3*46
$GBGSV,2,1,07,02,30,222,37,07,73,297,45,09,53,217,29,10,61,282,38,1*7E
$GBGSV,2,2,07,06,43,199,32,26,44,306,40,29,66,043,46,1*4B
$GBGSV,2,1,06,07,73,297,38,09,53,217,33,10,61,282,38,06,43,199,34,8*77
$GBGSV,2,2,06,26,44,306,39,29,66,043,39,8*74
$GBGSV,2,1,05,02,30,222,37,07,73,297,44,09,53,217,44,10,61,282,45,B*0F
$GBGSV,2,2,05,06,43,199,44,B*30
$GAGSV,2,1,06,26,16,038,27,31,71,083,40,33,59,071,42,16,21,304,25,1*7E
$GAGSV,2,2,06,24,47,311,39,05,07,276,20,1*7C
$GAGSV,2,1,06,26,16,038,36,31,71,083,46,33,59,071,47,16,21,304,35,2*7F
$GAGSV,2,2,06,24,47,311,43,05,07,276,21,2*73
$GAGSV,2,1,05,26,16,038,39,31,71,083,47,33,59,071,47,16,21,304,32,7*70
$GAGSV,2,2,05,24,47,311,41,7*45
$GNGGA,030208.00,3958.87375011,N,11628.60500589,E,4,24,0.7,35.7293,M,-8.1437,M,2.0,1828*7F
$GNRMC,030208.00,D,3958.87375011,N,11628.60500589,E,0.002,89.9,080425,7.2,W,R,S*6F
$GPGSV,2,1,08,01,66,141,43,02,59,061,49,08,37,061,47,10,06,035,40,1*64
$GPGSV,2,2,08,17,30,263,33,13,06,298,28,30,50,257,42,14,42,309,41,1*6F
$GPGSV,2,1,07,01,66,141,46,02,59,061,43,08,37,061,40,10,06,035,37,4*66
$GPGSV,2,2,07,17,30,263,31,30,50,257,39,14,42,309,44,4*53
$GPGSV,2,1,05,01,66,141,43,08,37,061,38,10,06,035,33,30,50,257,43,8*69
$GPGSV,2,2,05,14,42,309,41,8*54
$GLGSV,2,1,05,84,14,034,31,86,49,223,41,76,41,326,44,75,72,128,47,1*7B
$GLGSV,2,2,05,85,66,022,45,1*41
$GLGSV,2,1,05,84,14,034,41,86,49,223,35,76,41,326,38,75,72,128,39,3*7F
$GLGSV,2,2,05,85,66,022,40,3*46
$GBGSV,2,1,07,02,30,222,37,07,73,297,44,09,53,217,30,10,61,282,38,1*77
$GBGSV,2,2,07,06,43,199,32,26,44,306,39,29,66,043,46,1*45
$GBGSV,2,1,06,07,73,297,38,09,53,217,33,10,61,282,38,06,43,199,34,8*77
$GBGSV,2,2,06,26,44,306,39,29,66,043,39,8*74
$GBGSV,2,1,05,02,30,222,37,07,73,297,44,09,53,217,44,10,61,282,45,B*0F
$GBGSV,2,2,05,06,43,199,44,B*30
$GAGSV,2,1,06,26,16,038,27,31,71,083,40,33,59,071,42,16,21,304,25,1*7E
$GAGSV,2,2,06,24,47,311,39,05,07,276,19,1*76
$GAGSV,2,1,06,26,16,038,36,31,71,083,46,33,59,071,47,16,21,304,36,2*7C
$GAGSV,2,2,06,24,47,311,43,05,07,276,22,2*70
$GAGSV,2,1,05,26,16,038,39,31,71,083,47,33,59,071,47,16,21,304,33,7*71
$GAGSV,2,2,05,24,47,311,41,7*45
$GNGGA,030209.00,3958.87374703,N,11628.60500627,E,4,24,0.7,35.7207,M,-8.1437,M,2.0,1828*71
$GNRMC,030209.00,D,3958.87374703,N,11628.60500627,E,0.002,80.1,080425,7.2,W,R,S*6D
$GPGSV,2,1,08,01,66,141,43,02,59,061,49,08,37,061,46,10,06,035,39,1*6B
$GPGSV,2,2,08,17,30,263,31,13,06,298,28,30,50,257,42,14,42,309,41,1*6D
$GPGSV,2,1,07,01,66,141,46,02,59,061,43,08,37,061,39,10,06,035,37,4*68
$GPGSV,2,2,07,17,30,263,30,30,50,257,39,14,42,309,44,4*52
$GPGSV,2,1,05,01,66,141,43,08,37,061,38,10,06,035,33,30,50,257,42,8*68
$GPGSV,2,2,05,14,42,309,40,8*55
$GLGSV,2,1,05,84,14,034,32,86,49,223,41,76,41,326,44,75,72,128,47,1*78
$GLGSV,2,2,05,85,66,022,46,1*42
$GLGSV,2,1,05,84,14,034,41,86,49,223,36,76,41,326,39,75,72,128,40,3*73
$GLGSV,2,2,05,85,66,022,40,3*46
$GBGSV,2,1,07,02,30,222,37,07,73,297,44,09,53,217,30,10,61,282,38,1*77
$GBGSV,2,2,07,06,43,199,32,26,44,306,39,29,66,043,46,1*45
$GBGSV,2,1,06,07,73,297,38,09,53,217,33,10,61,282,38,06,43,199,34,8*77
$GBGSV,2,2,06,26,44,306,39,29,66,043,39,8*74
$GBGSV,2,1,05,02,30,222,36,07,73,297,43,09,53,217,43,10,61,282,44,B*0F
$GBGSV,2,2,05,06,43,199,43,B*37
$GAGSV,2,1,06,26,16,038,27,31,71,083,40,33,59,071,41,16,21,304,24,1*7C
$GAGSV,2,2,06,24,47,311,39,05,07,276,19,1*76
$GAGSV,2,1,06,26,16,038,36,31,71,083,45,33,59,071,46,16,21,304,35,2*7D
$GAGSV,2,2,06,24,47,311,42,05,07,276,22,2*71
$GAGSV,2,1,05,26,16,038,39,31,71,083,47,33,59,071,47,16,21,304,33,7*71
$GAGSV,2,2,05,24,47,311,41,7*45
$GNGGA,030210.00,3958.87374943,N,11628.60500592,E,4,23,0.7,35.7317,M,-8.1437,M,1.0,1828*7A
$GNRMC,030210.00,D,3958.87374943,N,11628.60500592,E,0.002,104.6,080425,7.2,W,R,S*58
$GPGSV,2,1,08,01,66,141,43,02,59,061,49,08,37,061,46,10,06,035,39,1*6B
$GPGSV,2,2,08,17,30,263,29,13,06,298,27,30,50,257,42,14,42,309,41,1*6B
$GPGSV,2,1,07,01,66,141,45,02,59,061,42,08,37,061,38,10,06,035,36,4*6A
$GPGSV,2,2,07,17,30,263,29,30,50,257,37,14,42,309,42,4*52
$GPGSV,2,1,05,01,66,141,43,08,37,061,38,10,06,035,33,30,50,257,42,8*68
$GPGSV,2,2,05,14,42,309,40,8*55
$GLGSV,2,1,05,84,14,034,32,86,49,223,40,76,41,326,44,75,72,128,47,1*79
$GLGSV,2,2,05,85,65,022,46,1*41
$GLGSV,2,1,05,84,14,034,41,86,49,223,35,76,41,326,39,75,72,128,40,3*70
$GLGSV,2,2,05,85,65,022,39,3*4B
$GBGSV,2,1,07,02,30,222,36,07,73,297,44,09,53,217,30,10,61,282,37,1*79
$GBGSV,2,2,07,06,43,199,32,26,44,306,39,29,66,043,45,1*46
$GBGSV,2,1,06,07,73,297,38,09,53,217,33,10,61,282,37,06,43,199,33,8*7F
$GBGSV,2,2,06,26,44,306,38,29,66,043,39,8*75
$GBGSV,2,1,05,02,30,222,35,07,73,297,42,09,53,217,41,10,61,282,43,B*08
$GBGSV,2,2,05,06,43,199,41,B*35
$GAGSV,2,1,06,26,16,038,27,31,71,083,40,33,59,071,41,16,21,304,25,1*7D
$GAGSV,2,2,06,24,47,311,39,05,07,276,19,1*76
$GAGSV,2,1,05,26,16,038,34,31,71,083,43,33,59,071,44,16,21,304,33,2*7E
$GAGSV,2,2,05,24,47,311,41,2*40
$GAGSV,2,1,05,26,16,038,39,31,71,083,46,33,59,071,47,16,21,304,34,7*77
$GAGSV,2,2,05,24,47,311,41,7*45
$GNGGA,030211.00,3958.87375003,N,11628.60501014,E,4,22,0.8,35.7403,M,-8.1437,M,1.0,1828*71
$GNRMC,030211.00,D,3958.87375003,N,11628.60501014,E,0.002,116.8,080425,7.2,W,R,S*52
$GPGSV,2,1,08,01,66,141,41,02,59,061,47,08,37,061,45,10,06,035,38,1*65
$GPGSV,2,2,08,17,30,263,26,13,06,298,26,30,50,257,40,14,42,309,39,1*68
$GPGSV,2,1,07,01,66,141,44,02,59,061,40,08,37,061,37,10,06,035,35,4*65
$GPGSV,2,2,07,17,30,263,27,30,50,257,36,14,42,309,41,4*5E
$GPGSV,2,1,05,01,66,141,42,08,37,061,37,10,06,035,32,30,50,257,41,8*64
$GPGSV,2,2,05,14,42,309,39,8*5B
$GLGSV,2,1,05,84,14,034,31,86,49,223,40,76,41,326,43,75,72,128,45,1*7F
$GLGSV,2,2,05,85,65,022,46,1*41
$GLGSV,2,1,05,84,14,034,39,86,49,223,34,76,41,326,38,75,72,128,39,3*71
$GLGSV,2,2,05,85,65,022,38,3*4A
$GBGSV,2,1,07,02,30,222,36,07,73,297,44,09,53,217,29,10,61,282,37,1*71
$GBGSV,2,2,07,06,43,199,31,26,44,306,38,29,66,043,45,1*44
$GBGSV,2,1,06,07,73,297,37,09,53,217,32,10,61,282,37,06,43,199,33,8*71
$GBGSV,2,2,06,26,44,306,37,29,66,043,38,8*7B
$GBGSV,2,1,05,02,30,222,33,07,73,297,40,09,53,217,40,10,61,282,41,B*0F
$GBGSV,2,2,05,06,43,199,39,B*3A
$GAGSV,2,1,06,26,16,038,27,31,71,083,39,33,59,071,41,16,21,304,24,1*72
$GAGSV,2,2,06,24,47,311,38,05,07,276,19,1*77
$GAGSV,2,1,05,26,16,038,32,31,71,083,41,33,59,071,42,16,21,304,32,2*7D
$GAGSV,2,2,05,24,47,311,39,2*4F
$GAGSV,2,1,05,26,16,038,37,31,71,083,45,33,59,071,45,16,21,304,32,7*7E
$GAGSV,2,2,05,24,47,311,40,7*44
$GNGGA,030212.00,3958.87375089,N,11628.60500973,E,4,22,0.8,35.7437,M,-8.1437,M,1.0,1828*7E
$GNRMC,030212.00,D,3958.87375089,N,11628.60500973,E,0.002,99.7,080425,7.2,W,R,S*63
$GPGSV,2,1,08,01,66,141,41,02,58,061,47,08,37,061,44,10,06,035,37,1*6A
$GPGSV,2,2,08,17,30,263,26,13,06,298,25,30,50,257,41,14,42,309,39,1*6A
$GPGSV,2,1,07,01,66,141,44,02,58,061,40,08,37,061,37,10,06,035,34,4*65
$GPGSV,2,2,07,17,30,263,27,30,50,257,36,14,42,309,41,4*5E
$GPGSV,2,1,05,01,66,141,42,08,37,061,37,10,06,035,32,30,50,257,41,8*64
$GPGSV,2,2,05,14,42,309,39,8*5B
$GLGSV,2,1,05,84,14,034,32,86,49,223,40,76,41,326,43,75,72,128,45,1*7C
$GLGSV,2,2,05,85,65,022,46,1*41
$GLGSV,2,1,05,84,14,034,39,86,49,223,34,76,41,326,38,75,72,128,39,3*71
$GLGSV,2,2,05,85,65,022,37,3*45
$GBGSV,2,1,07,02,30,222,35,07,73,297,44,09,53,217,31,10,61,282,37,1*7B
$GBGSV,2,2,07,06,43,199,32,26,44,306,38,29,66,043,45,1*47
$GBGSV,2,1,06,07,73,297,37,09,53,217,32,10,61,282,37,06,43,199,32,8*70
$GBGSV,2,2,06,26,44,306,37,29,66,043,37,8*74
$GBGSV,2,1,05,02,30,222,32,07,73,297,40,09,53,217,39,10,61,282,40,B*01
$GBGSV,2,2,05,06,43,199,39,B*3A
$GAGSV,2,1,06,26,16,038,26,31,71,083,39,33,59,071,41,16,21,304,25,1*72
$GAGSV,2,2,06,24,47,311,38,05,07,276,18,1*76
$GAGSV,2,1,05,26,16,038,32,31,71,083,41,33,59,071,42,16,21,304,32,2*7D
$GAGSV,2,2,05,24,47,311,38,2*4E
$GAGSV,2,1,05,26,16,038,37,31,71,083,45,33,59,071,45,16,21,304,33,7*7F
$GAGSV,2,2,05,24,47,311,41,7*45
$GNGGA,030213.00,3958.87374931,N,11628.60500884,E,4,23,0.7,35.7398,M,-8.1437,M,1.0,1828*71
$GNRMC,030213.00,D,3958.87374931,N,11628.60500884,E,0.003,108.0,080425,7.2,W,R,S*5F
$GPGSV,2,1,08,01,66,141,42,02,58,061,47,08,37,061,44,10,06,035,37,1*69
$GPGSV,2,2,08,17,30,263,26,13,06,298,25,30,50,257,42,14,42,309,39,1*69
$GPGSV,2,1,07,01,66,141,43,02,58,061,40,08,37,061,36,10,06,035,33,4*64
$GPGSV,2,2,07,17,30,263,26,30,50,257,35,14,42,309,40,4*5D
$GPGSV,2,1,05,01,66,141,41,08,37,061,36,10,06,035,31,30,50,257,41,8*65
$GPGSV,2,2,05,14,42,309,38,8*5A
$GLGSV,2,1,05,84,14,034,31,86,49,223,40,76,41,326,43,75,72,128,44,1*7E
$GLGSV,2,2,05,85,65,022,45,1*42
$GLGSV,2,1,05,84,14,034,38,86,49,223,34,76,41,326,38,75,72,128,38,3*71
$GLGSV,2,2,05,85,65,022,36,3*44
$GBGSV,2,1,07,02,30,222,35,07,73,297,44,09,53,217,30,10,61,282,37,1*7A
$GBGSV,2,2,07,06,43,199,32,26,44,306,37,29,66,043,44,1*49
$GBGSV,2,1,06,07,73,297,36,09,53,217,31,10,61,282,36,06,43,199,32,8*73
$GBGSV,2,2,06,26,44,306,36,29,66,043,36,8*74
$GBGSV,2,1,05,02,30,222,30,07,73,297,38,09,53,217,38,10,61,282,39,B*03
$GBGSV,2,2,05,06,43,199,37,B*34
$GAGSV,2,1,06,26,16,038,24,31,71,083,38,33,59,071,40,16,21,304,25,1*70
$GAGSV,2,2,06,24,47,311,37,05,07,276,19,1*78
$GAGSV,2,1,06,26,16,038,30,31,71,083,39,33,59,071,40,16,21,304,31,2*72
$GAGSV,2,2,06,24,47,311,37,05,07,276,19,2*7B
$GAGSV,2,1,05,26,16,038,37,31,71,083,45,33,59,071,45,16,21,304,32,7*7E
$GAGSV,2,2,05,24,47,311,41,7*45
$GNGGA,030214.00,3958.87374733,N,11628.60500925,E,4,22,0.8,35.7377,M,-8.1437,M,1.0,1828*7F
$GNRMC,030214.00,D,3958.87374733,N,11628.60500925,E,0.003,108.2,080425,7.2,W,R,S*5C
$GPGSV,2,1,08,01,66,141,42,02,58,061,48,08,37,061,45,10,06,035,38,1*68
$GPGSV,2,2,08,17,30,263,23,13,06,298,25,30,50,257,42,14,42,309,40,1*62
$GPGSV,2,1,07,01,66,141,42,02,58,061,39,08,37,061,35,10,06,035,32,4*69
$GPGSV,2,2,07,17,30,263,23,30,50,257,34,14,42,309,38,4*56
$GPGSV,2,1,05,01,66,141,41,08,37,061,36,10,06,035,31,30,50,257,40,8*64
$GPGSV,2,2,05,14,42,309,38,8*5A
$GLGSV,2,1,05,84,14,034,31,86,49,223,39,76,41,326,43,75,72,128,44,1*70
$GLGSV,2,2,05,85,65,022,45,1*42
$GLGSV,2,1,05,84,14,034,37,86,49,223,33,76,41,326,37,75,72,128,37,3*79
$GLGSV,2,2,05,85,65,022,35,3*47
$GBGSV,2,1,07,02,30,222,35,07,73,297,44,09,53,217,30,10,61,282,37,1*7A
$GBGSV,2,2,07,06,43,199,32,26,44,306,37,29,66,043,44,1*49
$GBGSV,2,1,06,07,73,297,35,09,53,217,30,10,61,282,36,06,43,199,31,8*72
$GBGSV,2,2,06,26,44,306,36,29,66,043,36,8*74
$GBGSV,2,1,05,02,30,222,30,07,73,297,38,09,53,217,38,10,61,282,39,B*03
$GBGSV,2,2,05,06,43,199,37,B*34
$GAGSV,2,1,06,26,16,038,24,31,71,083,37,33,59,071,39,16,21,304,24,1*70
$GAGSV,2,2,06,24,47,311,37,05,07,276,17,1*76
$GAGSV,2,1,06,26,16,038,30,31,71,083,39,33,59,071,40,16,21,304,31,2*72
$GAGSV,2,2,06,24,47,311,37,05,07,276,19,2*7B
$GAGSV,2,1,05,26,16,038,37,31,71,083,45,33,59,071,45,16,21,304,33,7*7F
$GAGSV,2,2,05,24,47,311,41,7*45
$GNGGA,030215.00,3958.87375162,N,11628.60501093,E,4,22,0.8,35.7442,M,-8.1437,M,1.0,1828*79
$GNRMC,030215.00,D,3958.87375162,N,11628.60501093,E,0.003,102.9,080425,7.2,W,R,S*5A
$GPGSV,2,1,08,01,66,141,42,02,58,061,47,08,37,061,44,10,06,035,38,1*66
$GPGSV,2,2,08,17,30,263,23,13,06,298,26,30,50,257,42,14,42,309,40,1*61
$GPGSV,2,1,07,01,66,141,42,02,58,061,39,08,37,061,35,10,06,035,32,4*69
$GPGSV,2,2,07,17,30,263,23,30,50,257,34,14,42,309,38,4*56
$GPGSV,2,1,05,01,66,141,41,08,37,061,35,10,06,035,31,30,50,257,40,8*67
$GPGSV,2,2,05,14,42,309,38,8*5A
$GLGSV,2,1,05,84,14,034,31,86,49,223,39,76,41,326,43,75,72,128,44,1*70
$GLGSV,2,2,05,85,65,022,45,1*42
$GLGSV,2,1,05,84,14,034,37,86,49,223,33,76,41,326,36,75,72,128,38,3*77
$GLGSV,2,2,05,85,65,022,34,3*46
$GBGSV,2,1,07,02,30,222,35,07,73,297,44,09,53,217,30,10,61,282,37,1*7A
$GBGSV,2,2,07,06,43,199,33,26,44,306,37,29,66,043,44,1*48
$GBGSV,2,1,06,07,73,297,35,09,53,217,30,10,61,282,36,06,43,199,31,8*72
$GBGSV,2,2,06,26,44,306,36,29,66,043,36,8*74
$GBGSV,2,1,05,02,30,222,30,07,73,297,38,09,53,217,38,10,61,282,39,B*03
$GBGSV,2,2,05,06,43,199,37,B*34
$GAGSV,2,1,06,26,16,038,24,31,71,083,37,33,59,071,39,16,21,304,22,1*76
$GAGSV,2,2,06,24,47,311,36,05,07,276,17,1*77
$GAGSV,2,1,06,26,16,038,30,31,71,083,39,33,59,071,40,16,21,304,31,2*72
$GAGSV,2,2,06,24,47,311,37,05,07,276,19,2*7B
$GAGSV,2,1,05,26,16,038,37,31,71,083,45,33,59,071,45,16,21,304,33,7*7F
$GAGSV,2,2,05,24,47,311,41,7*45
$GNGGA,030216.00,3958.87374656,N,11628.60501120,E,4,23,0.7,35.7354,M,-8.1437,M,1.0,1828*7C
$GNRMC,030216.00,D,3958.87374656,N,11628.60501120,E,0.004,129.3,080425,7.2,W,R,S*55
$GPGSV,2,1,08,01,66,141,42,02,58,061,48,08,37,061,45,10,06,035,38,1*68
$GPGSV,2,2,08,17,30,263,22,13,06,298,26,30,50,257,42,14,42,309,40,1*60
$GPGSV,2,1,07,01,66,141,42,02,58,061,39,08,37,061,35,10,06,035,32,4*69
$GPGSV,2,2,07,17,30,263,23,30,50,257,34,14,42,309,38,4*56
$GPGSV,2,1,05,01,66,141,41,08,37,061,35,10,06,035,31,30,50,257,40,8*67
$GPGSV,2,2,05,14,42,309,38,8*5A
$GLGSV,2,1,05,84,14,034,31,86,50,223,39,76,41,326,43,75,72,128,45,1*79
$GLGSV,2,2,05,85,65,022,45,1*42
$GLGSV,2,1,05,84,14,034,38,86,50,223,33,76,41,326,36,75,72,128,38,3*70
$GLGSV,2,2,05,85,65,022,34,3*46
$GBGSV,2,1,07,02,30,222,35,07,73,297,44,09,53,217,30,10,61,282,38,1*75
$GBGSV,2,2,07,06,43,199,33,26,44,306,36,29,66,043,44,1*49
$GBGSV,2,1,06,07,73,297,35,09,53,217,30,10,61,282,35,06,43,199,31,8*71
$GBGSV,2,2,06,26,44,306,36,29,66,043,36,8*74
$GBGSV,2,1,05,02,30,222,32,07,73,297,38,09,53,217,38,10,61,282,38,B*00
$GBGSV,2,2,05,06,43,199,37,B*34
$GAGSV,2,1,06,26,16,038,23,31,71,083,37,33,59,071,39,16,21,304,22,1*71
$GAGSV,2,2,06,24,47,311,36,05,07,276,17,1*77
$GAGSV,2,1,06,26,16,038,30,31,71,083,39,33,59,071,40,16,21,304,31,2*72
$GAGSV,2,2,06,24,47,311,37,05,07,276,18,2*7A
$GAGSV,2,1,05,26,16,038,37,31,71,083,45,33,59,071,45,16,21,304,34,7*78
$GAGSV,2,2,05,24,47,311,41,7*45
$GNGGA,030217.00,3958.87374901,N,11628.60500688,E,4,23,0.7,35.7503,M,-8.1437,M,1.0,1828*70
$GNRMC,030217.00,D,3958.87374901,N,11628.60500688,E,0.004,149.7,080425,7.2,W,R,S*5F
$GPGSV,2,1,08,01,66,141,43,02,58,061,48,08,37,061,45,10,06,035,38,1*69
$GPGSV,2,2,08,17,30,263,22,13,06,298,25,30,50,257,43,14,42,309,40,1*62
$GPGSV,2,1,07,01,66,141,41,02,58,061,39,08,37,061,35,10,06,035,32,4*6A
$GPGSV,2,2,07,17,30,263,24,30,50,257,34,14,42,309,38,4*51
$GPGSV,2,1,05,01,66,141,40,08,37,061,35,10,06,035,31,30,50,257,40,8*66
$GPGSV,2,2,05,14,42,309,38,8*5A
$GLGSV,2,1,05,84,14,034,32,86,50,223,39,76,41,326,43,75,72,128,45,1*7A
$GLGSV,2,2,05,85,65,022,45,1*42
$GLGSV,2,1,05,84,14,034,38,86,50,223,32,76,41,326,36,75,72,128,38,3*71
$GLGSV,2,2,05,85,65,022,34,3*46
$GBGSV,2,1,07,02,30,222,35,07,73,297,44,09,53,217,31,10,61,282,38,1*74
$GBGSV,2,2,07,06,43,199,33,26,44,306,37,29,66,043,44,1*48
$GBGSV,2,1,06,07,73,297,35,09,53,217,30,10,61,282,35,06,43,199,31,8*71
$GBGSV,2,2,06,26,44,306,36,29,66,043,35,8*77
