NMEA,GNSS_20B_W24.42.1_Q FL_22B_W24.01.5,1744089400000
NMEA,$RD_RSSI, 614, 761, 0, 0,1744089400000
NMEA,$GPGGA,051643.236,3954.796345,N,11627.054774,E,1,14,1.416,122.176,M,0,M,,*71,1744089403236
NMEA,$GPRMC,051643.236,A,3954.796345,N,11627.054774,E,4.586,267.501,080425,,E,A*2D,1744089403236
NMEA,$GPGLL,3954.796345,N,11627.054774,E,051643.236,A,A*5C,1744089403236
NMEA,$GPGSA,A,3,22,17,14,194,19,195,3,,,,,,2.947,1.416,2.585*0B,1744089403236
NMEA,$BDGSA,A,3,207,210,,,,,,,,,,,2.947,1.416,2.585*25,1744089403236
NMEA,$GAGSA,A,3,118,104,110,105,119,,,,,,,,2.947,1.416,2.585*13,1744089403236
NMEA,$GPGSV,4,1,16,22,75,268,32.5,17,69,346,33.4,14,68,187,34.5,194,53,140,34.9*4B,1744089403236
NMEA,$GPGSV,4,2,16,3,46,83,40.0,19,45,300,31.2,195,70,91,44.0,1,33,48,0.0*43,1744089403236
NMEA,$GPGSV,4,3,16,2,7,55,0.0,6,30,238,0.0,11,1,233,0.0,24,7,312,0.0*72,1744089403236
NMEA,$GPGSV,4,4,16,30,6,203,0.0,193,1,,0.0,196,18,144,0.0,47,1,,0.0*44,1744089403236
NMEA,$BDGSV,4,1,16,207,82,341,38.4,210,70,307,30.8,203,42,189,41.0,212,21,266,26.1*60,1744089403236
NMEA,$BDGSV,4,2,16,201,35,140,0.0,202,30,222,0.0,204,26,123,0.0,205,14,246,0.0*68,1744089403236
NMEA,$BDGSV,4,3,16,206,11,203,0.0,208,24,177,0.0,209,19,215,0.0,213,14,187,0.0*6E,1744089403236
NMEA,$BDGSV,4,4,16,216,6,195,0.0,219,23,106,0.0,220,17,56,0.0,222,6,155,0.0*5D,1744089403236
NMEA,$GAGSV,3,1,9,118,78,200,29.7,104,76,248,34.7,110,64,298,34.7,105,47,233,32.7*52,1744089403236
NMEA,$GAGSV,3,2,9,119,39,311,30.0,106,75,32,0.0,124,4,261,0.0,125,29,147,0.0*6E,1744089403236
NMEA,$GAGSV,3,3,9,127,32,51,0.0*4E,1744089403236
NMEA,$GPVTG,267.501,T,,M,4.586,N,8.493,K,A*03,1744089403236
NMEA,$RD_RSSI, 629, 751, 0, 0,1744089403236
NMEA,$GPGGA,051644.236,3954.793042,N,11627.049322,E,1,16,1.211,105.831,M,0,M,,*70,1744089404236
NMEA,$GPRMC,051644.236,A,3954.793042,N,11627.049322,E,5.763,266.277,080425,,E,A*2F,1744089404236
NMEA,$GPGLL,3954.793042,N,11627.049322,E,051644.236,A,A*51,1744089404236
NMEA,$GPGSA,A,3,22,17,14,194,19,195,3,,,,,,2.125,1.211,1.746*08,1744089404236
NMEA,$BDGSA,A,3,207,210,203,209,,,,,,,,,2.125,1.211,1.746*2C,1744089404236
NMEA,$GAGSA,A,3,118,104,110,105,119,,,,,,,,2.125,1.211,1.746*10,1744089404236
NMEA,$GPGSV,4,1,16,22,75,268,34.2,17,69,346,32.2,14,68,187,31.0,194,53,140,34.7*43,1744089404236
NMEA,$GPGSV,4,2,16,19,45,300,32.5,1,33,48,24.6,195,70,91,44.2,3,46,83,39.0*7B,1744089404236
NMEA,$GPGSV,4,3,16,2,7,55,0.0,6,30,238,0.0,11,1,233,0.0,24,7,312,0.0*72,1744089404236
NMEA,$GPGSV,4,4,16,30,6,203,0.0,193,1,,0.0,196,18,144,0.0,47,1,,0.0*44,1744089404236
NMEA,$BDGSV,4,1,16,207,82,341,37.7,210,70,307,31.0,203,42,189,42.2,209,19,215,17.2*60,1744089404236
NMEA,$BDGSV,4,2,16,212,21,266,31.2,229,19,70,31.0,201,35,140,0.0,202,30,222,0.0*5C,1744089404236
NMEA,$BDGSV,4,3,16,204,26,123,0.0,205,14,246,0.0,206,11,203,0.0,208,24,177,0.0*60,1744089404236
NMEA,$BDGSV,4,4,16,213,14,187,0.0,216,6,195,0.0,219,23,106,0.0,220,17,56,0.0*63,1744089404236
NMEA,$GAGSV,3,1,9,118,78,200,31.2,104,76,248,34.4,110,64,298,33.2,105,47,233,30.2*58,1744089404236
NMEA,$GAGSV,3,2,9,119,39,311,31.2,106,74,32,0.0,124,4,261,0.0,125,29,147,0.0*6C,1744089404236
NMEA,$GAGSV,3,3,9,127,32,51,0.0*4E,1744089404236
NMEA,$GPVTG,266.277,T,,M,5.763,N,10.673,K,A*39,1744089404236
NMEA,$RD_RSSI, 645, 766, 0, 0,1744089404236
NMEA,$GPGGA,051645.236,3954.793449,N,11627.048054,E,1,19,1.088,95.730,M,0,M,,*46,1744089405236
NMEA,$GPRMC,051645.236,A,3954.793449,N,11627.048054,E,6.925,267.780,080425,,E,A*21,1744089405236
NMEA,$GPGLL,3954.793449,N,11627.048054,E,051645.236,A,A*5C,1744089405236
NMEA,$GPGSA,A,3,22,17,194,19,195,14,3,,,,,,2.051,1.088,1.738*01,1744089405236
NMEA,$BDGSA,A,3,207,210,203,209,235,226,,,,,,,2.051,1.088,1.738*27,1744089405236
NMEA,$GAGSA,A,3,118,104,106,110,105,119,,,,,,,2.051,1.088,1.738*2E,1744089405236
NMEA,$GPGSV,4,1,16,22,75,268,35.4,17,69,346,31.2,14,68,187,34.2,194,53,140,35.5*43,1744089405236
NMEA,$GPGSV,4,2,16,19,45,300,32.5,1,33,48,24.2,195,70,91,44.0,3,46,83,38.2*7E,1744089405236
NMEA,$GPGSV,4,3,16,2,7,55,0.0,6,30,238,0.0,11,1,233,0.0,24,7,312,0.0*72,1744089405236
NMEA,$GPGSV,4,4,16,30,6,203,0.0,193,1,,0.0,196,18,144,0.0,47,1,,0.0*44,1744089405236
NMEA,$BDGSV,4,1,16,207,82,341,37.5,210,70,307,32.7,203,42,189,41.5,209,19,215,13.8*6C,1744089405236
NMEA,$BDGSV,4,2,16,212,21,266,29.6,240,71,39,27.3,235,70,14,23.7,226,44,224,29.3*62,1744089405236
NMEA,$BDGSV,4,3,16,238,37,171,31.6,224,36,294,0.5,229,19,70,27.8,201,35,140,0.0*56,1744089405236
NMEA,$BDGSV,4,4,16,202,30,222,0.0,204,26,123,0.0,205,14,246,0.0,206,11,203,0.0*6B,1744089405236
NMEA,$GAGSV,3,1,9,118,78,200,30.8,104,76,248,34.2,106,74,32,10.1,110,64,298,33.7*61,1744089405236
NMEA,$GAGSV,3,2,9,105,47,233,29.5,119,39,311,35.7,124,4,261,0.0,125,29,147,0.0*63,1744089405236
NMEA,$GAGSV,3,3,9,127,32,51,0.0*4E,1744089405236
NMEA,$GPVTG,267.780,T,,M,6.925,N,12.825,K,A*35,1744089405236
NMEA,$RD_RSSI, 653, 744, 0, 0,1744089405236
NMEA,$GPGGA,051646.236,3954.793900,N,11627.045362,E,1,20,1.044,90.348,M,0,M,,*4A,1744089406236
NMEA,$GPRMC,051646.236,A,3954.793900,N,11627.045362,E,7.683,267.612,080425,,E,A*21,1744089406236
NMEA,$GPGLL,3954.793900,N,11627.045362,E,051646.236,A,A*54,1744089406236
NMEA,$GPGSA,A,3,22,17,194,19,195,14,3,,,,,,1.986,1.044,1.689*0A,1744089406236
NMEA,$BDGSA,A,3,207,210,203,209,235,226,224,,,,,,1.986,1.044,1.689*18,1744089406236
NMEA,$GAGSA,A,3,118,104,106,110,105,119,,,,,,,1.986,1.044,1.689*25,1744089406236
NMEA,$GPGSV,4,1,16,22,75,268,35.2,17,69,346,31.8,194,53,140,34.7,19,45,300,33.2*44,1744089406236
NMEA,$GPGSV,4,2,16,1,33,48,26.7,195,70,91,43.7,14,68,187,32.5,3,46,83,38.2*76,1744089406236
NMEA,$GPGSV,4,3,16,196,18,144,25.3,2,7,55,0.0,6,30,238,0.0,11,1,233,0.0*41,1744089406236
NMEA,$GPGSV,4,4,16,24,7,312,0.0,30,6,203,0.0,193,1,,0.0,47,1,,0.0*43,1744089406236
NMEA,$BDGSV,4,1,16,207,82,341,37.9,210,70,307,33.4,203,42,189,39.0,209,19,215,15.5*63,1744089406236
NMEA,$BDGSV,4,2,16,212,21,266,29.5,240,71,39,26.6,235,70,14,35.7,226,44,224,32.5*6E,1744089406236
NMEA,$BDGSV,4,3,16,238,37,171,36.4,224,36,293,25.8,229,19,70,35.0,201,35,140,0.0*65,1744089406236
NMEA,$BDGSV,4,4,16,202,30,222,0.0,204,26,123,0.0,205,14,246,0.0,206,11,203,0.0*6B,1744089406236
NMEA,$GAGSV,3,1,9,118,78,200,30.1,104,76,248,34.4,106,74,32,11.8,110,64,298,32.4*64,1744089406236
NMEA,$GAGSV,3,2,9,105,47,233,30.7,119,39,311,37.2,124,4,261,0.0,125,29,147,0.0*6E,1744089406236
NMEA,$GAGSV,3,3,9,127,32,51,0.0*4E,1744089406236
NMEA,$GPVTG,267.612,T,,M,7.683,N,14.229,K,A*3D,1744089406236
NMEA,$RD_RSSI, 647, 777, 0, 0,1744089406236
NMEA,$GPGGA,051647.236,3954.794880,N,11627.042217,E,1,19,1.039,89.603,M,0,M,,*43,1744089406236
NMEA,$GPRMC,051647.236,A,3954.794880,N,11627.042217,E,8.113,268.130,080425,,E,A*23,1744089407236
NMEA,$GPGLL,3954.794880,N,11627.042217,E,051647.236,A,A*5F,1744089407236
NMEA,$GPGSA,A,3,22,17,194,19,195,14,3,196,,,,,1.883,1.039,1.569*37,1744089407236
NMEA,$BDGSA,A,3,207,210,203,235,226,,,,,,,,1.883,1.039,1.569*14,1744089407236
NMEA,$GAGSA,A,3,118,104,106,110,105,119,,,,,,,1.883,1.039,1.569*26,1744089407236
NMEA,$GPGSV,4,1,16,22,75,268,35.2,17,69,346,31.6,194,53,140,30.6,19,45,300,34.2*48,1744089407236
NMEA,$GPGSV,4,2,16,1,33,48,32.2,195,70,91,44.0,14,68,187,32.0,3,46,83,39.4*74,1744089407236
NMEA,$GPGSV,4,3,16,196,18,144,22.5,2,7,55,0.0,6,30,238,0.0,11,1,233,0.0*40,1744089407236
NMEA,$GPGSV,4,4,16,24,7,312,0.0,30,6,203,0.0,193,1,,0.0,47,1,,0.0*43,1744089407236
NMEA,$BDGSV,4,1,16,207,82,341,37.5,210,70,307,33.0,203,42,189,32.5,209,19,215,15.8*68,1744089407236
NMEA,$BDGSV,4,2,16,212,21,266,29.2,240,71,39,25.1,235,70,14,39.7,226,44,224,32.7*63,1744089407236
NMEA,$BDGSV,4,3,16,238,37,171,39.9,224,36,293,27.2,229,19,70,33.4,201,35,140,0.0*6D,1744089407236
NMEA,$BDGSV,4,4,16,202,30,222,0.0,204,26,123,0.0,205,14,246,0.0,206,11,203,0.0*6B,1744089407236
NMEA,$GAGSV,3,1,9,118,78,200,28.7,104,76,248,34.0,106,74,32,23.2,110,64,298,33.0*61,1744089407236
NMEA,$GAGSV,3,2,9,105,47,233,30.6,119,39,311,35.5,124,4,261,0.0,125,29,147,0.0*6A,1744089407236
NMEA,$GAGSV,3,3,9,127,32,51,0.0*4E,1744089407236
NMEA,$GPVTG,268.130,T,,M,8.113,N,15.027,K,A*39,1744089407236
NMEA,$RD_RSSI, 624, 738, 0, 0,1744089407236
NMEA,$GPGGA,051648.236,3954.795366,N,11627.038455,E,1,19,1.040,89.761,M,0,M,,*48,1744089407236
NMEA,$GPRMC,051648.236,A,3954.795366,N,11627.038455,E,8.595,268.599,080425,,E,A*2E,1744089408236
NMEA,$GPGLL,3954.795366,N,11627.038455,E,051648.236,A,A*5F,1744089408236
NMEA,$GPGSA,A,3,22,17,194,19,195,14,3,196,,,,,1.780,1.040,1.445*3A,1744089408236
NMEA,$BDGSA,A,3,207,210,203,235,226,224,,,,,,,1.780,1.040,1.445*2D,1744089408236
NMEA,$GAGSA,A,3,118,104,110,105,119,,,,,,,,1.780,1.040,1.445*1C,1744089408236
NMEA,$GPGSV,4,1,16,22,75,268,34.7,17,69,346,30.7,194,53,140,27.2,19,45,300,34.0*4C,1744089408236
NMEA,$GPGSV,4,2,16,1,33,48,32.4,195,70,91,43.9,14,68,187,35.7,3,46,83,39.5*7D,1744089408236
NMEA,$GPGSV,4,3,16,196,18,144,19.3,6,30,238,18.0,2,7,55,0.0,11,1,233,0.0*77,1744089408236
NMEA,$GPGSV,4,4,16,24,7,312,0.0,30,6,203,0.0,193,1,,0.0,47,1,,0.0*43,1744089408236
NMEA,$BDGSV,4,1,16,207,82,341,37.0,210,70,307,32.0,203,42,189,28.2,209,19,215,15.3*6B,1744089408236
NMEA,$BDGSV,4,2,16,212,21,266,28.1,240,71,39,33.5,235,70,14,39.2,226,44,224,31.6*65,1744089408236
NMEA,$BDGSV,4,3,16,238,37,171,40.0,224,36,293,25.1,229,19,70,32.7,201,35,140,0.0*69,1744089408236
NMEA,$BDGSV,4,4,16,202,30,222,0.0,204,26,123,0.0,205,14,246,0.0,206,11,203,0.0*6B,1744089408236
NMEA,$GAGSV,3,1,9,118,78,200,26.8,104,76,248,33.4,106,74,32,33.2,110,64,298,33.2*60,1744089408236
NMEA,$GAGSV,3,2,9,105,47,233,30.6,119,39,311,35.4,124,4,261,0.0,125,29,147,0.0*6B,1744089408236
NMEA,$GAGSV,3,3,9,127,32,51,0.0*4E,1744089408236
NMEA,$GPVTG,268.599,T,,M,8.595,N,15.918,K,A*31,1744089408236
NMEA,$RD_RSSI, 645, 801, 0, 0,1744089408236
NMEA,$GPGGA,051649.236,3954.795352,N,11627.034064,E,1,17,1.123,89.265,M,0,M,,*4F,1744089409236
NMEA,$GPRMC,051649.236,A,3954.795352,N,11627.034064,E,8.980,268.763,080425,,E,A*2D,1744089409236
NMEA,$GPGLL,3954.795352,N,11627.034064,E,051649.236,A,A*53,1744089409236
NMEA,$GPGSA,A,3,22,17,194,19,195,14,3,196,,,,,1.941,1.123,1.583*36,1744089409236
NMEA,$BDGSA,A,3,207,210,235,226,,,,,,,,,1.941,1.123,1.583*24,1744089409236
NMEA,$GAGSA,A,3,118,104,110,105,119,,,,,,,,1.941,1.123,1.583*10,1744089409236
NMEA,$GPGSV,4,1,16,22,75,268,34.9,17,69,346,32.7,194,53,140,23.5,19,45,300,35.5*47,1744089409236
NMEA,$GPGSV,4,2,16,1,33,48,29.0,195,70,91,42.9,14,68,187,34.2,3,46,83,38.4*76,1744089409236
NMEA,$GPGSV,4,3,16,196,18,144,22.6,2,7,55,0.0,6,30,238,0.0,11,1,233,0.0*43,1744089409236
NMEA,$GPGSV,4,4,16,24,7,312,0.0,30,6,203,0.0,193,1,,0.0,47,1,,0.0*43,1744089409236
NMEA,$BDGSV,4,1,16,207,82,341,35.2,210,70,307,33.9,203,42,189,37.0,209,19,215,15.0*6C,1744089409236
NMEA,$BDGSV,4,2,16,212,21,266,29.2,240,71,39,38.7,235,70,14,38.2,226,44,224,31.2*6B,1744089409236
NMEA,$BDGSV,4,3,16,238,37,171,33.9,224,36,293,26.3,229,19,70,30.2,201,35,140,0.0*62,1744089409236
NMEA,$BDGSV,4,4,16,202,30,222,0.0,204,26,123,0.0,205,14,246,0.0,206,11,203,0.0*6B,1744089409236
NMEA,$GAGSV,3,1,9,118,78,200,30.2,104,76,248,33.9,106,74,32,31.6,110,64,298,33.2*66,1744089409236
NMEA,$GAGSV,3,2,9,105,47,233,32.7,119,39,311,32.7,124,4,261,0.0,125,29,147,0.0*6C,1744089409236
NMEA,$GAGSV,3,3,9,127,32,51,0.0*4E,1744089409236
NMEA,$GPVTG,268.763,T,,M,8.980,N,16.631,K,A*39,1744089409236
NMEA,$RD_RSSI, 622, 768, 0, 0,1744089409236
NMEA,$GPGGA,051650.236,3954.795393,N,11627.029723,E,1,18,1.151,90.158,M,0,M,,*4D,1744089410236
NMEA,$GPRMC,051650.236,A,3954.795393,N,11627.029723,E,9.357,268.359,080425,,E,A*2C,1744089410236
NMEA,$GPGLL,3954.795393,N,11627.029723,E,051650.236,A,A*5E,1744089410236
NMEA,$GPGSA,A,3,22,17,194,19,195,14,3,196,,,,,2.245,1.151,1.927*3D,1744089410236
NMEA,$BDGSA,A,3,207,210,203,235,226,,,,,,,,2.245,1.151,1.927*1E,1744089410236
NMEA,$GAGSA,A,3,118,104,106,110,105,,,,,,,,2.245,1.151,1.927*15,1744089410236
NMEA,$GPGSV,4,1,16,22,75,268,35.2,17,69,346,29.8,194,53,140,21.7,19,45,300,31.7*4E,1744089410236
NMEA,$GPGSV,4,2,16,1,33,48,26.5,195,70,91,44.5,14,68,187,34.7,3,46,83,39.5*73,1744089410236
NMEA,$GPGSV,4,3,16,196,18,144,20.2,2,7,55,0.0,6,30,238,0.0,11,1,233,0.0*45,1744089410236
NMEA,$GPGSV,4,4,16,24,7,312,0.0,30,6,203,0.0,193,1,,0.0,47,1,,0.0*43,1744089410236
NMEA,$BDGSV,4,1,16,207,82,341,38.2,210,70,307,34.0,203,42,189,38.5,209,19,215,14.6*62,1744089410236
NMEA,$BDGSV,4,2,16,212,21,266,31.2,240,71,39,40.5,235,70,14,39.9,226,44,224,30.7*61,1744089410236
NMEA,$BDGSV,4,3,16,238,37,171,27.2,224,36,293,26.8,229,19,70,30.1,201,35,140,0.0*64,1744089410236
NMEA,$BDGSV,4,4,16,202,30,222,0.0,204,26,123,0.0,205,14,246,0.0,206,11,203,0.0*6B,1744089410236
NMEA,$GAGSV,3,1,9,118,78,200,29.0,104,76,248,32.0,106,74,32,32.0,110,64,298,33.2*61,1744089410236
NMEA,$GAGSV,3,2,9,105,47,233,31.7,119,39,311,30.6,124,4,261,0.0,125,29,147,0.0*6C,1744089410236
NMEA,$GAGSV,3,3,9,127,32,51,0.0*4E,1744089410236
NMEA,$GPVTG,268.359,T,,M,9.357,N,17.330,K,A*30,1744089410236
NMEA,$RD_RSSI, 649, 773, 0, 0,1744089410236
NMEA,$GPGGA,051651.236,3954.794942,N,11627.025643,E,1,19,0.964,92.664,M,0,M,,*44,1744089411236
NMEA,$GPRMC,051651.236,A,3954.794942,N,11627.025643,E,9.457,268.058,080425,,E,A*24,1744089411236
NMEA,$GPGLL,3954.794942,N,11627.025643,E,051651.236,A,A*53,1744089411236
NMEA,$GPGSA,A,3,22,17,194,19,1,195,14,3,196,,,,1.722,0.964,1.427*09,1744089411236
NMEA,$BDGSA,A,3,207,210,235,226,224,,,,,,,,1.722,0.964,1.427*1E,1744089411236
NMEA,$GAGSA,A,3,118,104,106,110,105,,,,,,,,1.722,0.964,1.427*10,1744089411236
NMEA,$GPGSV,4,1,16,22,75,268,33.9,17,69,346,31.3,194,53,140,24.0,19,45,300,30.2*47,1744089411236
NMEA,$GPGSV,4,2,16,1,33,48,23.7,195,70,91,45.0,14,68,187,34.5,3,46,83,39.7*70,1744089411236
NMEA,$GPGSV,4,3,16,196,18,144,19.3,2,7,55,0.0,6,30,238,0.0,11,1,233,0.0*4E,1744089411236
NMEA,$GPGSV,4,4,16,24,7,312,0.0,30,6,203,0.0,193,1,,0.0,47,1,,0.0*43,1744089411236
NMEA,$BDGSV,4,1,16,207,82,341,37.9,210,70,307,33.0,203,42,189,18.7,212,21,266,33.0*67,1744089411236
NMEA,$BDGSV,4,2,16,240,71,39,41.2,235,70,14,38.5,226,44,224,31.2,238,37,171,23.7*62,1744089411236
NMEA,$BDGSV,4,3,16,224,36,293,27.6,229,19,70,28.7,201,35,140,0.0,202,30,222,0.0*58,1744089411236
NMEA,$BDGSV,4,4,16,204,26,123,0.0,205,14,246,0.0,206,11,203,0.0,208,24,177,0.0*67,1744089411236
NMEA,$GAGSV,3,1,9,118,78,200,26.6,104,76,248,31.2,106,74,32,32.9,110,64,298,31.6*66,1744089411236
NMEA,$GAGSV,3,2,9,105,47,233,29.5,119,39,311,27.8,124,4,261,0.0,125,29,147,0.0*6F,1744089411236
NMEA,$GAGSV,3,3,9,127,32,51,0.0*4E,1744089411236
NMEA,$GPVTG,268.058,T,,M,9.457,N,17.515,K,A*34,1744089411236
NMEA,$RD_RSSI, 667, 772, 0, 0,1744089411236
NMEA,$GPGGA,051652.236,3954.794503,N,11627.021439,E,1,18,1.102,93.858,M,0,M,,*4D,1744089412236
NMEA,$GPRMC,051652.236,A,3954.794503,N,11627.021439,E,9.530,267.743,080425,,E,A*27,1744089412236
NMEA,$GPGLL,3954.794503,N,11627.021439,E,051652.236,A,A*52,1744089412236
NMEA,$GPGSA,A,3,22,17,194,1,195,14,3,196,,,,,1.837,1.102,1.469*09,1744089412236
NMEA,$BDGSA,A,3,207,210,235,226,224,,,,,,,,1.837,1.102,1.469*16,1744089412236
NMEA,$GAGSA,A,3,118,104,106,110,105,,,,,,,,1.837,1.102,1.469*18,1744089412236
NMEA,$GPGSV,4,1,16,22,75,268,33.7,17,69,346,32.5,194,53,140,31.1,19,45,300,28.8*4A,1744089412236
NMEA,$GPGSV,4,2,16,1,33,48,21.5,195,70,91,44.9,14,68,187,34.2,3,46,83,39.5*7D,1744089412236
NMEA,$GPGSV,4,3,16,196,18,144,13.1,2,7,55,0.0,6,30,238,0.0,11,1,233,0.0*46,1744089412236
NMEA,$GPGSV,4,4,16,24,7,312,0.0,30,6,203,0.0,193,1,,0.0,47,1,,0.0*43,1744089412236
NMEA,$BDGSV,4,1,16,207,82,341,36.9,210,70,307,32.5,203,42,189,18.1,212,21,266,31.7*61,1744089412236
NMEA,$BDGSV,4,2,16,240,71,39,40.7,235,70,14,38.0,226,44,224,27.6,238,37,171,16.1*60,1744089412236
NMEA,$BDGSV,4,3,16,224,36,293,25.2,229,19,70,26.8,201,35,140,0.0,202,30,222,0.0*5F,1744089412236
NMEA,$BDGSV,4,4,16,204,26,123,0.0,205,14,246,0.0,206,11,203,0.0,208,24,177,0.0*67,1744089412236
NMEA,$GAGSV,3,1,9,118,78,200,25.3,104,76,248,31.8,106,74,32,34.0,110,64,298,32.0*60,1744089412236
NMEA,$GAGSV,3,2,9,105,47,233,30.1,119,39,311,27.1,124,4,261,0.0,125,29,147,0.0*6A,1744089412236
NMEA,$GAGSV,3,3,9,127,32,51,0.0*4E,1744089412236
NMEA,$GPVTG,267.743,T,,M,9.530,N,17.651,K,A*35,1744089412236
NMEA,$RD_RSSI, 642, 778, 0, 0,1744089412236
NMEA,$GPGGA,051653.236,3954.792920,N,11627.015351,E,1,18,1.102,91.550,M,0,M,,*4E,1744089413236
NMEA,$GPRMC,051653.236,A,3954.792920,N,11627.015351,E,13.701,268.671,080425,,E,A*17,1744089413236
NMEA,$GPGLL,3954.792920,N,11627.015351,E,051653.236,A,A*56,1744089413236
NMEA,$GPGSA,A,3,22,17,194,1,195,14,3,196,,,,,1.837,1.102,1.469*09,1744089413236
NMEA,$BDGSA,A,3,207,210,235,226,224,,,,,,,,1.837,1.102,1.469*16,1744089413236
NMEA,$GAGSA,A,3,118,104,106,110,105,,,,,,,,1.837,1.102,1.469*18,1744089413236
NMEA,$GPGSV,4,1,16,22,75,268,34.4,17,69,346,32.7,194,53,140,32.0,19,45,300,29.7*40,1744089413236
NMEA,$GPGSV,4,2,16,1,33,48,19.7,195,70,91,44.0,14,68,187,32.5,3,46,83,39.5*7C,1744089413236
NMEA,$GPGSV,4,3,16,196,18,144,14.8,2,7,55,0.0,6,30,238,0.0,11,1,233,0.0*48,1744089413236
NMEA,$GPGSV,4,4,16,24,7,312,0.0,30,6,203,0.0,193,1,,0.0,47,1,,0.0*43,1744089413236
NMEA,$BDGSV,4,1,16,207,82,341,36.7,210,70,307,33.5,212,21,266,29.0,240,71,39,40.5*54,1744089413236
NMEA,$BDGSV,4,2,16,235,70,14,36.5,226,44,224,27.3,238,37,171,13.6,224,36,293,26.5*5D,1744089413236
NMEA,$BDGSV,4,3,16,229,19,70,25.5,201,35,140,0.0,202,30,222,0.0,203,42,189,0.0*6A,1744089413236
NMEA,$BDGSV,4,4,16,204,26,123,0.0,205,14,246,0.0,206,11,203,0.0,208,24,177,0.0*67,1744089413236
NMEA,$GAGSV,3,1,9,118,78,200,29.2,104,76,248,33.9,106,74,32,34.7,110,64,298,34.2*6D,1744089413236
NMEA,$GAGSV,3,2,9,105,47,233,33.5,119,39,311,27.2,124,4,261,0.0,125,29,147,0.0*6E,1744089413236
NMEA,$GAGSV,3,3,9,127,32,51,0.0*4E,1744089413236
NMEA,$GPVTG,268.671,T,,M,13.701,N,25.375,K,A*03,1744089413236
NMEA,$RD_RSSI, 635, 746, 0, 0,1744089413236
NMEA,$GPGGA,051654.236,3954.791574,N,11627.007649,E,1,19,0.964,84.906,M,0,M,,*4B,1744089414236
NMEA,$GPRMC,051654.236,A,3954.791574,N,11627.007649,E,14.726,267.577,080425,,E,A*19,1744089414236
NMEA,$GPGLL,3954.791574,N,11627.007649,E,051654.236,A,A*50,1744089414236
NMEA,$GPGSA,A,3,22,17,194,19,1,195,14,3,196,,,,1.722,0.964,1.427*09,1744089414236
NMEA,$BDGSA,A,3,207,210,235,226,224,,,,,,,,1.722,0.964,1.427*1E,1744089414236
NMEA,$GAGSA,A,3,118,104,106,110,105,,,,,,,,1.722,0.964,1.427*10,1744089414236
NMEA,$GPGSV,4,1,16,22,75,268,33.5,17,69,346,34.0,194,53,140,33.0,19,45,300,27.1*4E,1744089414236
NMEA,$GPGSV,4,2,16,1,33,48,16.0,195,70,91,44.4,14,68,187,32.5,3,46,83,39.2*77,1744089414236
NMEA,$GPGSV,4,3,16,196,18,144,14.8,2,7,55,0.0,6,30,238,0.0,11,1,233,0.0*48,1744089414236
NMEA,$GPGSV,4,4,16,24,7,312,0.0,30,6,203,0.0,193,1,,0.0,47,1,,0.0*43,1744089414236
NMEA,$BDGSV,4,1,16,207,82,341,38.0,210,70,307,32.9,203,42,189,6.9,212,21,266,29.0*53,1744089414236
NMEA,$BDGSV,4,2,16,240,71,39,41.0,235,70,14,35.5,226,44,224,39.7,238,37,171,13.3*67,1744089414236
NMEA,$BDGSV,4,3,16,224,36,293,34.2,229,19,70,22.6,201,35,140,0.0,202,30,222,0.0*55,1744089414236
NMEA,$BDGSV,4,4,16,204,26,123,0.0,205,14,246,0.0,206,11,203,0.0,208,24,177,0.0*67,1744089414236
NMEA,$GAGSV,3,1,9,118,78,200,27.7,104,76,248,32.7,106,74,32,35.4,110,64,298,33.7*69,1744089414236
NMEA,$GAGSV,3,2,9,105,47,233,33.7,119,39,311,24.3,124,4,261,0.0,125,29,147,0.0*6E,1744089414236
NMEA,$GAGSV,3,3,9,127,32,51,0.0*4E,1744089414236
NMEA,$GPVTG,267.577,T,,M,14.726,N,27.274,K,A*09,1744089414236
NMEA,$RD_RSSI, 592, 744, 0, 0,1744089414236
NMEA,$GPGGA,051655.236,3954.790888,N,11627.000162,E,1,18,1.102,77.766,M,0,M,,*40,1744089415236
NMEA,$GPRMC,051655.236,A,3954.790888,N,11627.000162,E,16.198,268.128,080425,,E,A*1E,1744089415236
NMEA,$GPGLL,3954.790888,N,11627.000162,E,051655.236,A,A*57,1744089415236
NMEA,$GPGSA,A,3,22,17,194,1,195,14,3,196,,,,,1.837,1.102,1.469*09,1744089415236
NMEA,$BDGSA,A,3,207,210,235,226,224,,,,,,,,1.837,1.102,1.469*16,1744089415236
NMEA,$GAGSA,A,3,118,104,106,110,105,,,,,,,,1.837,1.102,1.469*18,1744089415236
NMEA,$GPGSV,4,1,16,22,75,268,34.0,17,69,346,35.9,42,38,145,32.0,194,53,140,33.5*43,1744089415236
NMEA,$GPGSV,4,2,16,19,45,300,24.7,1,33,48,16.1,195,70,90,43.5,14,68,187,31.2*7C,1744089415236
NMEA,$GPGSV,4,3,16,3,46,83,38.2,196,18,144,16.2,2,7,55,0.0,6,30,238,0.0*40,1744089415236
NMEA,$GPGSV,4,4,16,11,1,233,0.0,24,7,312,0.0,30,6,203,0.0,193,1,,0.0*72,1744089415236
NMEA,$BDGSV,4,1,16,207,82,341,35.7,210,70,307,34.0,203,42,189,14.1,212,21,266,33.4*62,1744089415236
NMEA,$BDGSV,4,2,16,240,71,39,40.7,235,70,14,37.7,226,44,224,39.5,238,37,171,12.1*60,1744089415236
NMEA,$BDGSV,4,3,16,224,36,293,39.7,229,19,70,22.5,201,35,140,0.0,202,30,222,0.0*5E,1744089415236
NMEA,$BDGSV,4,4,16,204,26,123,0.0,205,14,246,0.0,206,11,203,0.0,208,24,177,0.0*67,1744089415236
NMEA,$GAGSV,3,1,9,118,78,200,31.0,104,76,248,35.2,106,74,32,33.4,110,64,298,33.5*6F,1744089415236
NMEA,$GAGSV,3,2,9,105,47,233,29.7,119,39,311,19.8,124,4,261,0.0,125,29,147,0.0*60,1744089415236
NMEA,$GAGSV,3,3,9,127,32,51,0.0*4E,1744089415236
NMEA,$GPVTG,268.128,T,,M,16.198,N,29.999,K,A*0F,1744089415236
NMEA,$RD_RSSI, 643, 749, 0, 0,1744089415236
NMEA,$GPGGA,051656.236,3954.790920,N,11626.992988,E,1,18,1.102,74.634,M,0,M,,*4A,1744089416236
NMEA,$GPRMC,051656.236,A,3954.790920,N,11626.992988,E,17.074,269.658,080425,,E,A*12,1744089416236
NMEA,$GPGLL,3954.790920,N,11626.992988,E,051656.236,A,A*58,1744089416236
NMEA,$GPGSA,A,3,22,17,194,1,195,14,3,196,,,,,1.837,1.102,1.469*09,1744089416236
NMEA,$BDGSA,A,3,207,210,235,226,224,,,,,,,,1.837,1.102,1.469*16,1744089416236
NMEA,$GAGSA,A,3,118,104,106,110,105,,,,,,,,1.837,1.102,1.469*18,1744089416236
NMEA,$GPGSV,4,1,16,22,75,268,33.4,17,69,346,32.0,42,38,145,30.2,194,53,140,34.5*49,1744089416236
NMEA,$GPGSV,4,2,16,19,45,300,22.5,1,33,48,15.6,2,7,55,0.5,195,70,90,44.2*79,1744089416236
NMEA,$GPGSV,4,3,16,14,68,187,33.2,3,46,83,38.5,196,18,144,30.5,6,30,238,0.0*46,1744089416236
NMEA,$GPGSV,4,4,16,11,1,233,0.0,24,7,312,0.0,30,6,203,0.0,193,1,,0.0*72,1744089416236
NMEA,$BDGSV,4,1,16,207,82,341,36.5,210,70,307,33.2,203,42,189,42.0,212,21,266,31.2*60,1744089416236
NMEA,$BDGSV,4,2,16,240,71,39,40.5,235,70,14,36.4,226,44,224,33.7,238,37,171,13.6*6E,1744089416236
NMEA,$BDGSV,4,3,16,224,36,293,38.9,229,19,70,21.7,201,35,140,0.0,202,30,222,0.0*50,1744089416236
NMEA,$BDGSV,4,4,16,204,26,123,0.0,205,14,246,0.0,206,11,203,0.0,208,24,177,0.0*67,1744089416236
NMEA,$GAGSV,3,1,9,118,78,200,29.7,104,76,248,35.0,106,74,32,33.0,110,64,298,33.0*62,1744089416236
NMEA,$GAGSV,3,2,9,105,47,234,24.2,119,39,311,19.6,124,4,261,0.0,125,29,147,0.0*61,1744089416236
NMEA,$GAGSV,3,3,9,127,32,51,0.0*4E,1744089416236
NMEA,$GPVTG,269.658,T,,M,17.074,N,31.622,K,A*0A,1744089416236
NMEA,$RD_RSSI, 660, 788, 0, 0,1744089416236
NMEA,$GPGGA,051657.235,3954.791151,N,11626.985720,E,1,19,1.042,72.965,M,0,M,,*44,1744089417235
NMEA,$GPRMC,051657.235,A,3954.791151,N,11626.985720,E,17.561,268.104,080425,,E,A*1B,1744089417235
NMEA,$GPGLL,3954.791151,N,11626.985720,E,051657.235,A,A*5F,1744089417235
NMEA,$GPGSA,A,3,22,17,194,1,195,14,3,196,,,,,1.801,1.042,1.469*09,1744089417235
NMEA,$BDGSA,A,3,207,210,203,235,226,224,,,,,,,1.801,1.042,1.469*27,1744089417235
NMEA,$GAGSA,A,3,118,104,106,110,105,,,,,,,,1.801,1.042,1.469*18,1744089417235
NMEA,$GPGSV,4,1,16,22,75,268,34.2,17,69,346,31.1,42,38,145,29.6,194,53,140,37.5*45,1744089417235
NMEA,$GPGSV,4,2,16,19,45,300,20.7,1,33,48,22.5,195,70,90,44.2,14,68,187,34.0*7C,1744089417235
NMEA,$GPGSV,4,3,16,3,46,83,38.5,196,18,144,36.0,2,7,55,0.0,6,30,238,0.0*47,1744089417235
NMEA,$GPGSV,4,4,16,11,1,233,0.0,24,7,312,0.0,30,6,203,0.0,193,1,,0.0*72,1744089417235
NMEA,$BDGSV,4,1,16,207,82,341,36.0,210,70,307,34.0,203,42,189,42.2,208,24,177,30.8*64,1744089417235
NMEA,$BDGSV,4,2,16,212,21,266,30.7,213,14,187,29.2,240,71,39,40.9,235,70,14,36.4*6F,1744089417235
NMEA,$BDGSV,4,3,16,226,44,224,28.7,238,37,171,35.5,224,36,293,39.2,229,19,70,22.7*5E,1744089417235
NMEA,$BDGSV,4,4,16,201,35,140,0.0,202,30,222,0.0,204,26,123,0.0,205,14,246,0.0*6E,1744089417235
NMEA,$GAGSV,3,1,9,118,78,200,28.2,104,76,248,35.0,106,74,32,34.4,110,64,298,31.0*67,1744089417235
NMEA,$GAGSV,3,2,9,105,47,234,19.2,119,39,311,19.7,124,4,261,0.0,125,29,147,0.0*6E,1744089417235
NMEA,$GAGSV,3,3,9,127,32,51,0.0*4E,1744089417235
NMEA,$GPVTG,268.104,T,,M,17.561,N,32.523,K,A*05,1744089417235
NMEA,$RD_RSSI, 661, 786, 0, 0,1744089417235
NMEA,$GPGGA,051658.235,3954.791129,N,11626.978883,E,1,20,1.021,73.349,M,0,M,,*4A,1744089418235
NMEA,$GPRMC,051658.235,A,3954.791129,N,11626.978883,E,17.657,270.102,080425,,E,A*16,1744089418235
NMEA,$GPGLL,3954.791129,N,11626.978883,E,051658.235,A,A*5B,1744089418235
NMEA,$GPGSA,A,3,22,17,194,1,195,14,3,196,,,,,1.679,1.021,1.333*05,1744089418235
NMEA,$BDGSA,A,3,207,210,203,209,235,226,224,,,,,,1.679,1.021,1.333*10,1744089418235
NMEA,$GAGSA,A,3,118,104,106,110,105,,,,,,,,1.679,1.021,1.333*14,1744089418235
NMEA,$GPGSV,4,1,16,22,75,268,32.9,17,69,346,29.6,42,38,145,20.8,194,53,140,36.9*4C,1744089418235
NMEA,$GPGSV,4,2,16,19,45,300,40.5,1,33,48,20.7,195,70,90,44.4,14,68,187,35.0*7F,1744089418235
NMEA,$GPGSV,4,3,16,3,46,83,37.0,196,18,144,34.7,2,7,55,0.0,6,30,238,0.0*48,1744089418235
NMEA,$GPGSV,4,4,16,11,1,233,0.0,24,7,312,0.0,30,6,203,0.0,193,1,,0.0*72,1744089418235
NMEA,$BDGSV,4,1,16,207,82,341,36.7,210,70,307,32.0,203,42,189,41.9,209,19,215,15.1*6B,1744089418235
NMEA,$BDGSV,4,2,16,208,24,177,29.8,212,21,266,27.7,213,14,187,28.6,240,71,39,41.2*5F,1744089418235
NMEA,$BDGSV,4,3,16,235,70,14,36.7,226,44,224,25.8,238,37,171,37.9,224,36,293,34.0*58,1744089418235
NMEA,$BDGSV,4,4,16,229,19,70,22.2,201,35,140,0.0,202,30,222,0.0,204,26,123,0.0*68,1744089418235
NMEA,$GAGSV,3,1,9,118,78,200,24.6,104,76,248,33.4,106,74,32,34.2,110,64,298,25.6*68,1744089418235
NMEA,$GAGSV,3,2,9,105,47,234,18.1,119,39,311,14.5,124,4,261,0.0,125,29,147,0.0*63,1744089418235
NMEA,$GAGSV,3,3,9,127,32,51,0.0*4E,1744089418235
NMEA,$GPVTG,270.102,T,,M,17.657,N,32.701,K,A*0E,1744089418235
NMEA,$RD_RSSI, 678, 783, 0, 0,1744089418235
NMEA,$GPGGA,051659.235,3954.790893,N,11626.972567,E,1,21,0.901,73.812,M,0,M,,*41,1744089419235
NMEA,$GPRMC,051659.235,A,3954.790893,N,11626.972567,E,17.009,269.980,080425,,E,A*14,1744089419235
NMEA,$GPGLL,3954.790893,N,11626.972567,E,051659.235,A,A*5E,1744089419235
NMEA,$GPGSA,A,3,22,17,194,19,1,195,14,3,196,,,,1.583,0.901,1.301*00,1744089419235
NMEA,$BDGSA,A,3,207,210,203,209,235,226,224,,,,,,1.583,0.901,1.301*1D,1744089419235
NMEA,$GAGSA,A,3,118,104,106,110,105,,,,,,,,1.583,0.901,1.301*19,1744089419235
NMEA,$GPGSV,4,1,16,22,75,268,32.7,17,69,347,27.2,42,38,145,5.5,194,53,140,37.4*7F,1744089419235
NMEA,$GPGSV,4,2,16,19,45,300,43.0,1,33,48,28.0,195,70,90,43.9,14,68,187,34.5*78,1744089419235
NMEA,$GPGSV,4,3,16,3,46,83,37.2,196,18,144,33.7,2,7,55,0.0,6,30,238,0.0*4D,1744089419235
NMEA,$GPGSV,4,4,16,11,1,233,0.0,24,7,312,0.0,30,6,203,0.0,193,1,,0.0*72,1744089419235
NMEA,$BDGSV,4,1,16,207,82,341,36.0,210,70,307,27.7,203,42,189,41.5,209,19,215,16.1*60,1744089419235
NMEA,$BDGSV,4,2,16,208,24,177,30.7,212,21,266,26.1,213,14,187,25.8,240,71,39,41.5*5B,1744089419235
NMEA,$BDGSV,4,3,16,235,70,14,37.5,226,44,224,25.5,238,37,171,38.2,224,36,293,29.6*58,1744089419235
NMEA,$BDGSV,4,4,16,229,19,70,21.8,201,35,140,0.0,202,30,222,0.0,204,26,123,0.0*61,1744089419235
NMEA,$GAGSV,3,1,9,118,78,200,24.2,104,76,248,32.2,106,74,32,34.4,110,64,298,22.8*64,1744089419235
NMEA,$GAGSV,3,2,9,105,47,234,13.8,119,39,311,9.8,124,4,261,0.0,125,29,147,0.0*50,1744089419235
NMEA,$GAGSV,3,3,9,127,32,51,0.0*4E,1744089419235
NMEA,$GPVTG,269.980,T,,M,17.009,N,31.501,K,A*08,1744089419235
NMEA,$RD_RSSI, 642, 757, 0, 0,1744089419235
NMEA,$GPGGA,051700.235,3954.790407,N,11626.966583,E,1,21,0.901,74.090,M,0,M,,*47,1744089420235
NMEA,$GPRMC,051700.235,A,3954.790407,N,11626.966583,E,16.187,270.431,080425,,E,A*1E,1744089420235
NMEA,$GPGLL,3954.790407,N,11626.966583,E,051700.235,A,A*5D,1744089420235
NMEA,$GPGSA,A,3,22,17,194,19,1,195,14,3,196,,,,1.583,0.901,1.301*00,1744089420235
NMEA,$BDGSA,A,3,207,210,203,209,235,226,224,,,,,,1.583,0.901,1.301*1D,1744089420235
NMEA,$GAGSA,A,3,118,104,106,110,105,,,,,,,,1.583,0.901,1.301*19,1744089420235
NMEA,$GPGSV,4,1,16,22,75,268,34.2,17,69,347,25.8,42,38,145,12.1,194,53,140,38.5*48,1744089420235
NMEA,$GPGSV,4,2,16,19,45,300,38.9,1,33,48,32.2,195,70,90,43.7,14,68,187,34.5*7A,1744089420235
NMEA,$GPGSV,4,3,16,3,46,83,37.2,196,18,144,34.4,2,7,55,0.0,6,30,238,0.0*49,1744089420235
NMEA,$GPGSV,4,4,16,11,1,233,0.0,24,7,312,0.0,30,6,203,0.0,193,1,,0.0*72,1744089420235
NMEA,$BDGSV,4,1,16,207,82,341,37.0,210,70,307,25.2,203,42,189,41.2,209,19,215,15.6*65,1744089420235
NMEA,$BDGSV,4,2,16,208,24,177,30.7,212,21,266,24.7,213,14,187,23.6,240,71,39,41.5*57,1744089420235
NMEA,$BDGSV,4,3,16,235,70,14,37.2,226,44,224,26.1,238,37,171,37.7,224,36,293,24.7*5E,1744089420235
NMEA,$BDGSV,4,4,16,229,19,70,16.6,201,35,140,0.0,202,30,222,0.0,204,26,123,0.0*6B,1744089420235
NMEA,$GAGSV,3,1,9,118,78,200,28.2,104,76,248,32.5,106,74,32,34.4,110,64,298,21.7*63,1744089420235
NMEA,$GAGSV,3,2,9,105,47,234,19.2,119,39,311,9.1,124,4,261,0.0,125,29,147,0.0*59,1744089420235
NMEA,$GAGSV,3,3,9,127,32,51,0.0*4E,1744089420235
NMEA,$GPVTG,270.431,T,,M,16.187,N,29.978,K,A*0A,1744089420235
NMEA,$RD_RSSI, 640, 809, 0, 0,1744089420235
NMEA,$GPGGA,051701.235,3954.790288,N,11626.961050,E,1,21,0.901,74.781,M,0,M,,*4C,1744089420235
NMEA,$GPRMC,051701.235,A,3954.790288,N,11626.961050,E,16.328,269.498,080425,,E,A*1E,1744089421235
NMEA,$GPGLL,3954.790288,N,11626.961050,E,051701.235,A,A*51,1744089421235
NMEA,$GPGSA,A,3,22,17,194,19,1,195,14,3,196,,,,1.583,0.901,1.301*00,1744089421235
NMEA,$BDGSA,A,3,207,210,203,209,235,226,224,,,,,,1.583,0.901,1.301*1D,1744089421235
NMEA,$GAGSA,A,3,118,104,106,110,105,,,,,,,,1.583,0.901,1.301*19,1744089421235
NMEA,$GPGSV,4,1,16,22,75,268,34.0,17,69,347,21.1,42,38,145,28.8,194,53,140,39.2*41,1744089421235
NMEA,$GPGSV,4,2,16,19,45,300,33.7,1,33,48,33.2,195,70,90,43.5,14,68,187,35.7*7F,1744089421235
NMEA,$GPGSV,4,3,16,3,46,83,36.5,196,18,144,28.5,2,7,55,0.0,6,30,238,0.0*43,1744089421235
NMEA,$GPGSV,4,4,16,11,1,233,0.0,24,7,312,0.0,30,6,203,0.0,193,1,,0.0*72,1744089421235
NMEA,$BDGSV,4,1,16,207,82,341,37.7,210,70,307,22.8,203,42,189,39.7,209,19,215,15.5*66,1744089421235
NMEA,$BDGSV,4,2,16,208,24,177,31.0,212,21,266,27.1,213,14,187,20.2,240,71,39,41.5*53,1744089421235
NMEA,$BDGSV,4,3,16,235,70,14,36.0,226,44,224,26.6,238,37,171,37.2,224,36,293,31.7*5B,1744089421235
NMEA,$BDGSV,4,4,16,229,19,70,21.7,201,35,140,0.0,202,30,222,0.0,204,26,123,0.0*6E,1744089421235
NMEA,$GAGSV,3,1,9,118,78,200,32.5,104,76,248,32.7,106,74,32,34.4,110,64,298,24.2*6D,1744089421235
NMEA,$GAGSV,3,2,9,105,47,234,27.0,119,39,311,9.6,124,4,261,0.0,125,29,147,0.0*51,1744089421235
NMEA,$GAGSV,3,3,9,127,32,51,0.0*4E,1744089421235
NMEA,$GPVTG,269.498,T,,M,16.328,N,30.239,K,A*00,1744089421235
NMEA,$RD_RSSI, 710, 861, 0, 0,1744089421235
NMEA,$GPGGA,051702.235,3954.790200,N,11626.955211,E,1,21,0.901,74.501,M,0,M,,*45,1744089422235
NMEA,$GPRMC,051702.235,A,3954.790200,N,11626.955211,E,15.425,266.997,080425,,E,A*19,1744089422235
NMEA,$GPGLL,3954.790200,N,11626.955211,E,051702.235,A,A*52,1744089422235
NMEA,$GPGSA,A,3,22,17,194,19,1,195,14,3,196,,,,1.583,0.901,1.301*00,1744089422235
NMEA,$BDGSA,A,3,207,210,203,209,235,226,224,,,,,,1.583,0.901,1.301*1D,1744089422235
NMEA,$GAGSA,A,3,118,104,106,110,105,,,,,,,,1.583,0.901,1.301*19,1744089422235
NMEA,$GPGSV,4,1,16,22,75,268,34.5,17,69,347,26.8,42,38,145,30.7,194,53,140,39.2*4C,1744089422235
NMEA,$GPGSV,4,2,16,19,45,300,30.7,1,33,48,33.7,195,70,90,43.5,14,68,187,36.0*7D,1744089422235
NMEA,$GPGSV,4,3,16,3,46,83,37.0,196,18,144,23.6,2,7,55,0.0,6,30,238,0.0*4F,1744089422235
NMEA,$GPGSV,4,4,16,11,1,233,0.0,24,7,312,0.0,30,6,203,0.0,193,1,,0.0*72,1744089422235
NMEA,$BDGSV,4,1,16,207,82,341,37.9,210,70,307,21.7,203,42,189,34.0,209,19,215,15.3*68,1744089422235
NMEA,$BDGSV,4,2,16,208,24,177,28.6,212,21,266,28.0,213,14,187,18.5,240,71,39,41.5*5F,1744089422235
NMEA,$BDGSV,4,3,16,235,70,14,34.9,226,44,224,32.5,238,37,171,36.7,224,36,293,37.0*53,1744089422235
NMEA,$BDGSV,4,4,16,229,19,70,19.2,201,35,140,0.0,202,30,222,0.0,204,26,123,0.0*60,1744089422235
NMEA,$GAGSV,3,1,9,118,78,200,31.3,104,76,248,32.9,106,74,32,34.2,110,64,298,26.7*67,1744089422235
NMEA,$GAGSV,3,2,9,105,47,234,31.3,119,39,311,0.0,124,4,261,0.0,125,29,147,0.0*5A,1744089422235
NMEA,$GAGSV,3,3,9,127,32,51,0.0*4E,1744089422235
NMEA,$GPVTG,266.997,T,,M,15.425,N,28.567,K,A*01,1744089422235
NMEA,$RD_RSSI, 666, 805, 0, 0,1744089422235
NMEA,$GPGGA,051703.235,3954.790123,N,11626.949599,E,1,20,0.935,73.719,M,0,M,,*46,1744089423235
NMEA,$GPRMC,051703.235,A,3954.790123,N,11626.949599,E,15.785,267.402,080425,,E,A*19,1744089423235
NMEA,$GPGLL,3954.790123,N,11626.949599,E,051703.235,A,A*5B,1744089423235
NMEA,$GPGSA,A,3,22,17,194,19,1,195,14,3,196,,,,1.607,0.935,1.306*0F,1744089423235
NMEA,$BDGSA,A,3,207,210,209,235,226,224,,,,,,,1.607,0.935,1.306*23,1744089423235
NMEA,$GAGSA,A,3,118,104,106,110,105,,,,,,,,1.607,0.935,1.306*16,1744089423235
NMEA,$GPGSV,4,1,16,22,75,268,34.9,17,69,347,27.8,42,38,145,30.5,194,53,140,38.9*49,1744089423235
NMEA,$GPGSV,4,2,16,19,45,300,29.8,1,33,48,32.0,195,70,90,44.0,14,68,187,32.5*7F,1744089423235
NMEA,$GPGSV,4,3,16,3,46,83,37.7,196,18,144,22.3,2,7,55,0.0,6,30,238,0.0*4C,1744089423235
NMEA,$GPGSV,4,4,16,11,1,233,0.0,24,7,312,0.0,30,6,203,0.0,193,1,,0.0*72,1744089423235
NMEA,$BDGSV,4,1,16,207,82,341,36.9,210,70,307,20.7,203,42,189,32.0,209,19,215,15.0*6D,1744089423235
NMEA,$BDGSV,4,2,16,208,24,177,24.7,212,21,266,28.3,213,14,187,8.6,240,71,39,41.2*64,1744089423235
NMEA,$BDGSV,4,3,16,235,70,14,29.2,226,44,224,32.7,238,37,171,32.7,224,36,293,36.7*54,1744089423235
NMEA,$BDGSV,4,4,16,229,19,70,19.0,201,35,140,0.0,202,30,222,0.0,204,26,123,0.0*62,1744089423235
NMEA,$GAGSV,3,1,9,118,78,200,33.2,104,76,249,32.2,106,74,32,33.9,110,64,298,31.1*62,1744089423235
NMEA,$GAGSV,3,2,9,105,47,234,27.0,119,39,311,22.2,124,4,261,0.0,125,29,147,0.0*6C,1744089423235
NMEA,$GAGSV,3,3,9,127,32,51,0.0*4E,1744089423235
NMEA,$GPVTG,267.402,T,,M,15.785,N,29.235,K,A*09,1744089423235
NMEA,$RD_RSSI, 655, 759, 0, 0,1744089423235
NMEA,$GPGGA,051704.235,3954.789968,N,11626.944189,E,1,21,0.901,73.928,M,0,M,,*4C,1744089423235
NMEA,$GPRMC,051704.235,A,3954.789968,N,11626.944189,E,15.493,270.478,080425,,E,A*16,1744089424235
NMEA,$GPGLL,3954.789968,N,11626.944189,E,051704.235,A,A*5B,1744089424235
NMEA,$GPGSA,A,3,22,17,194,19,1,195,14,3,196,,,,1.583,0.901,1.301*00,1744089424235
NMEA,$BDGSA,A,3,207,210,203,209,235,226,224,,,,,,1.583,0.901,1.301*1D,1744089424235
NMEA,$GAGSA,A,3,118,104,106,110,105,,,,,,,,1.583,0.901,1.301*19,1744089424235
NMEA,$GPGSV,4,1,16,22,75,268,33.9,17,69,347,29.7,42,38,145,33.5,194,53,140,38.2*47,1744089424235
NMEA,$GPGSV,4,2,16,19,45,300,40.0,1,33,48,30.1,30,6,203,16.5,195,70,90,43.5*4E,1744089424235
NMEA,$GPGSV,4,3,16,14,68,187,34.7,3,46,83,36.5,196,18,144,21.7,2,7,55,0.0*41,1744089424235
NMEA,$GPGSV,4,4,16,6,30,238,0.0,11,1,233,0.0,24,7,312,0.0,193,1,,0.0*7A,1744089424235
NMEA,$BDGSV,4,1,16,207,82,341,37.0,210,70,307,26.6,203,42,189,31.7,209,19,215,14.6*61,1744089424235
NMEA,$BDGSV,4,2,16,208,24,177,23.0,212,21,266,30.2,240,71,39,38.5,235,70,14,31.0*64,1744089424235
NMEA,$BDGSV,4,3,16,226,44,224,32.2,238,37,171,32.2,224,36,293,39.7,229,19,70,19.2*58,1744089424235
NMEA,$BDGSV,4,4,16,201,35,140,0.0,202,30,222,0.0,204,26,123,0.0,205,14,246,0.0*6E,1744089424235
NMEA,$GAGSV,3,1,9,118,78,200,35.7,104,76,249,31.3,106,74,32,30.7,110,64,298,33.0*6D,1744089424235
NMEA,$GAGSV,3,2,9,105,47,234,24.5,119,39,311,19.8,124,4,261,0.0,125,29,147,0.0*68,1744089424235
NMEA,$GAGSV,3,3,9,127,32,51,0.0*4E,1744089424235
NMEA,$GPVTG,270.478,T,,M,15.493,N,28.693,K,A*0F,1744089424235
NMEA,$RD_RSSI, 652, 765, 0, 0,1744089424235
NMEA,$GPGGA,051705.135,3954.790364,N,11626.939481,E,1,20,0.941,73.830,M,0,M,,*4A,1744089425135
NMEA,$GPRMC,051705.135,A,3954.790364,N,11626.939481,E,14.168,270.176,080425,,E,A*16,1744089425135
NMEA,$GPGLL,3954.790364,N,11626.939481,E,051705.135,A,A*50,1744089425135
NMEA,$GPGSA,A,3,22,17,194,19,1,195,14,3,,,,,1.739,0.941,1.462*3B,1744089425135
NMEA,$BDGSA,A,3,207,210,203,209,235,226,224,,,,,,1.739,0.941,1.462*18,1744089425135
NMEA,$GAGSA,A,3,118,104,106,110,105,,,,,,,,1.739,0.941,1.462*1C,1744089425135
NMEA,$GPGSV,4,1,16,22,75,268,33.9,17,69,347,28.1,42,38,145,35.9,194,53,140,39.0*49,1744089425135
NMEA,$GPGSV,4,2,16,19,45,300,40.2,1,33,48,32.0,195,70,90,43.9,14,68,187,37.7*73,1744089425135
NMEA,$GPGSV,4,3,16,3,46,83,36.0,196,18,144,16.3,2,7,55,0.0,6,30,238,0.0*4D,1744089425135
NMEA,$GPGSV,4,4,16,11,1,233,0.0,24,7,312,0.0,30,6,203,0.0,193,1,,0.0*72,1744089425135
NMEA,$BDGSV,4,1,16,207,82,341,37.0,210,70,307,29.1,203,42,189,31.1,209,19,215,14.3*6A,1744089425135
NMEA,$BDGSV,4,2,16,208,24,177,22.0,212,21,266,30.2,240,71,39,33.2,235,70,14,30.1*69,1744089425135
NMEA,$BDGSV,4,3,16,226,44,224,29.6,238,37,171,30.7,224,36,293,37.7,229,19,70,22.7*52,1744089425135
NMEA,$BDGSV,4,4,16,201,35,140,0.0,202,30,222,0.0,204,26,123,0.0,205,14,246,0.0*6E,1744089425135
NMEA,$GAGSV,3,1,9,118,78,200,35.5,104,76,249,31.7,106,74,32,25.6,110,64,298,33.2*6C,1744089425135
NMEA,$GAGSV,3,2,9,105,47,234,19.7,119,39,311,21.6,124,4,261,0.0,125,29,147,0.0*61,1744089425135
NMEA,$GAGSV,3,3,9,127,32,51,0.0*4E,1744089425135
NMEA,$GPVTG,270.176,T,,M,14.168,N,26.239,K,A*0E,1744089425135
NMEA,$RD_RSSI, 657, 770, 0, 0,1744089425135
NMEA,$GPGGA,051706.035,3954.790645,N,11626.935243,E,1,21,0.901,73.989,M,0,M,,*4C,1744089426035
NMEA,$GPRMC,051706.035,A,3954.790645,N,11626.935243,E,13.090,269.117,080425,,E,A*18,1744089426035
NMEA,$GPGLL,3954.790645,N,11626.935243,E,051706.035,A,A*50,1744089426035
NMEA,$GPGSA,A,3,22,17,194,19,1,195,14,3,,,,,1.635,0.901,1.364*33,1744089426035
NMEA,$BDGSA,A,3,207,210,203,209,235,226,224,,,,,,1.635,0.901,1.364*10,1744089426035
NMEA,$GAGSA,A,3,118,104,106,110,105,119,,,,,,,1.635,0.901,1.364*2D,1744089426035
NMEA,$GPGSV,4,1,16,22,75,268,34.5,17,69,347,27.0,42,38,145,36.7,194,53,140,39.2*43,1744089426035
NMEA,$GPGSV,4,2,16,19,45,300,41.0,1,33,48,29.7,195,70,90,44.4,14,68,187,38.5*7A,1744089426035
NMEA,$GPGSV,4,3,16,3,46,83,36.7,196,18,144,17.2,2,7,55,0.0,6,30,238,0.0*4A,1744089426035
NMEA,$GPGSV,4,4,16,11,1,233,0.0,24,7,312,0.0,30,6,203,0.0,193,1,,0.0*72,1744089426035
NMEA,$BDGSV,4,1,16,207,82,341,37.5,210,70,307,29.3,203,42,189,36.5,209,19,215,8.0*50,1744089426035
NMEA,$BDGSV,4,2,16,208,24,177,21.7,212,21,266,31.7,240,71,39,29.3,235,70,14,27.8*6C,1744089426035
NMEA,$BDGSV,4,3,16,226,44,224,28.6,238,37,171,31.8,224,36,293,34.0,229,19,70,23.1*5E,1744089426035
NMEA,$BDGSV,4,4,16,201,35,140,0.0,202,30,222,0.0,204,26,123,0.0,205,14,246,0.0*6E,1744089426035
NMEA,$GAGSV,3,1,9,118,78,200,33.0,104,76,249,32.0,106,74,32,21.5,110,64,298,32.2*6D,1744089426035
NMEA,$GAGSV,3,2,9,105,47,234,18.8,119,39,311,26.7,124,4,261,0.0,125,29,147,0.0*69,1744089426035
NMEA,$GAGSV,3,3,9,127,32,51,0.0*4E,1744089426035
NMEA,$GPVTG,269.117,T,,M,13.090,N,24.243,K,A*0F,1744089426035
NMEA,$RD_RSSI, 647, 777, 0, 0,1744089426035
NMEA,$GPGGA,051707.000,3954.790840,N,11626.930976,E,1,21,0.901,74.746,M,0,M,,*42,1744089427000
NMEA,$GPRMC,051707.000,A,3954.790840,N,11626.930976,E,11.469,270.942,080425,,E,A*1C,1744089427000
NMEA,$GPGLL,3954.790840,N,11626.930976,E,051707.000,A,A*54,1744089427000
NMEA,$GPGSA,A,3,22,17,194,19,1,195,14,3,,,,,1.635,0.901,1.364*33,1744089427000
NMEA,$BDGSA,A,3,207,210,203,209,235,226,224,,,,,,1.635,0.901,1.364*10,1744089427000
NMEA,$GAGSA,A,3,118,104,106,110,105,119,,,,,,,1.635,0.901,1.364*2D,1744089427000
NMEA,$GPGSV,4,1,16,22,75,268,34.5,17,69,347,24.6,42,38,145,34.0,194,53,140,38.2*42,1744089427000
NMEA,$GPGSV,4,2,16,19,45,300,41.9,1,33,48,31.8,195,70,90,44.2,14,68,187,37.0*79,1744089427000
NMEA,$GPGSV,4,3,16,3,46,83,37.2,196,18,144,18.3,2,7,55,0.0,6,30,238,0.0*40,1744089427000
NMEA,$GPGSV,4,4,16,11,1,233,0.0,24,7,312,0.0,30,6,203,0.0,193,1,,0.0*72,1744089427000
NMEA,$BDGSV,4,1,16,207,82,341,37.2,210,70,307,29.5,203,42,189,26.3,209,19,215,7.4*5D,1744089427000
NMEA,$BDGSV,4,2,16,208,24,177,21.1,212,21,266,31.5,240,71,39,29.2,235,70,14,26.7*67,1744089427000
NMEA,$BDGSV,4,3,16,226,44,224,26.6,238,37,171,32.0,224,36,293,31.2,229,19,70,22.2*5E,1744089427000
NMEA,$BDGSV,4,4,16,201,35,140,0.0,202,30,222,0.0,204,26,123,0.0,205,14,246,0.0*6E,1744089427000
NMEA,$GAGSV,3,1,9,118,78,200,33.0,104,76,249,31.2,106,74,32,19.2,110,64,298,31.1*60,1744089427000
NMEA,$GAGSV,3,2,9,105,47,234,14.6,119,39,311,36.5,124,4,261,0.0,125,29,147,0.0*68,1744089427000
NMEA,$GAGSV,3,3,9,127,32,51,0.0*4E,1744089427000
NMEA,$GPVTG,270.942,T,,M,11.469,N,21.240,K,A*09,1744089427000
NMEA,$RD_RSSI, 664, 791, 0, 0,1744089427000
NMEA,$GPGGA,051708.000,3954.790896,N,11626.927090,E,1,20,0.939,75.236,M,0,M,,*48,1744089427000
NMEA,$GPRMC,051708.000,A,3954.790896,N,11626.927090,E,11.206,278.662,080425,,E,A*15,1744089428000
NMEA,$GPGLL,3954.790896,N,11626.927090,E,051708.000,A,A*57,1744089428000
NMEA,$GPGSA,A,3,22,17,194,19,1,195,14,3,,,,,1.660,0.939,1.368*34,1744089428000
NMEA,$BDGSA,A,3,207,210,209,235,226,224,,,,,,,1.660,0.939,1.368*26,1744089428000
NMEA,$GAGSA,A,3,118,104,106,110,105,119,,,,,,,1.660,0.939,1.368*2A,1744089428000
NMEA,$GPGSV,4,1,16,22,75,268,35.5,17,69,347,23.5,42,38,145,32.2,194,53,140,34.7*4A,1744089428000
NMEA,$GPGSV,4,2,16,19,45,300,40.0,1,33,48,34.7,195,70,90,44.0,14,68,187,34.4*7E,1744089428000
NMEA,$GPGSV,4,3,16,3,46,83,38.2,196,18,144,26.2,2,7,55,0.0,6,30,238,0.0*43,1744089428000
NMEA,$GPGSV,4,4,16,11,1,233,0.0,24,7,312,0.0,30,6,203,0.0,193,1,,0.0*72,1744089428000
NMEA,$BDGSV,4,1,16,207,82,341,36.9,210,70,307,29.8,203,42,189,20.6,209,19,215,6.8*54,1744089428000
NMEA,$BDGSV,4,2,16,206,11,203,15.3,208,24,177,14.5,212,21,266,32.0,240,71,39,26.2*5B,1744089428000
NMEA,$BDGSV,4,3,16,235,70,14,32.7,226,44,224,26.7,238,37,171,34.2,224,36,293,29.8*5C,1744089428000
NMEA,$BDGSV,4,4,16,229,19,70,20.8,201,35,140,0.0,202,30,222,0.0,204,26,123,0.0*60,1744089428000
NMEA,$GAGSV,3,1,9,118,78,200,31.5,104,76,249,31.7,106,74,32,21.7,110,64,298,29.7*63,1744089428000
NMEA,$GAGSV,3,2,9,105,47,234,14.1,119,39,311,34.7,124,4,261,0.0,125,29,147,0.0*6F,1744089428000
NMEA,$GAGSV,3,3,9,127,32,52,0.0*4D,1744089428000
NMEA,$GPVTG,278.662,T,,M,11.206,N,20.755,K,A*03,1744089428000
NMEA,$RD_RSSI, 696, 754, 0, 0,1744089428000
NMEA,$GPGGA,051709.000,3954.791353,N,11626.923131,E,1,20,0.916,76.025,M,0,M,,*4A,1744089429000
NMEA,$GPRMC,051709.000,A,3954.791353,N,11626.923131,E,11.859,274.441,080425,,E,A*16,1744089429000
NMEA,$GPGLL,3954.791353,N,11626.923131,E,051709.000,A,A*5B,1744089429000
NMEA,$GPGSA,A,3,22,17,194,19,1,195,14,3,196,,,,1.599,0.916,1.311*0C,1744089429000
NMEA,$BDGSA,A,3,207,210,235,226,224,,,,,,,,1.599,0.916,1.311*1B,1744089429000
NMEA,$GAGSA,A,3,118,104,106,110,105,119,,,,,,,1.599,0.916,1.311*2C,1744089429000
NMEA,$GPGSV,4,1,16,22,75,268,36.7,17,69,347,24.7,42,38,145,31.5,194,53,140,31.0*48,1744089429000
NMEA,$GPGSV,4,2,16,30,6,203,17.8,19,45,300,35.9,1,33,48,33.0,195,70,90,44.7*4E,1744089429000
NMEA,$GPGSV,4,3,16,14,68,187,33.2,3,46,83,38.4,196,18,144,23.2,2,7,55,0.0*4B,1744089429000
NMEA,$GPGSV,4,4,16,6,30,238,0.0,11,1,233,0.0,24,7,312,0.0,193,1,,0.0*7A,1744089429000
NMEA,$BDGSV,4,1,16,207,82,341,36.7,210,70,307,29.7,203,42,189,27.2,206,11,203,16.2*6D,1744089429000
NMEA,$BDGSV,4,2,16,208,24,177,13.1,212,21,266,29.8,240,71,39,24.5,235,70,14,36.5*6B,1744089429000
NMEA,$BDGSV,4,3,16,226,44,224,27.6,238,37,171,32.0,224,36,293,29.1,229,19,70,20.7*52,1744089429000
NMEA,$BDGSV,4,4,16,201,35,140,0.0,202,30,222,0.0,204,26,123,0.0,205,14,246,0.0*6E,1744089429000
NMEA,$GAGSV,3,1,9,118,78,200,30.7,104,76,249,32.5,106,74,32,26.5,110,64,298,24.7*69,1744089429000
NMEA,$GAGSV,3,2,9,105,47,234,20.2,119,39,311,33.7,124,4,261,0.0,125,29,147,0.0*6C,1744089429000
NMEA,$GAGSV,3,3,9,127,32,52,0.0*4D,1744089429000
NMEA,$GPVTG,274.441,T,,M,11.859,N,21.963,K,A*06,1744089429000
NMEA,$RD_RSSI, 662, 749, 0, 0,1744089429000
NMEA,$GPGGA,051710.000,3954.791681,N,11626.918860,E,1,21,0.784,78.791,M,0,M,,*4F,1744089430000
NMEA,$GPRMC,051710.000,A,3954.791681,N,11626.918860,E,13.698,270.753,080425,,E,A*14,1744089430000
NMEA,$GPGLL,3954.791681,N,11626.918860,E,051710.000,A,A*5C,1744089430000
NMEA,$GPGSA,A,3,22,17,194,19,1,195,14,3,196,,,,1.326,0.784,1.069*07,1744089430000
NMEA,$BDGSA,A,3,207,206,235,226,224,229,,,,,,,1.326,0.784,1.069*2E,1744089430000
NMEA,$GAGSA,A,3,118,104,106,110,105,119,,,,,,,1.326,0.784,1.069*27,1744089430000
NMEA,$GPGSV,4,1,16,22,75,268,36.9,17,69,347,22.6,42,38,145,31.7,194,53,140,29.1*4B,1744089430000
NMEA,$GPGSV,4,2,16,30,6,203,15.3,19,45,300,33.0,1,33,48,31.7,195,70,90,44.4*4E,1744089430000
NMEA,$GPGSV,4,3,16,14,68,187,33.5,3,46,83,37.7,196,18,144,20.5,2,7,55,0.0*44,1744089430000
NMEA,$GPGSV,4,4,16,6,30,238,0.0,11,1,233,0.0,24,7,312,0.0,193,1,,0.0*7A,1744089430000
NMEA,$BDGSV,4,1,16,207,82,341,36.4,210,70,307,29.1,203,42,189,26.7,209,19,215,17.0*6F,1744089430000
NMEA,$BDGSV,4,2,16,206,11,203,17.5,208,24,177,12.3,212,21,266,26.7,240,71,39,34.2*5E,1744089430000
NMEA,$BDGSV,4,3,16,235,70,14,37.0,226,44,224,27.7,238,37,171,29.5,224,36,293,28.6*5B,1744089430000
NMEA,$BDGSV,4,4,16,229,19,70,20.7,201,35,140,0.0,202,30,222,0.0,204,26,123,0.0*6F,1744089430000
NMEA,$GAGSV,3,1,9,118,78,200,33.5,104,76,249,33.0,106,74,32,32.4,110,64,298,23.3*6B,1744089430000
NMEA,$GAGSV,3,2,9,105,47,234,18.7,119,39,311,32.2,124,4,261,0.0,125,29,147,0.0*66,1744089430000
NMEA,$GAGSV,3,3,9,127,32,52,0.0*4D,1744089430000
NMEA,$GPVTG,270.753,T,,M,13.698,N,25.370,K,A*0F,1744089430000
NMEA,$RD_RSSI, 633, 793, 0, 0,1744089430000
NMEA,$GPGGA,051711.000,3954.792251,N,11626.913771,E,1,20,0.832,82.351,M,0,M,,*4E,1744089430000
NMEA,$GPRMC,051711.000,A,3954.792251,N,11626.913771,E,15.070,269.372,080425,,E,A*12,1744089431000
NMEA,$GPGLL,3954.792251,N,11626.913771,E,051711.000,A,A*53,1744089431000
NMEA,$GPGSA,A,3,22,17,194,19,195,14,3,196,,,,,1.403,0.832,1.130*39,1744089431000
NMEA,$BDGSA,A,3,207,206,235,226,224,229,,,,,,,1.403,0.832,1.130*21,1744089431000
NMEA,$GAGSA,A,3,118,104,106,110,105,119,,,,,,,1.403,0.832,1.130*28,1744089431000
NMEA,$GPGSV,4,1,16,22,75,267,36.7,17,69,347,22.2,42,38,145,31.0,194,53,140,26.2*45,1744089431000
NMEA,$GPGSV,4,2,16,19,45,300,32.0,1,33,48,31.0,2,7,55,16.7,195,70,90,43.5*48,1744089431000
NMEA,$GPGSV,4,3,16,14,68,187,34.2,3,46,83,37.9,196,18,144,20.2,6,30,238,0.0*44,1744089431000
NMEA,$GPGSV,4,4,16,11,1,233,0.0,24,7,312,0.0,30,6,203,0.0,193,1,,0.0*72,1744089431000
NMEA,$BDGSV,4,1,16,207,82,341,36.7,210,70,307,26.8,203,42,189,25.2,209,19,215,17.2*6E,1744089431000
NMEA,$BDGSV,4,2,16,206,11,203,17.7,208,24,177,12.5,212,21,266,25.8,240,71,39,38.0*58,1744089431000
NMEA,$BDGSV,4,3,16,235,70,14,36.5,226,44,224,26.2,238,37,171,29.5,224,36,293,26.8*5B,1744089431000
NMEA,$BDGSV,4,4,16,229,19,70,20.6,201,35,140,0.0,202,30,222,0.0,204,26,123,0.0*6E,1744089431000
NMEA,$GAGSV,3,1,9,118,78,200,34.2,104,76,249,33.0,106,74,32,31.7,110,64,298,24.6*69,1744089431000
NMEA,$GAGSV,3,2,9,105,47,234,19.7,119,39,311,31.7,124,4,261,0.0,125,29,147,0.0*61,1744089431000
NMEA,$GAGSV,3,3,9,127,32,52,0.0*4D,1744089431000
NMEA,$GPVTG,269.372,T,,M,15.070,N,27.910,K,A*08,1744089431000
NMEA,$RD_RSSI, 659, 764, 0, 0,1744089431000
NMEA,$GPGGA,051712.000,3954.792249,N,11626.908006,E,1,23,0.729,85.163,M,0,M,,*4B,1744089432000
NMEA,$GPRMC,051712.000,A,3954.792249,N,11626.908006,E,14.444,269.974,080425,,E,A*1B,1744089432000
NMEA,$GPGLL,3954.792249,N,11626.908006,E,051712.000,A,A*54,1744089432000
NMEA,$GPGSA,A,3,22,17,194,30,19,1,2,195,14,3,196,,1.085,0.729,0.804*39,1744089432000
NMEA,$BDGSA,A,3,207,210,206,235,224,229,,,,,,,1.085,0.729,0.804*24,1744089432000
NMEA,$GAGSA,A,3,118,104,106,110,105,119,,,,,,,1.085,0.729,0.804*28,1744089432000
NMEA,$GPGSV,4,1,16,22,75,267,36.7,17,69,347,21.7,42,38,145,28.8,194,53,140,27.2*42,1744089432000
NMEA,$GPGSV,4,2,16,30,6,203,21.6,19,45,300,32.7,1,33,49,29.2,2,7,55,19.6*7B,1744089432000
NMEA,$GPGSV,4,3,16,195,70,90,43.7,14,68,187,35.0,3,46,83,38.9,196,18,144,19.8*47,1744089432000
NMEA,$GPGSV,4,4,16,6,30,238,0.0,11,1,233,0.0,24,7,312,0.0,193,1,,0.0*7A,1744089432000
NMEA,$BDGSV,4,1,16,207,82,342,36.4,210,70,307,24.2,203,42,189,26.0,209,19,215,15.1*66,1744089432000
NMEA,$BDGSV,4,2,16,206,11,203,17.5,208,24,177,14.6,212,21,266,26.0,240,71,39,38.7*53,1744089432000
NMEA,$BDGSV,4,3,16,235,70,14,37.0,226,44,224,34.0,238,37,171,30.0,224,36,293,27.1*5B,1744089432000
NMEA,$BDGSV,4,4,16,229,19,70,20.2,201,35,140,0.0,202,30,222,0.0,204,26,123,0.0*6A,1744089432000
NMEA,$GAGSV,3,1,9,118,78,200,33.5,104,76,249,33.9,106,74,32,33.2,110,64,298,25.7*67,1744089432000
NMEA,$GAGSV,3,2,9,105,47,234,15.3,119,39,311,31.2,124,4,261,0.0,125,29,147,0.0*6C,1744089432000
NMEA,$GAGSV,3,3,9,127,32,52,0.0*4D,1744089432000
NMEA,$GPVTG,269.974,T,,M,14.444,N,26.750,K,A*0D,1744089432000
NMEA,$RD_RSSI, 664, 796, 0, 0,1744089432000
NMEA,$GPGGA,051713.000,3954.791882,N,11626.902116,E,1,21,0.801,87.138,M,0,M,,*45,1744089432000
NMEA,$GPRMC,051713.000,A,3954.791882,N,11626.902116,E,14.673,268.845,080425,,E,A*1A,1744089433000
NMEA,$GPGLL,3954.791882,N,11626.902116,E,051713.000,A,A*51,1744089433000
NMEA,$GPGSA,A,3,22,17,30,19,1,2,195,14,3,196,,,1.173,0.801,0.856*0F,1744089433000
NMEA,$BDGSA,A,3,207,210,206,235,226,224,,,,,,,1.173,0.801,0.856*21,1744089433000
NMEA,$GAGSA,A,3,118,104,106,110,119,,,,,,,,1.173,0.801,0.856*16,1744089433000
NMEA,$GPGSV,4,1,16,22,75,267,36.7,17,69,347,23.8,42,38,145,32.0,194,53,140,39.4*45,1744089433000
NMEA,$GPGSV,4,2,16,30,6,203,21.5,19,45,300,32.9,1,33,49,33.5,2,7,55,18.7*7A,1744089433000
NMEA,$GPGSV,4,3,16,195,70,90,44.0,14,68,187,33.9,3,46,83,38.2,196,18,144,19.7*4C,1744089433000
NMEA,$GPGSV,4,4,16,6,30,238,0.0,11,1,233,0.0,24,7,312,0.0,193,1,,0.0*7A,1744089433000
NMEA,$BDGSV,4,1,16,207,82,342,36.5,210,70,307,22.2,203,42,189,27.2,209,19,215,15.3*60,1744089433000
NMEA,$BDGSV,4,2,16,206,11,203,18.0,208,24,177,21.6,212,21,266,21.7,240,71,39,39.5*5C,1744089433000
NMEA,$BDGSV,4,3,16,235,70,14,38.0,226,44,224,33.5,238,37,171,29.2,224,36,293,26.1*5D,1744089433000
NMEA,$BDGSV,4,4,16,229,19,70,20.2,201,35,140,0.0,202,30,222,0.0,204,26,123,0.0*6A,1744089433000
NMEA,$GAGSV,3,1,9,118,78,200,34.7,104,76,249,32.7,106,74,32,33.5,110,64,298,21.2*6B,1744089433000
NMEA,$GAGSV,3,2,9,105,47,234,16.3,119,39,311,30.0,124,4,261,0.0,125,29,147,0.0*6C,1744089433000
NMEA,$GAGSV,3,3,9,127,32,52,0.0*4D,1744089433000
NMEA,$GPVTG,268.845,T,,M,14.673,N,27.175,K,A*09,1744089433000
NMEA,$RD_RSSI, 666, 791, 0, 0,1744089433000
NMEA,$GPGGA,051714.000,3954.792035,N,11626.895967,E,1,19,1.032,87.370,M,0,M,,*48,1744089433000
NMEA,$GPRMC,051714.000,A,3954.792035,N,11626.895967,E,13.965,264.158,080425,,E,A*1D,1744089434000
NMEA,$GPGLL,3954.792035,N,11626.895967,E,051714.000,A,A*50,1744089434000
NMEA,$GPGSA,A,3,22,194,1,195,14,3,,,,,,,1.627,1.032,1.257*37,1744089434000
NMEA,$BDGSA,A,3,207,210,203,206,235,226,224,,,,,,1.627,1.032,1.257*15,1744089434000
NMEA,$GAGSA,A,3,118,104,106,110,105,119,,,,,,,1.627,1.032,1.257*27,1744089434000
NMEA,$GPGSV,4,1,16,22,75,267,37.0,17,69,347,25.5,42,38,145,39.2,194,53,140,40.7*4C,1744089434000
NMEA,$GPGSV,4,2,16,30,6,203,21.2,19,45,300,32.4,1,33,49,29.2,2,7,55,17.8*7C,1744089434000
NMEA,$GPGSV,4,3,16,195,70,90,43.9,14,68,187,31.6,3,46,83,38.2,196,18,144,19.6*4E,1744089434000
NMEA,$GPGSV,4,4,16,6,30,238,0.0,11,1,233,0.0,24,7,312,0.0,193,1,,0.0*7A,1744089434000
NMEA,$BDGSV,4,1,16,207,82,342,37.7,210,70,307,19.6,203,42,189,29.7,209,19,215,16.1*65,1744089434000
NMEA,$BDGSV,4,2,16,206,11,203,18.2,208,24,177,17.1,212,21,266,22.8,240,71,39,39.9*5C,1744089434000
NMEA,$BDGSV,4,3,16,235,70,14,36.0,226,44,224,35.2,238,37,171,27.2,224,36,293,27.8*54,1744089434000
NMEA,$BDGSV,4,4,16,229,19,70,20.0,201,35,140,0.0,202,30,222,0.0,204,26,123,0.0*68,1744089434000
NMEA,$GAGSV,3,1,9,118,78,200,34.7,104,76,249,33.0,106,74,32,33.5,110,64,298,21.2*6D,1744089434000
NMEA,$GAGSV,3,2,9,105,47,234,19.7,119,39,311,31.7,124,4,261,0.0,125,29,147,0.0*61,1744089434000
NMEA,$GAGSV,3,3,9,127,32,52,0.0*4D,1744089434000
NMEA,$GPVTG,264.158,T,,M,13.965,N,25.864,K,A*04,1744089434000
NMEA,$RD_RSSI, 667, 780, 0, 0,1744089434000
NMEA,$GPGGA,051715.000,3954.791716,N,11626.890040,E,1,21,0.907,86.893,M,0,M,,*47,1744089435000
NMEA,$GPRMC,051715.000,A,3954.791716,N,11626.890040,E,12.518,268.230,080425,,E,A*16,1744089435000
NMEA,$GPGLL,3954.791716,N,11626.890040,E,051715.000,A,A*5D,1744089435000
NMEA,$GPGSA,A,3,22,17,194,19,1,195,14,3,196,,,,1.531,0.907,1.234*08,1744089435000
NMEA,$BDGSA,A,3,207,210,203,206,235,226,224,,,,,,1.531,0.907,1.234*1A,1744089435000
NMEA,$GAGSA,A,3,118,104,106,110,105,,,,,,,,1.531,0.907,1.234*11,1744089435000
NMEA,$GPGSV,4,1,16,22,75,267,37.4,17,69,347,27.3,42,38,145,38.7,194,53,140,41.4*4A,1744089435000
NMEA,$GPGSV,4,2,16,30,6,203,16.7,19,45,300,30.7,1,33,49,28.0,2,7,55,13.5*76,1744089435000
NMEA,$GPGSV,4,3,16,195,70,90,43.7,14,68,187,33.5,3,46,83,39.0,196,18,144,19.7*43,1744089435000
NMEA,$GPGSV,4,4,16,6,30,238,0.0,11,1,233,0.0,24,7,312,0.0,193,1,,0.0*7A,1744089435000
NMEA,$BDGSV,4,1,16,207,82,342,38.0,210,70,307,18.7,203,42,189,31.8,209,19,215,16.3*69,1744089435000
NMEA,$BDGSV,4,2,16,206,11,203,18.2,208,24,177,17.2,212,21,266,25.5,240,71,39,39.7*5B,1744089435000
NMEA,$BDGSV,4,3,16,235,70,14,32.2,226,44,224,41.9,238,37,171,24.2,224,36,293,26.6*56,1744089435000
NMEA,$BDGSV,4,4,16,229,19,70,20.1,201,35,140,0.0,202,30,222,0.0,204,26,123,0.0*69,1744089435000
NMEA,$GAGSV,3,1,9,118,78,200,32.0,104,76,249,34.2,106,74,32,31.7,110,64,298,17.7*69,1744089435000
NMEA,$GAGSV,3,2,9,105,47,234,28.1,119,39,311,30.6,125,29,147,15.1,124,4,261,0.0*50,1744089435000
NMEA,$GAGSV,3,3,9,127,32,52,0.0*4D,1744089435000
NMEA,$GPVTG,268.230,T,,M,12.518,N,23.183,K,A*04,1744089435000
NMEA,$RD_RSSI, 653, 767, 0, 0,1744089435000
NMEA,$GPGGA,051716.000,3954.791905,N,11626.884719,E,1,18,0.994,85.410,M,0,M,,*42,1744089436000
NMEA,$GPRMC,051716.000,A,3954.791905,N,11626.884719,E,12.465,272.132,080425,,E,A*16,1744089436000
NMEA,$GPGLL,3954.791905,N,11626.884719,E,051716.000,A,A*5C,1744089436000
NMEA,$GPGSA,A,3,22,17,194,19,1,195,14,3,,,,,2.083,0.994,1.830*3D,1744089436000
NMEA,$BDGSA,A,3,207,210,203,235,226,224,,,,,,,2.083,0.994,1.830*25,1744089436000
NMEA,$GAGSA,A,3,118,104,106,110,,,,,,,,,2.083,0.994,1.830*2E,1744089436000
NMEA,$GPGSV,4,1,16,22,75,267,36.5,17,69,347,23.8,42,38,145,39.9,194,53,140,39.5*44,1744089436000
NMEA,$GPGSV,4,2,16,30,6,203,16.5,19,45,300,29.6,1,33,49,31.0,2,7,55,12.8*79,1744089436000
NMEA,$GPGSV,4,3,16,195,70,90,44.2,14,68,187,34.5,3,46,83,40.0,196,18,144,19.7*48,1744089436000
NMEA,$GPGSV,4,4,16,6,30,238,0.0,11,1,233,0.0,24,7,312,0.0,193,1,,0.0*7A,1744089436000
NMEA,$BDGSV,4,1,16,207,82,342,37.7,210,70,307,17.8,203,42,189,32.4,209,19,215,16.6*6B,1744089436000
NMEA,$BDGSV,4,2,16,206,11,203,17.8,208,24,177,17.6,212,21,266,28.5,240,71,39,33.9*53,1744089436000
NMEA,$BDGSV,4,3,16,235,70,14,30.7,226,44,224,43.0,238,37,171,23.3,224,36,293,22.6*58,1744089436000
NMEA,$BDGSV,4,4,16,229,19,70,22.7,201,35,140,0.0,202,30,222,0.0,204,26,123,0.0*6D,1744089436000
NMEA,$GAGSV,3,1,9,118,78,200,36.0,104,76,249,32.7,106,74,32,26.5,110,64,298,12.1*69,1744089436000
NMEA,$GAGSV,3,2,9,105,47,234,27.0,119,39,311,29.5,125,29,147,15.0,124,4,261,0.0*54,1744089436000
NMEA,$GAGSV,3,3,9,127,32,52,0.0*4D,1744089436000
NMEA,$GPVTG,272.132,T,,M,12.465,N,23.085,K,A*02,1744089436000
NMEA,$RD_RSSI, 642, 754, 0, 0,1744089436000
NMEA,$GPGGA,051717.000,3954.792295,N,11626.879751,E,1,19,0.914,83.591,M,0,M,,*4B,1744089437000
NMEA,$GPRMC,051717.000,A,3954.792295,N,11626.879751,E,9.102,268.915,080425,,E,A*20,1744089437000
NMEA,$GPGLL,3954.792295,N,11626.879751,E,051717.000,A,A*52,1744089437000
NMEA,$GPGSA,A,3,22,17,194,19,1,195,14,3,196,,,,1.616,0.914,1.333*0A,1744089437000
NMEA,$BDGSA,A,3,207,203,235,226,224,,,,,,,,1.616,0.914,1.333*1F,1744089437000
NMEA,$GAGSA,A,3,118,104,106,110,119,,,,,,,,1.616,0.914,1.333*1E,1744089437000
NMEA,$GPGSV,4,1,16,22,75,267,33.2,17,69,347,21.5,42,38,145,41.0,194,53,140,38.2*49,1744089437000
NMEA,$GPGSV,4,2,16,30,6,203,16.6,19,45,300,28.0,1,33,49,28.7,2,7,55,13.3*78,1744089437000
NMEA,$GPGSV,4,3,16,195,70,90,44.7,14,68,187,35.7,3,46,83,40.4,196,18,144,26.7*46,1744089437000
NMEA,$GPGSV,4,4,16,6,30,238,0.0,11,1,233,0.0,24,7,312,0.0,193,1,,0.0*7A,1744089437000
NMEA,$BDGSV,4,1,16,207,82,342,35.2,203,42,189,34.0,209,19,215,16.7,206,11,203,18.0*6D,1744089437000
NMEA,$BDGSV,4,2,16,208,24,177,22.7,212,21,266,27.1,240,71,39,28.7,235,70,14,30.7*62,1744089437000
NMEA,$BDGSV,4,3,16,226,44,224,43.2,238,37,171,26.3,224,36,293,22.3,229,19,70,20.3*5F,1744089437000
NMEA,$BDGSV,4,4,16,201,35,140,0.0,202,30,222,0.0,204,26,123,0.0,205,14,246,0.0*6E,1744089437000
NMEA,$GAGSV,3,1,9,118,78,200,34.5,104,76,249,30.3,106,74,32,24.7,110,64,298,11.5*6F,1744089437000
NMEA,$GAGSV,3,2,9,105,47,234,23.3,119,39,311,28.6,125,29,147,14.8,124,4,261,0.0*58,1744089437000
NMEA,$GAGSV,3,3,9,127,32,52,0.0*4D,1744089437000
NMEA,$GPVTG,268.915,T,,M,9.102,N,16.858,K,A*34,1744089437000
NMEA,$RD_RSSI, 674, 772, 0, 0,1744089437000
NMEA,$GPGGA,051718.000,3954.792367,N,11626.876468,E,1,21,0.887,82.738,M,0,M,,*4E,1744089438000
NMEA,$GPRMC,051718.000,A,3954.792367,N,11626.876468,E,7.266,255.993,080425,,E,A*2A,1744089438000
NMEA,$GPGLL,3954.792367,N,11626.876468,E,051718.000,A,A*57,1744089438000
NMEA,$GPGSA,A,3,22,17,194,19,1,195,14,3,196,,,,1.438,0.887,1.131*0F,1744089438000
NMEA,$BDGSA,A,3,207,210,203,206,235,226,224,,,,,,1.438,0.887,1.131*1D,1744089438000
NMEA,$GAGSA,A,3,118,104,106,110,119,,,,,,,,1.438,0.887,1.131*1B,1744089438000
NMEA,$GPGSV,4,1,16,22,75,267,32.2,17,69,347,19.8,42,38,145,41.2,194,53,140,32.2*46,1744089438000
NMEA,$GPGSV,4,2,16,30,6,203,18.1,19,45,300,28.1,1,33,49,27.2,2,7,55,8.8*4B,1744089438000
NMEA,$GPGSV,4,3,16,195,70,90,44.5,14,68,187,35.4,3,46,83,40.7,196,18,144,28.3*4E,1744089438000
NMEA,$GPGSV,4,4,16,6,30,238,0.0,11,1,233,0.0,24,7,312,0.0,193,1,,0.0*7A,1744089438000
NMEA,$BDGSV,4,1,16,207,82,342,32.2,210,70,307,20.2,203,42,189,34.0,209,19,215,16.8*69,1744089438000
NMEA,$BDGSV,4,2,16,206,11,203,18.2,208,24,177,22.3,212,21,266,24.7,240,71,39,25.2*57,1744089438000
NMEA,$BDGSV,4,3,16,235,70,14,29.7,226,44,224,42.9,238,37,171,29.5,224,36,293,24.0*54,1744089438000
NMEA,$BDGSV,4,4,16,229,19,70,20.2,201,35,140,0.0,202,30,222,0.0,204,26,123,0.0*6A,1744089438000
NMEA,$GAGSV,3,1,9,118,78,200,34.0,104,76,249,30.7,106,74,32,21.7,110,64,298,10.8*67,1744089438000
NMEA,$GAGSV,3,2,9,105,47,234,20.5,119,39,311,27.8,125,29,147,14.1,124,4,261,0.0*55,1744089438000
NMEA,$GAGSV,3,3,9,127,32,52,0.0*4D,1744089438000
NMEA,$GPVTG,255.993,T,,M,7.266,N,13.456,K,A*3C,1744089438000
NMEA,$RD_RSSI, 647, 755, 0, 0,1744089438000
NMEA,$GPGGA,051719.000,3954.792262,N,11626.873240,E,1,20,0.933,80.343,M,0,M,,*47,1744089438000
NMEA,$GPRMC,051719.000,A,3954.792262,N,11626.873240,E,5.617,258.773,080425,,E,A*2B,1744089439000
NMEA,$GPGLL,3954.792262,N,11626.873240,E,051719.000,A,A*5B,1744089439000
NMEA,$GPGSA,A,3,22,17,194,19,1,195,14,3,196,,,,1.499,0.933,1.173*0C,1744089439000
NMEA,$BDGSA,A,3,207,210,203,206,235,226,,,,,,,1.499,0.933,1.173*2A,1744089439000
NMEA,$GAGSA,A,3,118,104,106,110,119,,,,,,,,1.499,0.933,1.173*18,1744089439000
NMEA,$GPGSV,4,1,16,22,75,267,34.7,17,69,347,20.2,42,38,145,40.5,194,53,140,30.7*44,1744089439000
NMEA,$GPGSV,4,2,16,30,6,203,17.7,19,45,300,28.7,1,33,49,26.6,2,7,55,8.3*4A,1744089439000
NMEA,$GPGSV,4,3,16,195,70,90,40.0,14,68,187,35.4,3,46,83,40.4,196,18,144,27.6*46,1744089439000
NMEA,$GPGSV,4,4,16,6,30,238,0.0,11,1,233,0.0,24,7,312,0.0,193,1,,0.0*7A,1744089439000
NMEA,$BDGSV,4,1,16,207,82,342,29.6,210,70,307,22.0,203,42,189,34.0,209,19,215,21.5*6E,1744089439000
NMEA,$BDGSV,4,2,16,206,11,203,18.1,208,24,177,24.8,212,21,266,25.3,240,71,39,25.1*5F,1744089439000
NMEA,$BDGSV,4,3,16,235,70,14,24.3,226,44,224,42.4,238,37,171,27.2,224,36,293,24.7*5E,1744089439000
NMEA,$BDGSV,4,4,16,229,19,70,20.2,201,35,140,0.0,202,30,222,0.0,204,26,123,0.0*6A,1744089439000
NMEA,$GAGSV,3,1,9,118,78,200,34.2,104,76,249,32.7,106,74,32,19.1,110,64,298,10.1*63,1744089439000
NMEA,$GAGSV,3,2,9,105,47,234,15.6,119,39,311,26.7,125,29,147,6.6,124,4,261,0.0*6A,1744089439000
NMEA,$GAGSV,3,3,9,127,32,52,0.0*4D,1744089439000
NMEA,$GPVTG,258.773,T,,M,5.617,N,10.403,K,A*32,1744089439000
NMEA,$RD_RSSI, 727, 832, 0, 0,1744089439000
NMEA,$GPGGA,051720.000,3954.792280,N,11626.870516,E,1,19,0.960,78.265,M,0,M,,*48,1744089440000
NMEA,$GPRMC,051720.000,A,3954.792280,N,11626.870516,E,4.432,276.535,080425,,E,A*22,1744089440000
NMEA,$GPGLL,3954.792280,N,11626.870516,E,051720.000,A,A*5A,1744089440000
