NMEA,PQWM2,111, , 0S52,3S40,6S56,9S54,10S56,,1744089398688
$GPGSA,A,1,,,,,,,,,,,,,,,,*32,1744089398691
$GPVTG,,T,,M,,N,,K,N*2C,1744089398691
$GPDTM,,,,,,,,*4A,1744089398691
$GPRMC,,V,,,,,,,,,,N,V*29,1744089398691
$GPGNS,,,,,,N,,,,,,,V*79,1744089398691
$GPGGA,,,,,,0,,,,,,,,*66,1744089398691
NMEA,PQWM2,111, , 0V53,3V40,4V47,6V56,9V54,0S52,3S40,6S56,9S54,10S56,,1744089399749
$GPGSA,A,1,,,,,,,,,,,,,,,,*32,1744089399751
$GPVTG,,T,,M,,N,,K,N*2C,1744089399751
$GPDTM,,,,,,,,*4A,1744089399751
$GPRMC,,V,,,,,,,,,,N,V*29,1744089399751
$GPGNS,,,,,,N,,,,,,,V*79,1744089399751
$GPGGA,,,,,,0,,,,,,,,*66,1744089399751
NMEA,PQWM2,111, , 0V53,3V40,4V47,6V56,9V54,0S52,3S40,6S56,9S54,10S56,,1744089400734
$GPGSA,A,1,,,,,,,,,,,,,,,,*32,1744089400735
$GPVTG,,T,,M,,N,,K,N*2C,1744089400735
$GPDTM,,,,,,,,*4A,1744089400735
$GPRMC,,V,,,,,,,,,,N,V*29,1744089400735
$GPGNS,,,,,,N,,,,,,,V*79,1744089400735
$GPGGA,,,,,,0,,,,,,,,*66,1744089400735
NMEA,PQWM2,111, , 0S52,3S40,6S56,9S54,10S56,,1744089401719
$GNGSA,A,3,06,14,17,19,22,,,,,,,,2.7,1.3,2.4,1*3D,1744089401723
$GNGSA,A,3,76,86,,,,,,,,,,,2.7,1.3,2.4,2*3C,1744089401723
$GNGSA,A,3,10,16,24,25,,,,,,,,,2.7,1.3,2.4,3*35,1744089401723
$GNGSA,A,3,07,10,35,44,,,,,,,,,2.7,1.3,2.4,4*35,1744089401723
$GNGSA,A,3,02,03,,,,,,,,,,,2.7,1.3,2.4,5*35,1744089401723
$GNVTG,67.7,T,75.5,M,0.7,N,1.3,K,A*39,1744089401723
$GNDTM,W84,,0000.000000,N,00000.000000,E,0.000,W84*41,1744089401723
$GNRMC,051641.70,A,3954.795047,N,11627.038821,E,0.7,67.7,080425,7.8,W,A,V*76,1744089401723
$GNGNS,051641.70,3954.795047,N,11627.038821,E,AAAAAN,17,1.3,46.1,-9.0,,,V*0E,1744089401723
$GNGGA,051641.70,3954.795047,N,11627.038821,E,1,12,1.3,46.1,M,-9.0,M,,*54,1744089401723
$GPGSV,3,1,11,01,34,049,25,03,46,084,34,06,31,238,31,14,69,188,37,1*60,1744089402706
$GPGSV,3,2,11,17,69,347,38,19,46,300,36,22,76,268,43,02,08,055,,1*6B,1744089402706
$GPGSV,3,3,11,11,01,233,,24,08,312,,30,07,203,,1*5C,1744089402706
$GPGSV,2,1,07,03,46,084,32,06,31,238,20,14,69,188,35,01,34,049,,8*6C,1744089402706
$GPGSV,2,2,07,11,01,233,,24,08,312,,30,07,203,,8*52,1744089402706
$GLGSV,2,1,06,06,18,053,22,22,53,022,40,13,55,296,38,12,52,203,39,1*7D,1744089402706
$GLGSV,2,2,06,23,54,291,41,07,16,100,25,1*77,1744089402706
$GAGSV,3,1,10,10,77,248,40,11,47,234,39,12,75,033,26,16,65,298,45,7*74,1744089402706
$GAGSV,3,2,10,24,78,201,37,25,40,311,41,31,29,147,31,33,20,047,24,7*76,1744089402706
$GAGSV,3,3,10,14,03,282,,36,00,230,,7*78,1744089402706
$GAGSV,2,1,08,10,77,248,27,11,47,234,33,16,65,298,32,24,78,201,22,1*7E,1744089402706
$GAGSV,2,2,08,25,40,311,36,12,75,033,,31,29,147,,33,20,047,,1*73,1744089402706
$GQGSV,1,1,03,02,54,140,40,03,71,092,43,04,19,145,27,1*54,1744089402706
$GQGSV,1,1,03,02,54,140,29,03,71,092,29,04,19,145,22,8*5B,1744089402706
$GBGSV,6,1,22,60,29,228,33,59,36,147,30,44,44,278,36,40,72,039,29,1*74,1744089402706
$GBGSV,6,2,22,35,71,014,39,20,17,057,26,10,71,307,42,07,82,341,39,1*7B,1744089402706
$GBGSV,6,3,22,03,42,189,35,01,35,140,31,02,30,223,,04,26,124,,1*75,1744089402706
$GBGSV,6,4,22,05,14,246,,06,11,203,,08,25,178,,09,20,216,,1*7C,1744089402706
$GBGSV,6,5,22,13,14,187,,16,06,196,,19,23,107,,38,37,172,,1*77,1744089402706
$GBGSV,6,6,22,39,00,191,,45,11,174,,1*76,1744089402706
$GBGSV,2,1,08,19,23,107,22,20,17,057,25,35,71,014,22,40,72,039,21,5*7A,1744089402706
$GBGSV,2,2,08,44,44,278,31,38,37,172,,39,00,191,,45,11,174,,5*7E,1744089402706
$GNGSA,A,3,03,06,14,17,19,22,,,,,,,1.4,0.7,1.2,1*3E,1744089402740
$GNGSA,A,3,76,86,,,,,,,,,,,1.4,0.7,1.2,2*3C,1744089402740
$GNGSA,A,3,10,12,16,24,25,31,,,,,,,1.4,0.7,1.2,3*34,1744089402740
$GNGSA,A,3,03,07,10,35,40,44,59,,,,,,1.4,0.7,1.2,4*3E,1744089402740
$GNGSA,A,3,02,03,,,,,,,,,,,1.4,0.7,1.2,5*35,1744089402740
$GNVTG,266.2,T,274.0,M,2.1,N,3.9,K,A*35,1744089402740
$GNDTM,W84,,0000.000000,N,00000.000000,E,0.000,W84*41,1744089402740
$GNRMC,051642.00,A,3954.799249,N,11627.039286,E,2.1,266.2,080425,7.8,W,A,V*46,1744089402740
$GNGNS,051642.00,3954.799249,N,11627.039286,E,AAAAAN,23,0.7,48.3,-9.0,,,V*02,1744089402740
$GNGGA,051642.00,3954.799249,N,11627.039286,E,1,12,0.7,48.3,M,-9.0,M,,*5F,1744089402740
$GNGSA,A,3,03,14,17,19,22,,,,,,,,1.1,0.7,0.8,1*36,1744089403056
$GNGSA,A,3,76,86,,,,,,,,,,,1.1,0.7,0.8,2*32,1744089403056
$GNGSA,A,3,10,12,16,24,25,31,,,,,,,1.1,0.7,0.8,3*3A,1744089403056
$GNGSA,A,3,03,07,10,35,40,44,59,,,,,,1.1,0.7,0.8,4*30,1744089403056
$GNGSA,A,3,02,03,,,,,,,,,,,1.1,0.7,0.8,5*3B,1744089403056
$GNVTG,286.7,T,294.5,M,2.6,N,4.8,K,A*34,1744089403056
$GNDTM,W84,,0000.000000,N,00000.000000,E,0.000,W84*41,1744089403056
$GNRMC,051643.00,A,3954.797597,N,11627.037573,E,2.6,286.7,080425,7.8,W,A,V*42,1744089403056
$GNGNS,051643.00,3954.797597,N,11627.037573,E,AAAAAN,22,0.7,57.0,-9.0,,,V*06,1744089403056
$GNGGA,051643.00,3954.797597,N,11627.037573,E,1,12,0.7,57.0,M,-9.0,M,,*5A,1744089403056
$GPGSV,3,1,11,01,34,049,31,03,46,084,31,06,31,238,30,14,69,188,39,1*6F,1744089403996
$GPGSV,3,2,11,17,69,347,41,19,46,300,36,22,76,268,43,02,08,055,,1*65,1744089403996
$GPGSV,3,3,11,11,01,233,,24,08,312,,30,07,203,,1*5C,1744089403996
$GPGSV,2,1,07,03,46,084,31,06,31,238,20,14,69,188,35,01,34,049,,8*6F,1744089403996
$GPGSV,2,2,07,11,01,233,,24,08,312,,30,07,203,,8*52,1744089403996
$GLGSV,3,1,10,14,06,335,27,06,18,053,22,22,53,022,36,13,55,296,38,1*76,1744089403996
$GLGSV,3,2,10,12,52,203,36,23,54,291,41,07,16,100,30,11,02,169,,1*79,1744089403996
$GLGSV,3,3,10,24,04,253,,21,05,057,,1*7B,1744089403996
$GAGSV,3,1,10,10,77,248,39,11,47,234,36,12,75,033,29,16,65,298,45,7*7A,1744089403996
$GAGSV,3,2,10,24,78,201,37,25,40,311,40,31,29,147,29,33,20,047,24,7*7E,1744089403996
$GAGSV,3,3,10,14,03,282,,36,00,230,,7*78,1744089403996
$GAGSV,2,1,08,10,77,248,23,11,47,234,32,16,65,298,30,24,78,201,21,1*7A,1744089403996
$GAGSV,2,2,08,25,40,311,35,12,75,033,,31,29,147,,33,20,047,,1*70,1744089403996
$GQGSV,1,1,03,02,54,140,41,03,71,092,44,04,19,145,26,1*53,1744089403996
$GQGSV,1,1,03,02,54,140,28,03,71,092,29,04,19,145,20,8*58,1744089403996
$GBGSV,6,1,22,60,29,228,31,59,36,147,31,44,44,278,37,40,72,039,28,1*77,1744089403996
$GBGSV,6,2,22,38,37,172,22,35,71,014,32,20,17,057,29,10,71,307,43,1*74,1744089403996
$GBGSV,6,3,22,09,20,216,23,07,82,341,39,03,42,189,34,01,35,140,31,1*7F,1744089403996
$GBGSV,6,4,22,02,30,223,,04,26,124,,05,14,246,,06,11,203,,1*76,1744089403996
$GBGSV,6,5,22,08,25,178,,13,14,187,,16,06,196,,19,23,107,,1*7D,1744089403996
$GBGSV,6,6,22,39,00,191,,45,11,174,,1*76,1744089403996
$GBGSV,2,1,07,19,23,107,27,20,17,057,29,35,71,014,36,38,37,172,23,3*7D,1744089403996
$GBGSV,2,2,07,40,72,039,31,44,44,278,37,45,11,174,,3*40,1744089403996
$GBGSV,2,1,08,19,23,107,22,20,17,057,22,35,71,014,23,40,72,039,24,5*79,1744089403996
$GBGSV,2,2,08,44,44,278,31,38,37,172,,39,00,191,,45,11,174,,5*7E,1744089403996
$GNGSA,A,3,03,06,14,17,19,22,,,,,,,1.0,0.6,0.8,1*30,1744089404042
$GNGSA,A,3,76,86,,,,,,,,,,,1.0,0.6,0.8,2*32,1744089404042
$GNGSA,A,3,10,12,16,24,25,31,,,,,,,1.0,0.6,0.8,3*3A,1744089404042
$GNGSA,A,3,03,07,09,10,35,38,40,44,59,,,,1.0,0.6,0.8,4*32,1744089404042
$GNGSA,A,3,02,03,,,,,,,,,,,1.0,0.6,0.8,5*3B,1744089404042
$GNVTG,272.6,T,280.4,M,5.6,N,10.4,K,A*04,1744089404042
$GNDTM,W84,,0000.000000,N,00000.000000,E,0.000,W84*41,1744089404042
$GNRMC,051644.00,A,3954.797423,N,11627.034060,E,5.6,272.6,080425,7.8,W,A,V*42,1744089404042
$GNGNS,051644.00,3954.797423,N,11627.034060,E,AAAAAN,25,0.6,58.2,-9.0,,,V*00,1744089404042
$GNGGA,051644.00,3954.797423,N,11627.034060,E,1,12,0.6,58.2,M,-9.0,M,,*5B,1744089404042
$GPGSV,3,1,11,01,34,049,29,03,46,084,32,06,31,238,30,14,69,188,39,1*65,1744089405003
$GPGSV,3,2,11,17,69,347,40,19,46,300,36,22,76,268,43,02,08,055,,1*64,1744089405003
$GPGSV,3,3,11,11,01,233,,24,08,312,,30,07,203,,1*5C,1744089405003
$GPGSV,2,1,07,03,46,084,31,06,31,238,20,14,69,188,33,01,34,049,,8*69,1744089405003
$GPGSV,2,2,07,11,01,233,,24,08,312,,30,07,203,,8*52,1744089405003
$GLGSV,3,1,10,14,06,335,24,06,18,053,22,22,53,022,38,13,55,296,38,1*7B,1744089405003
$GLGSV,3,2,10,12,52,203,36,23,54,291,41,07,16,100,33,11,02,169,,1*7A,1744089405003
$GLGSV,3,3,10,24,04,253,,21,05,057,,1*7B,1744089405003
$GAGSV,3,1,10,10,77,248,40,11,47,234,36,12,75,033,24,16,65,298,46,7*7A,1744089405003
$GAGSV,3,2,10,24,78,201,36,25,40,311,40,31,29,147,24,33,20,047,24,7*72,1744089405003
$GAGSV,3,3,10,14,03,282,,36,00,230,,7*78,1744089405003
$GAGSV,2,1,08,10,77,248,25,11,47,234,30,16,65,298,30,24,78,201,22,1*7D,1744089405003
$GAGSV,2,2,08,25,40,311,35,12,75,033,,31,29,147,,33,20,047,,1*70,1744089405003
$GQGSV,1,1,03,02,54,140,41,03,71,092,45,04,19,145,27,1*53,1744089405003
$GQGSV,1,1,03,02,54,140,28,03,71,092,29,04,19,145,20,8*58,1744089405003
$GBGSV,6,1,22,60,29,228,32,59,36,147,31,44,44,278,35,40,72,039,28,1*76,1744089405003
$GBGSV,6,2,22,38,37,172,22,35,71,014,28,20,17,057,34,19,23,107,26,1*7C,1744089405003
$GBGSV,6,3,22,10,71,307,42,09,20,216,23,07,82,341,40,03,42,189,36,1*76,1744089405003
$GBGSV,6,4,22,01,35,140,31,02,30,223,,04,26,124,,05,14,246,,1*71,1744089405003
$GBGSV,6,5,22,06,11,203,,08,25,178,,13,14,187,,16,06,196,,1*75,1744089405003
$GBGSV,6,6,22,39,00,191,,45,11,174,,1*76,1744089405003
$GBGSV,2,1,07,19,23,107,27,20,17,057,35,35,71,014,26,38,37,172,25,3*77,1744089405003
$GBGSV,2,2,07,40,72,039,30,44,44,278,37,45,11,174,,3*41,1744089405003
$GBGSV,2,1,08,19,23,107,22,20,17,057,22,35,71,014,23,40,72,039,19,5*77,1744089405003
$GBGSV,2,2,08,44,44,278,32,38,37,172,,39,00,191,,45,11,174,,5*7D,1744089405003
$GNGSA,A,3,03,06,14,17,19,22,,,,,,,0.9,0.6,0.7,1*37,1744089405029
$GNGSA,A,3,76,86,,,,,,,,,,,0.9,0.6,0.7,2*35,1744089405029
$GNGSA,A,3,10,12,16,24,25,31,,,,,,,0.9,0.6,0.7,3*3D,1744089405029
$GNGSA,A,3,03,07,09,10,35,38,40,44,59,,,,0.9,0.6,0.7,4*35,1744089405029
$GNGSA,A,3,02,03,04,,,,,,,,,,0.9,0.6,0.7,5*38,1744089405029
$GNVTG,269.4,T,277.2,M,7.8,N,14.5,K,A*0B,1744089405029
$GNDTM,W84,,0000.000000,N,00000.000000,E,0.000,W84*41,1744089405029
$GNRMC,051645.00,A,3954.797320,N,11627.031830,E,7.8,269.4,080425,7.8,W,A,V*4B,1744089405029
$GNGNS,051645.00,3954.797320,N,11627.031830,E,AAAAAN,26,0.6,58.6,-9.0,,,V*0A,1744089405029
$GNGGA,051645.00,3954.797320,N,11627.031830,E,1,12,0.6,58.6,M,-9.0,M,,*52,1744089405029
$GPGSV,3,1,11,01,34,049,33,03,46,084,31,06,31,238,28,14,69,188,37,1*6A,1744089405999
$GPGSV,3,2,11,17,69,347,41,19,46,300,36,22,76,268,43,02,08,055,,1*65,1744089405999
$GPGSV,3,3,11,11,01,233,,24,08,312,,30,07,203,,1*5C,1744089405999
$GPGSV,2,1,07,01,34,049,18,03,46,084,30,06,31,238,20,14,69,188,33,8*61,1744089405999
$GPGSV,2,2,07,11,01,233,,24,08,312,,30,07,203,,8*52,1744089405999
$GLGSV,3,1,10,14,06,335,24,06,18,053,22,22,53,022,31,13,55,296,38,1*72,1744089405999
$GLGSV,3,2,10,12,52,203,35,24,04,253,20,23,54,291,41,07,16,100,28,1*7B,1744089405999
$GLGSV,3,3,10,11,02,169,,21,05,057,,1*71,1744089405999
$GAGSV,3,1,10,10,77,248,39,11,47,234,37,12,75,033,24,16,65,298,46,7*75,1744089405999
$GAGSV,3,2,10,24,78,201,36,25,40,311,40,31,29,147,23,33,20,047,25,7*74,1744089405999
$GAGSV,3,3,10,14,03,282,,36,00,230,,7*78,1744089405999
$GAGSV,2,1,08,10,77,248,23,11,47,234,30,16,65,298,30,24,78,201,22,1*7B,1744089405999
$GAGSV,2,2,08,25,40,311,33,12,75,033,,31,29,147,,33,20,047,,1*76,1744089405999
$GQGSV,1,1,03,02,54,140,41,03,71,092,45,04,19,145,26,1*52,1744089405999
$GQGSV,1,1,03,02,54,140,27,03,71,092,29,04,19,145,20,8*57,1744089405999
$GBGSV,6,1,22,60,29,228,32,59,36,147,31,44,44,278,36,40,72,039,27,1*7A,1744089405999
$GBGSV,6,2,22,38,37,172,28,35,71,014,34,20,17,057,34,19,23,107,23,1*7E,1744089405999
$GBGSV,6,3,22,10,71,307,41,09,20,216,23,07,82,341,40,03,42,189,38,1*7B,1744089405999
$GBGSV,6,4,22,01,35,140,30,02,30,223,,04,26,124,,05,14,246,,1*70,1744089405999
$GBGSV,6,5,22,06,11,203,,08,25,178,,13,14,187,,16,06,196,,1*75,1744089405999
$GBGSV,6,6,22,39,00,191,,45,11,174,,1*76,1744089405999
$GBGSV,2,1,07,19,23,107,25,20,17,057,29,35,71,014,35,38,37,172,33,3*7D,1744089405999
$GBGSV,2,2,07,40,72,039,29,44,44,278,39,45,11,174,,3*47,1744089405999
$GBGSV,2,1,08,19,23,107,22,20,17,057,22,35,71,014,23,40,72,039,19,5*77,1744089405999
$GBGSV,2,2,08,44,44,278,33,38,37,172,,39,00,191,,45,11,174,,5*7C,1744089405999
$GNGSA,A,3,03,06,14,17,19,22,,,,,,,0.9,0.6,0.7,1*37,1744089406052
$GNGSA,A,3,76,86,,,,,,,,,,,0.9,0.6,0.7,2*35,1744089406052
$GNGSA,A,3,10,12,16,24,25,31,,,,,,,0.9,0.6,0.7,3*3D,1744089406052
$GNGSA,A,3,03,07,09,10,19,35,38,40,44,59,,,0.9,0.6,0.7,4*3D,1744089406052
$GNGSA,A,3,02,03,04,,,,,,,,,,0.9,0.6,0.7,5*38,1744089406052
$GNVTG,269.8,T,277.6,M,10.2,N,18.9,K,A*3F,1744089406052
$GNDTM,W84,,0000.000000,N,00000.000000,E,0.000,W84*41,1744089406052
$GNRMC,051646.00,A,3954.796913,N,11627.027916,E,10.2,269.8,080425,7.8,W,A,V*71,1744089406052
$GNGNS,051646.00,3954.796913,N,11627.027916,E,AAAAAN,27,0.6,59.2,-9.0,,,V*04,1744089406052
$GNGGA,051646.00,3954.796913,N,11627.027916,E,1,12,0.6,59.2,M,-9.0,M,,*5D,1744089406052
$GPGSV,3,1,11,01,34,049,36,03,46,084,30,06,31,238,31,14,69,188,39,1*68,1744089407003
$GPGSV,3,2,11,17,69,347,40,19,46,300,35,22,76,268,43,02,08,055,,1*67,1744089407003
$GPGSV,3,3,11,11,01,233,,24,08,312,,30,07,203,,1*5C,1744089407003
$GPGSV,2,1,07,01,34,049,22,03,46,084,32,06,31,238,27,14,69,188,33,8*6D,1744089407003
$GPGSV,2,2,07,11,01,233,,24,08,312,,30,07,203,,8*52,1744089407003
$GAGSV,3,1,10,10,77,248,40,11,47,234,37,12,75,033,29,16,65,298,46,7*76,1744089407003
$GAGSV,3,2,10,24,78,201,37,25,40,311,41,31,29,147,21,33,20,047,27,7*74,1744089407003
$GAGSV,3,3,10,14,03,282,,36,00,230,,7*78,1744089407003
$GAGSV,2,1,08,10,77,248,23,11,47,234,29,16,65,298,30,24,78,201,22,1*73,1744089407003
$GAGSV,2,2,08,25,40,311,34,12,75,033,,31,29,147,,33,20,047,,1*71,1744089407003
$GQGSV,1,1,03,02,54,140,35,03,71,092,45,04,19,145,26,1*51,1744089407003
$GQGSV,1,1,03,02,54,140,22,03,71,092,29,04,19,145,17,8*56,1744089407003
$GBGSV,6,1,22,60,29,228,32,59,36,147,31,44,44,278,37,40,72,039,27,1*7B,1744089407003
$GBGSV,6,2,22,38,37,172,38,35,71,014,42,20,17,057,34,19,23,107,23,1*7E,1744089407003
$GBGSV,6,3,22,10,71,307,42,09,20,216,23,07,82,341,40,03,42,189,32,1*72,1744089407003
$GBGSV,6,4,22,01,35,140,30,02,30,223,,04,26,124,,05,14,246,,1*70,1744089407003
$GBGSV,6,5,22,06,11,203,,08,25,178,,13,14,187,,16,06,196,,1*75,1744089407003
$GBGSV,6,6,22,39,00,191,,45,11,174,,1*76,1744089407003
$GBGSV,2,1,07,19,23,107,24,20,17,057,29,35,71,014,42,38,37,172,42,3*7A,1744089407003
$GBGSV,2,2,07,40,72,039,28,44,44,278,37,45,11,174,,3*48,1744089407003
$GBGSV,2,1,08,19,23,107,22,20,17,057,18,35,71,014,19,38,37,172,24,5*79,1744089407003
$GBGSV,2,2,08,40,72,039,19,44,44,278,32,39,00,191,,45,11,174,,5*75,1744089407003
$GNGSA,A,3,03,06,14,17,19,22,,,,,,,0.8,0.5,0.6,1*34,1744089407032
$GNGSA,A,3,76,86,,,,,,,,,,,0.8,0.5,0.6,2*36,1744089407032
$GNGSA,A,3,10,12,16,24,25,31,33,,,,,,0.8,0.5,0.6,3*3E,1744089407032
$GNGSA,A,3,03,07,09,10,19,35,38,40,44,59,,,0.8,0.5,0.6,4*3E,1744089407032
$GNGSA,A,3,02,03,04,,,,,,,,,,0.8,0.5,0.6,5*3B,1744089407032
$GNVTG,268.5,T,276.3,M,11.8,N,21.9,K,A*36,1744089407032
$GNDTM,W84,,0000.000000,N,00000.000000,E,0.000,W84*41,1744089407032
$GNRMC,051647.00,A,3954.796997,N,11627.024403,E,11.8,268.5,080425,7.8,W,A,V*71,1744089407032
$GNGNS,051647.00,3954.796997,N,11627.024403,E,AAAAAN,28,0.5,58.0,-9.0,,,V*0C,1744089407032
$GNGGA,051647.00,3954.796997,N,11627.024403,E,1,12,0.5,58.0,M,-9.0,M,,*5A,1744089407032
$GPGSV,3,1,11,01,34,049,38,03,46,084,28,06,31,238,29,14,69,188,36,1*69,1744089407995
$GPGSV,3,2,11,17,69,347,40,19,46,300,35,22,76,268,43,02,08,055,,1*67,1744089407995
$GPGSV,3,3,11,11,01,233,,24,08,312,,30,07,203,,1*5C,1744089407995
$GPGSV,2,1,07,01,34,049,22,03,46,084,32,06,31,238,25,14,69,188,32,8*6E,1744089407995
$GPGSV,2,2,07,11,01,233,,24,08,312,,30,07,203,,8*52,1744089407995
$GAGSV,3,1,10,10,77,248,39,11,47,234,37,12,75,033,39,16,65,298,45,7*7A,1744089407995
$GAGSV,3,2,10,24,78,201,37,25,40,311,41,31,29,147,21,33,20,047,26,7*75,1744089407995
$GAGSV,3,3,10,14,03,282,,36,00,230,,7*78,1744089407995
$GAGSV,2,1,08,10,77,248,26,11,47,234,30,12,75,033,20,16,65,298,30,1*77,1744089407995
$GAGSV,2,2,08,24,78,201,20,25,40,311,36,31,29,147,,33,20,047,,1*7A,1744089407995
$GQGSV,1,1,03,02,54,140,31,03,71,092,45,04,19,145,22,1*51,1744089407995
$GQGSV,1,1,03,02,54,140,22,03,71,092,28,04,19,145,17,8*57,1744089407995
$GBGSV,6,1,22,60,29,228,32,59,36,147,31,44,44,278,37,40,72,039,27,1*7B,1744089407995
$GBGSV,6,2,22,38,37,172,38,35,71,014,42,20,17,057,34,19,23,107,23,1*7E,1744089407995
$GBGSV,6,3,22,10,71,307,42,09,20,216,23,07,82,341,40,03,42,189,32,1*72,1744089407995
$GBGSV,6,4,22,01,35,140,30,02,30,223,,04,26,124,,05,14,246,,1*70,1744089407995
$GBGSV,6,5,22,06,11,203,,08,25,178,,13,14,187,,16,06,196,,1*75,1744089407995
$GBGSV,6,6,22,39,00,191,,45,11,174,,1*76,1744089407995
$GBGSV,2,1,07,19,23,107,27,20,17,057,23,35,71,014,41,38,37,172,42,3*70,1744089407995
$GBGSV,2,2,07,40,72,039,33,44,44,278,38,45,11,174,,3*4D,1744089407995
$GBGSV,2,1,08,19,23,107,22,20,17,057,18,35,71,014,25,38,37,172,32,5*71,1744089407995
$GBGSV,2,2,08,40,72,039,19,44,44,278,33,39,00,191,,45,11,174,,5*74,1744089407995
$GNGSA,A,3,01,03,06,14,17,19,22,,,,,,0.8,0.5,0.6,1*35,1744089408060
$GNGSA,A,3,76,86,,,,,,,,,,,0.8,0.5,0.6,2*36,1744089408060
$GNGSA,A,3,10,12,16,24,25,31,33,,,,,,0.8,0.5,0.6,3*3E,1744089408060
$GNGSA,A,3,03,07,09,10,19,20,35,38,40,44,59,,0.8,0.5,0.6,4*3C,1744089408060
$GNGSA,A,3,02,03,04,,,,,,,,,,0.8,0.5,0.6,5*3B,1744089408060
$GNVTG,269.0,T,276.8,M,13.1,N,24.3,K,A*3D,1744089408060
$GNDTM,W84,,0000.000000,N,00000.000000,E,0.000,W84*41,1744089408060
$GNRMC,051648.00,A,3954.796697,N,11627.020094,E,13.1,269.0,080425,7.8,W,A,V*70,1744089408060
$GNGNS,051648.00,3954.796697,N,11627.020094,E,AAAAAN,30,0.5,59.0,-9.0,,,V*0A,1744089408060
$GNGGA,051648.00,3954.796697,N,11627.020094,E,1,12,0.5,59.0,M,-9.0,M,,*55,1744089408060
$GPGSV,3,1,11,01,34,049,37,03,46,084,29,06,31,238,30,14,69,188,38,1*61,1744089408999
$GPGSV,3,2,11,17,69,347,40,19,46,300,36,22,76,268,43,02,08,055,,1*64,1744089408999
$GPGSV,3,3,11,11,01,233,,24,08,312,,30,07,203,,1*5C,1744089408999
$GPGSV,2,1,07,01,34,049,25,03,46,084,31,06,31,238,24,14,69,188,32,8*6B,1744089408999
$GPGSV,2,2,07,11,01,233,,24,08,312,,30,07,203,,8*52,1744089408999
$GAGSV,3,1,10,10,77,248,39,11,47,234,37,12,75,033,39,16,65,298,46,7*79,1744089408999
$GAGSV,3,2,10,24,78,201,38,25,40,311,39,31,29,147,31,33,20,047,29,7*7B,1744089408999
$GAGSV,3,3,10,14,03,282,,36,00,230,,7*78,1744089408999
$GAGSV,2,1,08,10,77,248,25,11,47,234,29,12,75,033,29,16,65,298,30,1*75,1744089408999
$GAGSV,2,2,08,24,78,201,20,25,40,311,34,31,29,147,25,33,20,047,26,1*7B,1744089408999
$GQGSV,1,1,02,03,71,092,44,04,19,145,22,1*65,1744089408999
$GQGSV,1,1,03,02,54,140,22,03,71,092,29,04,19,145,17,8*56,1744089408999
$GBGSV,6,1,22,60,29,228,32,59,36,147,31,44,44,278,37,40,72,039,27,1*7B,1744089408999
$GBGSV,6,2,22,38,37,172,38,35,71,014,42,20,17,057,34,19,23,107,23,1*7E,1744089408999
$GBGSV,6,3,22,10,71,307,42,09,20,216,23,07,82,341,39,03,42,189,32,1*7C,1744089408999
$GBGSV,6,4,22,01,35,140,30,02,30,223,,04,26,124,,05,14,246,,1*70,1744089408999
$GBGSV,6,5,22,06,11,203,,08,25,178,,13,14,187,,16,06,196,,1*75,1744089408999
$GBGSV,6,6,22,39,00,191,,45,11,174,,1*76,1744089408999
$GBGSV,2,1,07,19,23,107,26,20,17,057,23,35,71,014,42,38,37,172,38,3*7F,1744089408999
$GBGSV,2,2,07,40,72,039,45,44,44,278,36,45,11,174,,3*42,1744089408999
$GBGSV,2,1,08,19,23,107,21,20,17,057,18,35,71,014,25,38,37,172,27,5*76,1744089408999
$GBGSV,2,2,08,40,72,039,30,44,44,278,31,39,00,191,,45,11,174,,5*7D,1744089408999
$GNGSA,A,3,01,03,06,14,17,19,22,,,,,,0.7,0.4,0.6,1*3B,1744089409042
$GNGSA,A,3,76,86,,,,,,,,,,,0.7,0.4,0.6,2*38,1744089409042
$GNGSA,A,3,10,12,16,24,25,31,33,,,,,,0.7,0.4,0.6,3*30,1744089409042
$GNGSA,A,3,03,07,09,10,19,20,35,38,40,44,59,,0.7,0.4,0.6,4*32,1744089409042
$GNGSA,A,3,02,03,04,,,,,,,,,,0.7,0.4,0.6,5*35,1744089409042
$GNVTG,270.8,T,278.6,M,13.9,N,25.7,K,A*30,1744089409042
$GNDTM,W84,,0000.000000,N,00000.000000,E,0.000,W84*41,1744089409042
$GNRMC,051649.00,A,3954.796785,N,11627.015517,E,13.9,270.8,080425,7.8,W,A,V*73,1744089409042
$GNGNS,051649.00,3954.796785,N,11627.015517,E,AAAAAN,30,0.4,59.8,-9.0,,,V*08,1744089409042
$GNGGA,051649.00,3954.796785,N,11627.015517,E,1,12,0.4,59.8,M,-9.0,M,,*57,1744089409042
$GPGSV,3,1,11,01,34,049,33,03,46,084,30,06,31,238,31,14,69,188,37,1*63,1744089409998
$GPGSV,3,2,11,17,69,347,41,19,46,300,30,22,76,268,42,02,08,055,,1*62,1744089409998
$GPGSV,3,3,11,11,01,233,,24,08,312,,30,07,203,,1*5C,1744089409998
$GPGSV,2,1,07,01,34,049,25,03,46,084,32,06,31,238,24,14,69,188,30,8*6A,1744089409998
$GPGSV,2,2,07,11,01,233,,24,08,312,,30,07,203,,8*52,1744089409998
$GAGSV,2,1,08,10,77,248,40,11,47,234,37,12,75,033,39,16,65,298,45,7*7C,1744089409998
$GAGSV,2,2,08,24,78,201,39,25,40,311,41,31,29,147,25,33,20,047,31,7*71,1744089409998
$GAGSV,2,1,08,10,77,248,27,11,47,234,32,12,75,033,30,16,65,298,30,1*75,1744089409998
$GAGSV,2,2,08,24,78,201,20,25,40,311,38,31,29,147,25,33,20,047,26,1*77,1744089409998
$GQGSV,1,1,02,03,71,092,43,04,19,145,22,1*62,1744089409998
$GQGSV,1,1,03,02,54,140,22,03,71,092,30,04,19,145,17,8*5E,1744089409998
$GBGSV,5,1,18,60,29,228,32,59,36,147,31,44,44,278,37,40,72,039,27,1*71,1744089409998
$GBGSV,5,2,18,38,37,172,38,35,71,014,42,20,17,057,34,19,23,107,23,1*74,1744089409998
$GBGSV,5,3,18,10,71,307,42,09,20,216,23,07,82,341,38,03,42,189,32,1*77,1744089409998
$GBGSV,5,4,18,01,35,140,30,06,11,203,,08,25,178,,13,14,187,,1*70,1744089409998
$GBGSV,5,5,18,16,06,196,,45,11,174,,1*73,1744089409998
$GBGSV,2,1,07,19,23,107,26,20,17,057,23,35,71,014,42,38,37,172,38,3*7F,1744089409998
$GBGSV,2,2,07,40,72,039,46,44,44,278,33,45,11,174,,3*44,1744089409998
$GBGSV,2,1,07,19,23,107,21,20,17,057,18,35,71,014,24,38,37,172,27,5*78,1744089409998
$GBGSV,2,2,07,40,72,039,32,44,44,278,24,45,11,174,,5*47,1744089409998
$GNGSA,A,3,01,03,06,14,17,19,22,,,,,,0.7,0.5,0.6,1*3A,1744089410026
$GNGSA,A,3,76,86,,,,,,,,,,,0.7,0.5,0.6,2*39,1744089410026
$GNGSA,A,3,10,12,16,24,25,31,33,,,,,,0.7,0.5,0.6,3*31,1744089410026
$GNGSA,A,3,03,07,10,19,20,35,38,40,44,59,,,0.7,0.5,0.6,4*3A,1744089410026
$GNGSA,A,3,02,03,04,,,,,,,,,,0.7,0.5,0.6,5*34,1744089410026
$GNVTG,269.1,T,276.9,M,13.2,N,24.5,K,A*38,1744089410026
$GNDTM,W84,,0000.000000,N,00000.000000,E,0.000,W84*41,1744089410026
$GNRMC,051650.00,A,3954.796646,N,11627.010922,E,13.2,269.1,080425,7.8,W,A,V*70,1744089410026
$GNGNS,051650.00,3954.796646,N,11627.010922,E,AAAAAN,29,0.5,59.5,-9.0,,,V*05,1744089410026
$GNGGA,051650.00,3954.796646,N,11627.010922,E,1,12,0.5,59.5,M,-9.0,M,,*52,1744089410026
$GPGSV,3,1,11,01,34,049,34,03,46,084,32,06,31,238,28,14,69,188,37,1*6E,1744089411003
$GPGSV,3,2,11,17,69,347,39,19,46,300,33,22,76,268,43,02,08,055,,1*6F,1744089411003
$GPGSV,3,3,11,11,01,233,,24,08,312,,30,07,203,,1*5C,1744089411003
$GPGSV,2,1,07,01,34,049,25,03,46,084,30,06,31,238,21,14,69,188,30,8*6D,1744089411003
$GPGSV,2,2,07,11,01,233,,24,08,312,,30,07,203,,8*52,1744089411003
$GAGSV,2,1,08,10,77,248,39,11,47,234,36,12,75,033,39,16,65,298,45,7*73,1744089411003
$GAGSV,2,2,08,24,78,201,37,25,40,311,35,31,29,147,25,33,20,047,,7*7E,1744089411003
$GAGSV,2,1,08,10,77,248,24,11,47,234,29,12,75,033,29,16,65,298,29,1*7C,1744089411003
$GAGSV,2,2,08,24,78,201,21,25,40,311,31,31,29,147,25,33,20,047,26,1*7F,1744089411003
$GQGSV,1,1,02,03,71,092,43,04,19,145,22,1*62,1744089411003
$GQGSV,1,1,03,02,54,140,22,03,71,092,29,04,19,145,17,8*56,1744089411003
$GBGSV,5,1,18,60,29,228,32,59,36,147,31,44,44,278,37,40,72,039,27,1*71,1744089411003
$GBGSV,5,2,18,38,37,172,38,35,71,014,42,20,17,057,34,19,23,107,23,1*74,1744089411003
$GBGSV,5,3,18,10,71,307,40,09,20,216,23,07,82,341,37,03,42,189,32,1*7A,1744089411003
$GBGSV,5,4,18,01,35,140,30,06,11,203,,08,25,178,,13,14,187,,1*70,1744089411003
$GBGSV,5,5,18,16,06,196,,45,11,174,,1*73,1744089411003
$GBGSV,2,1,07,19,23,107,26,20,17,057,23,35,71,014,42,38,37,172,38,3*7F,1744089411003
$GBGSV,2,2,07,40,72,039,45,44,44,278,33,45,11,174,,3*47,1744089411003
$GBGSV,2,1,07,19,23,107,21,20,17,057,18,35,71,014,27,38,37,172,27,5*7B,1744089411003
$GBGSV,2,2,07,40,72,039,32,44,44,278,25,45,11,174,,5*46,1744089411003
$GNGSA,A,3,01,03,06,14,17,19,22,,,,,,0.7,0.5,0.6,1*3A,1744089411052
$GNGSA,A,3,76,86,,,,,,,,,,,0.7,0.5,0.6,2*39,1744089411052
$GNGSA,A,3,10,12,16,24,25,31,33,,,,,,0.7,0.5,0.6,3*31,1744089411052
$GNGSA,A,3,03,07,10,19,20,35,38,40,44,,,,0.7,0.5,0.6,4*36,1744089411052
$GNGSA,A,3,02,03,04,,,,,,,,,,0.7,0.5,0.6,5*34,1744089411052
$GNVTG,267.2,T,275.0,M,13.9,N,25.7,K,A*37,1744089411052
$GNDTM,W84,,0000.000000,N,00000.000000,E,0.000,W84*41,1744089411052
$GNRMC,051651.00,A,3954.796531,N,11627.006216,E,13.9,267.2,080425,7.8,W,A,V*7F,1744089411052
$GNGNS,051651.00,3954.796531,N,11627.006216,E,AAAAAN,28,0.5,59.5,-9.0,,,V*0D,1744089411052
$GNGGA,051651.00,3954.796531,N,11627.006216,E,1,12,0.5,59.5,M,-9.0,M,,*5B,1744089411052
$GPGSV,3,1,11,01,34,049,37,03,46,084,32,06,31,238,26,14,69,188,38,1*6C,1744089411999
$GPGSV,3,2,11,17,69,347,40,19,46,300,33,22,76,268,43,02,08,055,,1*61,1744089411999
$GPGSV,3,3,11,11,01,233,,24,08,312,,30,07,203,,1*5C,1744089411999
$GPGSV,2,1,07,01,34,049,25,03,46,084,32,06,31,238,21,14,69,188,30,8*6F,1744089411999
$GPGSV,2,2,07,11,01,233,,24,08,312,,30,07,203,,8*52,1744089411999
$GAGSV,2,1,08,10,77,248,40,11,47,234,36,12,75,033,38,16,65,298,45,7*7C,1744089411999
$GAGSV,2,2,08,24,78,201,35,25,40,311,32,31,29,147,25,33,20,047,32,7*7A,1744089411999
$GAGSV,2,1,08,10,77,248,24,11,47,234,30,12,75,033,29,16,65,298,29,1*74,1744089411999
$GAGSV,2,2,08,24,78,201,25,25,40,311,31,31,29,147,25,33,20,047,26,1*7B,1744089411999
$GQGSV,1,1,03,02,54,140,27,03,71,092,44,04,19,145,22,1*57,1744089411999
$GQGSV,1,1,03,02,54,140,22,03,71,092,29,04,19,145,17,8*56,1744089411999
$GBGSV,5,1,18,60,29,228,32,59,36,147,31,44,44,278,37,40,72,039,27,1*71,1744089411999
$GBGSV,5,2,18,38,37,172,38,35,71,014,42,20,17,057,34,19,23,107,23,1*74,1744089411999
$GBGSV,5,3,18,10,71,307,41,09,20,216,23,07,82,341,37,03,42,189,32,1*7B,1744089411999
$GBGSV,5,4,18,01,35,140,30,06,11,203,,08,25,178,,13,14,187,,1*70,1744089411999
$GBGSV,5,5,18,16,06,196,,45,11,174,,1*73,1744089411999
$GBGSV,2,1,07,19,23,107,27,20,17,057,23,35,71,014,43,38,37,172,21,3*77,1744089411999
$GBGSV,2,2,07,40,72,039,45,44,44,278,34,45,11,174,,3*40,1744089411999
$GBGSV,2,1,07,19,23,107,21,20,17,057,18,35,71,014,27,38,37,172,27,5*7B,1744089411999
$GBGSV,2,2,07,40,72,039,33,44,44,278,27,45,11,174,,5*45,1744089411999
$GNGSA,A,3,01,03,06,14,17,19,22,,,,,,0.8,0.5,0.6,1*35,1744089412038
$GNGSA,A,3,10,12,16,24,25,31,33,,,,,,0.8,0.5,0.6,3*3E,1744089412038
$GNGSA,A,3,03,07,10,19,20,35,38,40,44,,,,0.8,0.5,0.6,4*39,1744089412038
$GNGSA,A,3,02,03,04,,,,,,,,,,0.8,0.5,0.6,5*3B,1744089412038
$GNVTG,268.0,T,275.8,M,14.7,N,27.2,K,A*3C,1744089412038
$GNDTM,W84,,0000.000000,N,00000.000000,E,0.000,W84*41,1744089412038
$GNRMC,051652.00,A,3954.796481,N,11627.001235,E,14.7,268.0,080425,7.8,W,A,V*74,1744089412038
$GNGNS,051652.00,3954.796481,N,11627.001235,E,ANAAAN,26,0.5,59.2,-9.0,,,V*04,1744089412038
$GNGGA,051652.00,3954.796481,N,11627.001235,E,1,12,0.5,59.2,M,-9.0,M,,*53,1744089412038
$GPGSV,3,1,11,01,34,049,35,03,46,084,30,06,31,238,28,14,69,188,38,1*62,1744089412998
$GPGSV,3,2,11,17,69,347,40,19,46,300,31,22,76,268,43,02,08,055,,1*63,1744089412998
$GPGSV,3,3,11,11,01,233,,24,08,312,,30,07,203,,1*5C,1744089412998
$GPGSV,2,1,07,01,34,049,25,03,46,084,31,06,31,238,21,14,69,188,31,8*6D,1744089412998
$GPGSV,2,2,07,11,01,233,,24,08,312,,30,07,203,,8*52,1744089412998
$GAGSV,2,1,08,10,77,248,39,11,47,234,36,12,75,033,38,16,65,298,46,7*71,1744089412998
$GAGSV,2,2,08,24,78,201,37,25,40,311,34,31,29,147,20,33,20,047,32,7*7B,1744089412998
$GAGSV,2,1,08,10,77,248,21,11,47,234,31,12,75,033,29,16,65,298,31,1*79,1744089412998
$GAGSV,2,2,08,24,78,201,23,25,40,311,21,31,29,147,25,33,20,047,26,1*7C,1744089412998
$GQGSV,1,1,02,03,71,092,44,04,19,145,19,1*6D,1744089412998
$GQGSV,1,1,03,02,54,140,22,03,71,092,30,04,19,145,17,8*5E,1744089412998
$GBGSV,5,1,18,60,29,228,32,59,36,147,31,44,44,278,37,40,72,039,27,1*71,1744089412998
$GBGSV,5,2,18,38,37,172,38,35,71,014,42,20,17,057,34,19,23,107,23,1*74,1744089412998
$GBGSV,5,3,18,10,71,307,41,09,20,216,23,07,82,341,38,03,42,189,32,1*74,1744089412998
$GBGSV,5,4,18,01,35,140,30,06,11,203,,08,25,178,,13,14,187,,1*70,1744089412998
$GBGSV,5,5,18,16,06,196,,45,11,174,,1*73,1744089412998
$GBGSV,2,1,07,19,23,107,28,20,17,057,23,35,71,014,42,38,37,172,21,3*79,1744089412998
$GBGSV,2,2,07,40,72,039,46,44,44,278,32,45,11,174,,3*45,1744089412998
$GBGSV,2,1,07,19,23,107,21,20,17,057,18,35,71,014,26,38,37,172,27,5*7A,1744089412998
$GBGSV,2,2,07,40,72,039,31,44,44,278,25,45,11,174,,5*45,1744089412998
$GNGSA,A,3,01,03,06,14,17,19,22,,,,,,0.8,0.5,0.6,1*35,1744089413062
$GNGSA,A,3,10,12,16,24,25,31,33,,,,,,0.8,0.5,0.6,3*3E,1744089413062
$GNGSA,A,3,07,10,19,20,35,38,40,44,,,,,0.8,0.5,0.6,4*3A,1744089413062
$GNGSA,A,3,02,03,04,,,,,,,,,,0.8,0.5,0.6,5*3B,1744089413062
$GNVTG,270.4,T,278.2,M,14.9,N,27.6,K,A*3C,1744089413062
$GNDTM,W84,,0000.000000,N,00000.000000,E,0.000,W84*41,1744089413062
$GNRMC,051653.00,A,3954.796320,N,11626.996025,E,14.9,270.4,080425,7.8,W,A,V*7F,1744089413062
$GNGNS,051653.00,3954.796320,N,11626.996025,E,ANAAAN,25,0.5,58.9,-9.0,,,V*05,1744089413062
$GNGGA,051653.00,3954.796320,N,11626.996025,E,1,12,0.5,58.9,M,-9.0,M,,*51,1744089413062
$GPGSV,3,1,11,01,34,049,34,03,46,084,30,06,31,238,29,14,69,188,37,1*6D,1744089414000
$GPGSV,3,2,11,17,69,347,38,19,46,300,31,22,76,268,42,02,08,055,,1*6D,1744089414000
$GPGSV,3,3,11,11,01,233,,24,08,312,,30,07,203,,1*5C,1744089414000
$GPGSV,2,1,07,01,34,049,25,03,46,084,30,06,31,238,21,14,69,188,31,8*6C,1744089414000
$GPGSV,2,2,07,11,01,233,,24,08,312,,30,07,203,,8*52,1744089414000
$GAGSV,2,1,08,10,77,248,39,11,47,234,36,12,75,033,38,16,65,298,44,7*73,1744089414000
$GAGSV,2,2,08,24,78,201,37,25,40,311,27,31,29,147,20,33,20,047,32,7*79,1744089414000
$GAGSV,2,1,08,10,77,248,22,11,47,234,33,12,75,033,29,16,65,298,30,1*79,1744089414000
$GAGSV,2,2,08,24,78,201,21,25,40,311,21,31,29,147,25,33,20,047,26,1*7E,1744089414000
$GQGSV,1,1,03,02,54,140,29,03,71,092,44,04,19,145,22,1*59,1744089414000
$GQGSV,1,1,03,02,54,140,22,03,71,092,30,04,19,145,17,8*5E,1744089414000
$GBGSV,5,1,18,60,29,228,32,59,36,147,31,44,44,278,37,40,72,039,27,1*71,1744089414000
$GBGSV,5,2,18,38,37,172,38,35,71,014,42,20,17,057,34,19,23,107,23,1*74,1744089414000
$GBGSV,5,3,18,10,71,307,40,09,20,216,23,07,82,341,37,03,42,189,32,1*7A,1744089414000
$GBGSV,5,4,18,01,35,140,30,06,11,203,,08,25,178,,13,14,187,,1*70,1744089414000
$GBGSV,5,5,18,16,06,196,,45,11,174,,1*73,1744089414000
$GBGSV,2,1,07,19,23,107,24,20,17,057,20,35,71,014,44,38,37,172,22,3*73,1744089414000
$GBGSV,2,2,07,40,72,039,45,44,44,278,33,45,11,174,,3*47,1744089414000
$GBGSV,2,1,07,19,23,107,21,20,17,057,18,35,71,014,23,38,37,172,27,5*7F,1744089414000
$GBGSV,2,2,07,40,72,039,31,44,44,278,26,45,11,174,,5*46,1744089414000
$GNGSA,A,3,01,03,06,14,17,19,22,,,,,,0.8,0.5,0.6,1*35,1744089414047
$GNGSA,A,3,10,12,16,24,25,31,33,,,,,,0.8,0.5,0.6,3*3E,1744089414047
$GNGSA,A,3,07,10,19,35,38,40,44,,,,,,0.8,0.5,0.6,4*38,1744089414047
$GNGSA,A,3,02,03,04,,,,,,,,,,0.8,0.5,0.6,5*3B,1744089414047
$GNVTG,268.8,T,276.6,M,15.8,N,29.2,K,A*39,1744089414047
$GNDTM,W84,,0000.000000,N,00000.000000,E,0.000,W84*41,1744089414047
$GNRMC,051654.00,A,3954.796228,N,11626.990570,E,15.8,268.8,080425,7.8,W,A,V*77,1744089414047
$GNGNS,051654.00,3954.796228,N,11626.990570,E,ANAAAN,24,0.5,58.6,-9.0,,,V*06,1744089414047
$GNGGA,051654.00,3954.796228,N,11626.990570,E,1,12,0.5,58.6,M,-9.0,M,,*53,1744089414047
$GPGSV,3,1,11,01,34,049,33,03,46,084,30,06,31,238,32,14,69,188,37,1*60,1744089415001
$GPGSV,3,2,11,17,69,347,38,19,46,300,26,22,76,268,42,02,08,055,,1*6B,1744089415001
$GPGSV,3,3,11,11,01,233,,24,08,312,,30,07,203,,1*5C,1744089415001
$GPGSV,2,1,07,01,34,049,25,03,46,084,31,06,31,238,21,14,69,188,32,8*6E,1744089415001
$GPGSV,2,2,07,11,01,233,,24,08,312,,30,07,203,,8*52,1744089415001
$GAGSV,2,1,08,10,77,248,40,11,47,234,36,12,75,033,39,16,65,298,45,7*7D,1744089415001
$GAGSV,2,2,08,24,78,201,37,25,40,311,22,31,29,147,20,33,20,047,,7*7D,1744089415001
$GAGSV,2,1,08,10,77,248,23,11,47,234,31,12,75,033,29,16,65,298,30,1*7A,1744089415001
$GAGSV,2,2,08,24,78,201,23,25,40,311,21,31,29,147,25,33,20,047,19,1*70,1744089415001
$GQGSV,1,1,03,02,54,140,29,03,71,092,44,04,19,145,26,1*5D,1744089415001
$GQGSV,1,1,03,02,54,140,22,03,71,092,30,04,19,145,17,8*5E,1744089415001
$GBGSV,5,1,18,60,29,228,32,59,36,147,31,44,44,278,37,40,72,039,27,1*71,1744089415001
$GBGSV,5,2,18,38,37,172,38,35,71,014,42,20,17,057,34,19,23,107,23,1*74,1744089415001
$GBGSV,5,3,18,10,71,307,41,09,20,216,21,07,82,341,37,03,42,189,32,1*79,1744089415001
$GBGSV,5,4,18,01,35,140,30,06,11,203,,08,25,178,,13,14,187,,1*70,1744089415001
$GBGSV,5,5,18,16,06,196,,45,11,174,,1*73,1744089415001
$GBGSV,2,1,07,19,23,107,24,20,17,057,20,35,71,014,44,38,37,172,22,3*73,1744089415001
$GBGSV,2,2,07,40,72,039,45,44,44,278,33,45,11,174,,3*47,1744089415001
$GBGSV,2,1,07,19,23,107,21,20,17,057,18,35,71,014,25,38,37,172,27,5*79,1744089415001
$GBGSV,2,2,07,40,72,039,32,44,44,278,30,45,11,174,,5*42,1744089415001
$GNGSA,A,3,01,03,06,14,17,19,22,,,,,,0.9,0.6,0.6,1*37,1744089415027
$GNGSA,A,3,10,12,16,24,25,31,33,,,,,,0.9,0.6,0.6,3*3C,1744089415027
$GNGSA,A,3,07,09,10,19,35,38,40,44,,,,,0.9,0.6,0.6,4*33,1744089415027
$GNGSA,A,3,02,03,04,,,,,,,,,,0.9,0.6,0.6,5*39,1744089415027
$GNVTG,269.8,T,277.6,M,16.1,N,29.8,K,A*39,1744089415027
$GNDTM,W84,,0000.000000,N,00000.000000,E,0.000,W84*41,1744089415027
$GNRMC,051655.00,A,3954.796204,N,11626.985238,E,16.1,269.8,080425,7.8,W,A,V*7C,1744089415027
$GNGNS,051655.00,3954.796204,N,11626.985238,E,ANAAAN,25,0.6,57.2,-9.0,,,V*0F,1744089415027
$GNGGA,051655.00,3954.796204,N,11626.985238,E,1,12,0.6,57.2,M,-9.0,M,,*5B,1744089415027
$GPGSV,3,1,11,01,34,049,31,03,46,084,28,06,31,238,27,14,69,188,38,1*60,1744089415999
$GPGSV,3,2,11,17,69,347,39,19,46,300,23,22,76,268,42,02,08,055,,1*6F,1744089415999
$GPGSV,3,3,11,11,01,233,,24,08,312,,30,07,203,,1*5C,1744089415999
$GPGSV,2,1,07,01,34,049,25,03,46,084,31,06,31,238,21,14,69,188,33,8*6F,1744089415999
$GPGSV,2,2,07,11,01,233,,24,08,312,,30,07,203,,8*52,1744089415999
$GAGSV,2,1,08,10,77,248,40,11,47,234,24,12,75,033,38,16,65,298,46,7*7C,1744089415999
$GAGSV,2,2,08,24,78,201,38,25,40,311,22,31,29,147,24,33,20,047,,7*76,1744089415999
$GAGSV,2,1,08,10,77,248,22,11,47,234,31,12,75,033,29,16,65,298,31,1*7A,1744089415999
$GAGSV,2,2,08,24,78,201,23,25,40,311,21,31,29,147,25,33,20,047,19,1*70,1744089415999
$GQGSV,1,1,03,02,54,140,30,03,71,092,44,04,19,145,33,1*51,1744089415999
$GQGSV,1,1,03,02,54,140,22,03,71,092,28,04,19,145,17,8*57,1744089415999
$GBGSV,5,1,18,60,29,228,32,59,36,147,31,44,44,278,37,40,72,039,27,1*71,1744089415999
$GBGSV,5,2,18,38,37,172,38,35,71,014,42,20,17,057,34,19,23,107,23,1*74,1744089415999
$GBGSV,5,3,18,13,14,187,18,10,71,307,41,09,20,216,23,07,82,341,37,1*7F,1744089415999
$GBGSV,5,4,18,03,42,189,32,01,35,140,30,06,11,203,,08,25,178,,1*7D,1744089415999
$GBGSV,5,5,18,16,06,196,,45,11,174,,1*73,1744089415999
$GBGSV,2,1,07,19,23,107,24,20,17,057,20,35,71,014,41,38,37,172,22,3*76,1744089415999
$GBGSV,2,2,07,40,72,039,45,44,44,278,38,45,11,174,,3*4C,1744089415999
$GBGSV,2,1,07,19,23,107,21,20,17,057,18,35,71,014,22,38,37,172,27,5*7E,1744089415999
$GBGSV,2,2,07,40,72,039,32,44,44,278,30,45,11,174,,5*42,1744089415999
$GNGSA,A,3,01,03,06,14,17,19,22,,,,,,0.8,0.6,0.6,1*36,1744089416055
$GNGSA,A,3,10,12,16,24,25,31,33,,,,,,0.8,0.6,0.6,3*3D,1744089416055
$GNGSA,A,3,07,09,10,13,19,35,38,40,44,,,,0.8,0.6,0.6,4*30,1744089416055
$GNGSA,A,3,02,03,04,,,,,,,,,,0.8,0.6,0.6,5*38,1744089416055
$GNVTG,270.4,T,278.2,M,17.0,N,31.5,K,A*32,1744089416055
$GNDTM,W84,,0000.000000,N,00000.000000,E,0.000,W84*41,1744089416055
$GNRMC,051656.00,A,3954.796256,N,11626.979488,E,17.0,270.4,080425,7.8,W,A,V*72,1744089416055
$GNGNS,051656.00,3954.796256,N,11626.979488,E,ANAAAN,26,0.6,57.2,-9.0,,,V*06,1744089416055
$GNGGA,051656.00,3954.796256,N,11626.979488,E,1,12,0.6,57.2,M,-9.0,M,,*51,1744089416055
$GPGSV,3,1,11,01,34,049,33,03,46,084,27,06,31,238,29,14,69,188,38,1*63,1744089417002
$GPGSV,3,2,11,17,69,347,39,19,46,300,30,22,76,268,43,02,08,055,,1*6C,1744089417002
$GPGSV,3,3,11,11,01,233,,24,08,312,,30,07,203,,1*5C,1744089417002
$GPGSV,2,1,07,01,34,049,25,03,46,084,32,06,31,238,22,14,69,188,31,8*6D,1744089417002
$GPGSV,2,2,07,11,01,233,,24,08,312,,30,07,203,,8*52,1744089417002
$GAGSV,2,1,08,10,77,248,40,11,47,234,24,12,75,033,38,16,65,298,44,7*7E,1744089417002
$GAGSV,2,2,08,24,78,201,38,25,40,311,22,31,29,147,30,33,20,047,,7*73,1744089417002
$GAGSV,2,1,08,10,77,248,25,11,47,234,31,12,75,033,29,16,65,298,30,1*7C,1744089417002
$GAGSV,2,2,08,24,78,201,21,25,40,311,21,31,29,147,16,33,20,047,25,1*7D,1744089417002
$GQGSV,1,1,03,02,54,140,31,03,71,092,44,04,19,145,36,1*55,1744089417002
$GQGSV,1,1,03,02,54,140,14,03,71,092,29,04,19,145,20,8*57,1744089417002
$GBGSV,5,1,18,60,29,228,32,59,36,147,31,44,44,278,37,40,72,039,27,1*71,1744089417002
$GBGSV,5,2,18,38,37,172,38,35,71,014,42,20,17,057,34,19,23,107,23,1*74,1744089417002
$GBGSV,5,3,18,13,14,187,23,10,71,307,40,09,20,216,23,07,82,341,38,1*79,1744089417002
$GBGSV,5,4,18,03,42,189,32,01,35,140,30,06,11,203,,08,25,178,,1*7D,1744089417002
$GBGSV,5,5,18,16,06,196,,45,11,174,,1*73,1744089417002
$GBGSV,2,1,07,19,23,107,24,20,17,057,26,35,71,014,42,38,37,172,25,3*74,1744089417002
$GBGSV,2,2,07,40,72,039,45,44,44,278,39,45,11,174,,3*4D,1744089417002
$GBGSV,2,1,07,19,23,107,21,20,17,057,18,35,71,014,26,38,37,172,27,5*7A,1744089417002
$GBGSV,2,2,07,40,72,039,32,44,44,278,32,45,11,174,,5*40,1744089417002
$GNGSA,A,3,01,03,06,14,17,19,22,,,,,,0.8,0.5,0.6,1*35,1744089417038
$GNGSA,A,3,10,12,16,24,25,31,33,,,,,,0.8,0.5,0.6,3*3E,1744089417038
$GNGSA,A,3,07,09,10,13,19,20,35,38,40,44,,,0.8,0.5,0.6,4*31,1744089417038
$GNGSA,A,3,02,03,04,,,,,,,,,,0.8,0.5,0.6,5*3B,1744089417038
$GNVTG,270.0,T,277.8,M,17.7,N,32.7,K,A*35,1744089417038
$GNDTM,W84,,0000.000000,N,00000.000000,E,0.000,W84*41,1744089417038
$GNRMC,051657.00,A,3954.796327,N,11626.973234,E,17.7,270.0,080425,7.8,W,A,V*7C,1744089417038
$GNGNS,051657.00,3954.796327,N,11626.973234,E,ANAAAN,27,0.5,57.3,-9.0,,,V*08,1744089417038
$GNGGA,051657.00,3954.796327,N,11626.973234,E,1,12,0.5,57.3,M,-9.0,M,,*5E,1744089417038
$GPGSV,3,1,11,01,34,049,33,03,46,084,27,06,31,238,31,14,69,188,38,1*6A,1744089418007
$GPGSV,3,2,11,17,69,347,39,19,46,300,33,22,76,268,42,02,08,055,,1*6E,1744089418007
$GPGSV,3,3,11,11,01,233,,24,08,312,,30,07,203,,1*5C,1744089418007
$GPGSV,2,1,07,01,34,049,30,03,46,084,30,06,31,238,27,14,69,188,31,8*6E,1744089418007
$GPGSV,2,2,07,11,01,233,,24,08,312,,30,07,203,,8*52,1744089418007
$GAGSV,2,1,08,10,77,248,40,11,47,234,18,12,75,033,38,16,65,298,34,7*76,1744089418007
$GAGSV,2,2,08,24,78,201,37,25,40,311,21,31,29,147,34,33,20,047,,7*7B,1744089418007
$GAGSV,2,1,08,10,77,248,23,11,47,234,31,12,75,033,29,16,65,298,21,1*7A,1744089418007
$GAGSV,2,2,08,24,78,201,22,25,40,311,17,31,29,147,28,33,20,047,27,1*74,1744089418007
$GQGSV,1,1,03,02,54,140,33,03,71,092,44,04,19,145,35,1*54,1744089418007
$GQGSV,1,1,03,02,54,140,22,03,71,092,29,04,19,145,30,8*53,1744089418007
$GBGSV,5,1,18,60,29,228,32,59,36,147,31,44,44,278,37,40,72,039,27,1*71,1744089418007
$GBGSV,5,2,18,38,37,172,38,35,71,014,42,20,17,057,34,19,23,107,23,1*74,1744089418007
$GBGSV,5,3,18,13,14,187,25,10,71,307,41,09,20,216,23,07,82,341,37,1*71,1744089418007
$GBGSV,5,4,18,03,42,189,32,01,35,140,30,06,11,203,,08,25,178,,1*7D,1744089418007
$GBGSV,5,5,18,16,06,196,,45,11,174,,1*73,1744089418007
$GBGSV,2,1,07,19,23,107,24,20,17,057,27,35,71,014,42,38,37,172,39,3*78,1744089418007
$GBGSV,2,2,07,40,72,039,45,44,44,278,39,45,11,174,,3*4D,1744089418007
$GBGSV,2,1,07,19,23,107,21,20,17,057,18,35,71,014,23,38,37,172,22,5*7A,1744089418007
$GBGSV,2,2,07,40,72,039,32,44,44,278,33,45,11,174,,5*41,1744089418007
$GNGSA,A,3,01,03,06,14,17,19,22,,,,,,0.8,0.5,0.6,1*35,1744089418024
$GNGSA,A,3,10,12,16,24,25,31,33,,,,,,0.8,0.5,0.6,3*3E,1744089418024
$GNGSA,A,3,07,09,10,13,19,20,35,38,40,44,,,0.8,0.5,0.6,4*31,1744089418024
$GNGSA,A,3,02,03,04,,,,,,,,,,0.8,0.5,0.6,5*3B,1744089418024
$GNVTG,269.5,T,277.3,M,17.4,N,32.3,K,A*34,1744089418024
$GNDTM,W84,,0000.000000,N,00000.000000,E,0.000,W84*41,1744089418024
$GNRMC,051658.00,A,3954.796250,N,11626.966822,E,17.4,269.5,080425,7.8,W,A,V*75,1744089418024
$GNGNS,051658.00,3954.796250,N,11626.966822,E,ANAAAN,27,0.5,57.7,-9.0,,,V*0B,1744089418024
$GNGGA,051658.00,3954.796250,N,11626.966822,E,1,12,0.5,57.7,M,-9.0,M,,*5D,1744089418024
$GPGSV,3,1,11,01,34,049,33,03,46,084,26,06,31,238,27,14,69,188,38,1*6C,1744089419003
$GPGSV,3,2,11,17,69,347,40,19,46,300,35,22,76,268,42,02,08,055,,1*66,1744089419003
$GPGSV,3,3,11,11,01,233,,24,08,312,,30,07,203,,1*5C,1744089419003
$GPGSV,2,1,07,01,34,049,29,03,46,084,32,06,31,238,22,14,69,188,32,8*62,1744089419003
$GPGSV,2,2,07,11,01,233,,24,08,312,,30,07,203,,8*52,1744089419003
$GAGSV,2,1,08,10,77,248,40,11,47,234,22,12,75,033,38,16,65,298,30,7*7B,1744089419003
$GAGSV,2,2,08,24,78,201,37,25,40,311,21,31,29,147,33,33,20,047,,7*7C,1744089419003
$GAGSV,2,1,08,10,77,248,23,11,47,234,31,12,75,033,29,16,65,298,21,1*7A,1744089419003
$GAGSV,2,2,08,24,78,201,23,25,40,311,24,31,29,147,30,33,20,047,25,1*7E,1744089419003
$GQGSV,1,1,03,02,54,140,41,03,71,092,44,04,19,145,34,1*50,1744089419003
$GQGSV,1,1,03,02,54,140,34,03,71,092,29,04,19,145,30,8*54,1744089419003
$GBGSV,5,1,18,60,29,228,32,59,36,147,31,44,44,278,37,40,72,039,27,1*71,1744089419003
$GBGSV,5,2,18,38,37,172,38,35,71,014,42,20,17,057,34,19,23,107,23,1*74,1744089419003
$GBGSV,5,3,18,13,14,187,25,10,71,307,39,09,20,216,22,07,82,341,37,1*7F,1744089419003
$GBGSV,5,4,18,03,42,189,32,01,35,140,30,06,11,203,,08,25,178,,1*7D,1744089419003
$GBGSV,5,5,18,16,06,196,,45,11,174,,1*73,1744089419003
$GBGSV,2,1,07,19,23,107,24,20,17,057,28,35,71,014,42,38,37,172,40,3*79,1744089419003
$GBGSV,2,2,07,40,72,039,45,44,44,278,39,45,11,174,,3*4D,1744089419003
$GBGSV,2,1,07,19,23,107,21,20,17,057,18,35,71,014,25,38,37,172,32,5*7D,1744089419003
$GBGSV,2,2,07,40,72,039,31,44,44,278,31,45,11,174,,5*40,1744089419003
$GNGSA,A,3,01,03,06,14,17,19,22,,,,,,0.8,0.5,0.6,1*35,1744089419046
$GNGSA,A,3,10,12,16,24,25,31,33,,,,,,0.8,0.5,0.6,3*3E,1744089419046
$GNGSA,A,3,07,09,10,13,19,20,35,38,40,44,,,0.8,0.5,0.6,4*31,1744089419046
$GNGSA,A,3,02,03,04,,,,,,,,,,0.8,0.5,0.6,5*3B,1744089419046
$GNVTG,270.1,T,277.9,M,16.9,N,31.2,K,A*3C,1744089419046
$GNDTM,W84,,0000.000000,N,00000.000000,E,0.000,W84*41,1744089419046
$GNRMC,051659.00,A,3954.796279,N,11626.960870,E,16.9,270.1,080425,7.8,W,A,V*7E,1744089419046
$GNGNS,051659.00,3954.796279,N,11626.960870,E,ANAAAN,27,0.5,57.6,-9.0,,,V*01,1744089419046
$GNGGA,051659.00,3954.796279,N,11626.960870,E,1,12,0.5,57.6,M,-9.0,M,,*57,1744089419046
$GPGSV,3,1,11,01,34,049,36,02,08,055,17,03,46,084,25,06,31,238,28,1*69,1744089420005
$GPGSV,3,2,11,14,69,188,37,17,69,347,40,19,46,300,33,22,76,268,42,1*65,1744089420005
$GPGSV,3,3,11,30,07,203,19,11,01,233,,24,08,312,,1*54,1744089420005
$GPGSV,2,1,07,01,34,049,29,03,46,084,32,06,31,238,22,14,69,188,34,8*64,1744089420005
$GPGSV,2,2,07,11,01,233,,24,08,312,,30,07,203,,8*52,1744089420005
$GAGSV,2,1,08,10,77,248,40,11,47,234,28,12,75,033,39,16,65,298,23,7*72,1744089420005
$GAGSV,2,2,08,24,78,201,38,25,40,311,29,31,29,147,38,33,20,047,,7*70,1744089420005
$GAGSV,2,1,08,10,77,248,23,11,47,234,17,12,75,033,29,16,65,298,21,1*7E,1744089420005
$GAGSV,2,2,08,24,78,201,23,25,40,311,33,31,29,147,32,33,20,047,25,1*7A,1744089420005
$GQGSV,1,1,03,02,54,140,39,03,71,092,44,04,19,145,35,1*5E,1744089420005
$GQGSV,1,1,03,02,54,140,31,03,71,092,30,04,19,145,32,8*5B,1744089420005
$GBGSV,5,1,18,60,29,228,32,59,36,147,31,44,44,278,37,40,72,039,27,1*71,1744089420005
$GBGSV,5,2,18,38,37,172,38,35,71,014,42,20,17,057,34,19,23,107,23,1*74,1744089420005
$GBGSV,5,3,18,13,14,187,22,10,71,307,28,09,20,216,29,07,82,341,38,1*7C,1744089420005
$GBGSV,5,4,18,03,42,189,32,01,35,140,30,06,11,203,,08,25,178,,1*7D,1744089420005
$GBGSV,5,5,18,16,06,196,,45,11,174,,1*73,1744089420005
$GBGSV,2,1,07,19,23,107,24,20,17,057,28,35,71,014,41,38,37,172,40,3*7A,1744089420005
$GBGSV,2,2,07,40,72,039,45,44,44,278,39,45,11,174,,3*4D,1744089420005
$GBGSV,2,1,07,19,23,107,21,20,17,057,18,35,71,014,24,38,37,172,31,5*7F,1744089420005
$GBGSV,2,2,07,40,72,039,32,44,44,278,33,45,11,174,,5*41,1744089420005
$GNGSA,A,3,01,02,03,06,14,17,19,22,30,,,,0.7,0.5,0.5,1*38,1744089420030
$GNGSA,A,3,10,12,16,24,25,31,33,,,,,,0.7,0.5,0.5,3*32,1744089420030
$GNGSA,A,3,07,09,10,13,19,20,35,38,40,44,,,0.7,0.5,0.5,4*3D,1744089420030
$GNGSA,A,3,02,03,04,,,,,,,,,,0.7,0.5,0.5,5*37,1744089420030
$GNVTG,269.9,T,277.7,M,16.4,N,30.3,K,A*3F,1744089420030
$GNDTM,W84,,0000.000000,N,00000.000000,E,0.000,W84*41,1744089420030
$GNRMC,051700.00,A,3954.796332,N,11626.954905,E,16.4,269.9,080425,7.8,W,A,V*74,1744089420030
$GNGNS,051700.00,3954.796332,N,11626.954905,E,ANAAAN,29,0.5,57.9,-9.0,,,V*07,1744089420030
$GNGGA,051700.00,3954.796332,N,11626.954905,E,1,12,0.5,57.9,M,-9.0,M,,*5F,1744089420030
$GPGSV,3,1,11,01,34,049,37,02,08,055,28,03,46,084,30,06,31,238,28,1*60,1744089421002
$GPGSV,3,2,11,14,69,188,38,17,69,347,33,19,46,300,28,22,76,267,42,1*6B,1744089421002
$GPGSV,3,3,11,30,07,203,19,11,01,233,,24,08,312,,1*54,1744089421002
$GPGSV,2,1,07,01,34,049,28,03,46,084,31,06,31,238,21,14,69,188,32,8*63,1744089421002
$GPGSV,2,2,07,11,01,233,,24,08,312,,30,07,203,,8*52,1744089421002
$GAGSV,2,1,08,10,77,248,39,11,47,234,31,12,75,033,39,16,65,298,31,7*77,1744089421002
$GAGSV,2,2,08,24,78,201,37,25,40,311,29,31,29,147,36,33,20,047,,7*71,1744089421002
$GAGSV,2,1,08,10,77,248,21,11,47,234,28,12,75,033,30,16,65,298,21,1*78,1744089421002
$GAGSV,2,2,08,24,78,201,21,25,40,311,27,31,29,147,30,33,20,047,19,1*70,1744089421002
$GQGSV,1,1,03,02,54,140,35,03,71,092,44,04,19,145,27,1*51,1744089421002
$GQGSV,1,1,03,02,54,140,21,03,71,092,27,04,19,145,22,8*5D,1744089421002
$GBGSV,5,1,18,60,29,228,32,59,36,147,31,44,44,278,37,40,72,039,27,1*71,1744089421002
$GBGSV,5,2,18,38,37,172,38,35,71,014,42,20,17,057,34,19,23,107,23,1*74,1744089421002
$GBGSV,5,3,18,13,14,187,22,10,71,307,26,09,20,216,29,07,82,341,37,1*7D,1744089421002
$GBGSV,5,4,18,03,42,189,32,01,35,140,30,06,11,203,,08,25,178,,1*7D,1744089421002
$GBGSV,5,5,18,16,06,196,,45,11,174,,1*73,1744089421002
$GBGSV,2,1,07,19,23,107,24,20,17,057,28,35,71,014,42,38,37,172,39,3*77,1744089421002
$GBGSV,2,2,07,40,72,039,45,44,44,278,39,45,11,174,,3*4D,1744089421002
$GBGSV,2,1,07,19,23,107,21,20,17,057,18,35,71,014,24,38,37,172,32,5*7C,1744089421002
$GBGSV,2,2,07,40,72,039,32,44,44,278,30,45,11,174,,5*42,1744089421002
$GNGSA,A,3,01,02,03,06,14,17,19,22,30,,,,0.7,0.5,0.5,1*38,1744089421056
$GNGSA,A,3,10,12,16,24,25,31,33,,,,,,0.7,0.5,0.5,3*32,1744089421056
$GNGSA,A,3,07,09,10,13,20,35,38,40,44,,,,0.7,0.5,0.5,4*35,1744089421056
$GNGSA,A,3,02,03,04,,,,,,,,,,0.7,0.5,0.5,5*37,1744089421056
$GNVTG,269.5,T,277.3,M,16.0,N,29.6,K,A*3E,1744089421056
$GNDTM,W84,,0000.000000,N,00000.000000,E,0.000,W84*41,1744089421056
$GNGGA,051701.00,3954.79475791,N,11626.95153758,E,4,12,1.7,39.6336,M,-8.2910,M,1.0,1828*76
$GNRMC,051701.00,D,3954.79475791,N,11626.95153758,E,16.103,270.4,080425,7.2,W,R,S*67
$GPGSV,2,1,05,14,68,187,39,17,69,347,33,19,45,300,27,22,75,268,44,1*65
$GPGSV,2,2,05,03,46,083,45,1*5A
$GPGSV,1,1,04,14,68,187,44,17,69,347,27,22,75,268,36,03,46,083,39,4*67
$GPGSV,1,1,03,01,33,048,38,14,68,187,44,03,46,083,40,8*53
$GLGSV,1,1,01,77,55,295,26,1*43
$GBGSV,3,1,11,07,82,341,43,24,36,293,28,10,70,307,28,26,44,224,33,1*71
$GBGSV,3,2,11,44,43,278,45,35,70,014,45,01,35,140,34,12,21,266,42,1*78
$GBGSV,3,3,11,03,42,189,41,40,71,039,46,59,35,146,35,1*43
$GBGSV,2,1,08,07,82,341,34,24,36,293,16,10,70,307,20,26,44,224,10,8*75
$GBGSV,2,2,08,44,43,278,36,35,70,014,39,12,21,266,32,40,71,039,34,8*7A
$GBGSV,2,1,05,07,82,341,38,10,70,307,25,01,35,140,31,12,21,266,40,B*00
$GBGSV,2,2,05,03,42,189,32,B*34
$GAGSV,2,1,06,10,76,248,37,11,47,233,24,24,78,200,40,25,39,311,18,1*75
$GAGSV,2,2,06,12,74,032,34,16,64,298,23,1*72
$GAGSV,2,1,05,10,76,248,41,11,47,233,25,24,78,200,44,12,74,032,37,2*73
$GAGSV,2,2,05,16,64,298,25,2*42
$GAGSV,2,1,06,10,76,248,46,11,47,233,41,24,78,200,39,25,39,311,27,7*74
$GAGSV,2,2,06,12,74,032,41,16,64,298,29,7*7C
$GNGGA,051702.00,3954.79476801,N,11626.94564048,E,4,12,1.7,39.6644,M,-8.2912,M,2.0,1828*76
$GNRMC,051702.00,D,3954.79476801,N,11626.94564048,E,16.436,269.0,080425,7.2,W,R,S*69
$GPGSV,2,1,05,14,68,187,38,17,69,347,29,19,45,300,30,22,75,268,44,1*69
$GPGSV,2,2,05,03,46,083,45,1*5A
$GPGSV,1,1,03,14,68,187,43,22,75,268,36,03,46,083,38,4*5A
$GPGSV,1,1,03,01,33,048,37,14,68,187,44,03,46,083,40,8*5C
$GLGSV,1,1,01,77,55,295,29,1*4C
$GBGSV,3,1,10,07,82,341,43,24,36,293,31,10,70,307,25,26,44,224,33,1*75
$GBGSV,3,2,10,44,43,278,44,35,70,014,44,12,21,266,43,03,42,189,36,1*7D
$GBGSV,3,3,10,40,71,039,46,59,35,146,33,1*74
$GBGSV,2,1,07,07,82,341,34,24,36,293,17,10,70,307,19,44,43,278,34,8*7D
$GBGSV,2,2,07,35,70,014,39,12,21,266,33,40,71,039,34,8*4B
$GBGSV,2,1,05,07,82,341,38,10,70,307,23,01,35,140,31,12,21,266,40,B*06
$GBGSV,2,2,05,03,42,189,27,B*30
$GAGSV,2,1,06,10,76,248,37,11,47,234,34,24,78,200,39,25,39,311,19,1*7C
$GAGSV,2,2,06,12,74,032,33,16,64,298,24,1*72
$GAGSV,2,1,05,10,76,248,41,11,47,234,36,24,78,200,44,12,74,032,37,2*76
$GAGSV,2,2,05,16,64,298,27,2*40
$GAGSV,2,1,06,10,76,248,46,11,47,234,43,24,78,200,38,25,39,311,29,7*7E
$GAGSV,2,2,06,12,74,032,41,16,64,298,33,7*77
$GNGGA,051703.00,3954.79475026,N,11626.93971503,E,4,11,1.8,39.6486,M,-8.2914,M,1.0,1828*79
$GNRMC,051703.00,D,3954.79475026,N,11626.93971503,E,16.305,269.6,080425,7.2,W,R,S*62
$GPGSV,2,1,05,14,68,187,34,17,69,347,29,19,45,300,29,22,75,268,44,1*6D
$GPGSV,2,2,05,03,46,083,45,1*5A
$GPGSV,1,1,04,14,68,187,41,17,69,347,21,22,75,268,35,03,46,083,38,4*66
$GPGSV,1,1,03,01,33,048,37,14,68,187,40,03,46,083,40,8*58
$GLGSV,1,1,01,77,55,295,39,1*4D
$GBGSV,3,1,11,07,82,341,42,24,36,293,36,10,70,307,28,26,44,224,36,1*7A
$GBGSV,3,2,11,44,44,278,43,35,70,014,31,12,21,266,43,03,42,189,36,1*7E
$GBGSV,3,3,11,09,19,215,27,40,71,039,45,59,35,146,36,1*41
$GBGSV,2,1,07,07,82,341,34,24,36,293,17,10,70,307,16,44,44,278,33,8*72
$GBGSV,2,2,07,35,70,014,27,12,21,266,33,40,71,039,34,8*44
$GBGSV,2,1,05,07,82,341,37,10,70,307,23,01,35,140,32,12,21,266,40,B*0A
$GBGSV,2,2,05,03,42,189,29,B*3E
$GAGSV,2,1,06,10,76,248,38,11,47,234,26,24,78,200,37,25,39,311,18,1*7F
$GAGSV,2,2,06,12,74,032,34,16,64,298,31,1*71
$GAGSV,2,1,05,10,76,248,40,11,47,234,28,24,78,200,45,12,74,032,38,2*76
$GAGSV,2,2,05,16,64,298,37,2*41
$GAGSV,2,1,06,10,76,248,46,11,47,234,40,24,78,200,35,25,39,311,32,7*7A
$GAGSV,2,2,06,12,74,032,41,16,64,298,43,7*70
$GNGGA,051704.00,3954.79473364,N,11626.93381549,E,4,11,1.7,39.6625,M,-8.2916,M,1.0,1828*70
$GNRMC,051704.00,D,3954.79473364,N,11626.93381549,E,16.213,272.5,080425,7.2,W,R,S*62
$GPGSV,2,1,05,14,68,187,37,17,69,347,28,19,45,300,32,22,75,268,43,1*62
$GPGSV,2,2,05,03,46,083,45,1*5A
$GPGSV,1,1,04,14,68,187,41,17,69,347,21,22,75,268,35,03,46,083,39,4*67
$GPGSV,1,1,03,01,33,048,37,14,68,187,40,03,46,083,40,8*58
$GLGSV,1,1,01,77,55,295,40,1*43
$GBGSV,3,1,11,07,82,341,42,24,36,293,37,10,70,307,35,26,44,224,36,1*77
$GBGSV,3,2,11,44,44,278,43,35,70,014,31,12,21,266,43,03,42,189,38,1*70
$GBGSV,3,3,11,09,19,215,28,40,71,039,45,59,35,146,34,1*4C
$GBGSV,2,1,06,07,82,341,33,24,36,293,18,10,70,307,25,44,44,278,33,8*7B
$GBGSV,2,2,06,12,21,266,35,40,71,039,34,8*72
$GBGSV,2,1,05,07,82,341,37,10,70,307,31,01,35,140,32,12,21,266,40,B*09
$GBGSV,2,2,05,03,42,189,30,B*36
$GAGSV,2,1,06,10,76,249,38,11,47,234,26,24,78,200,37,25,39,311,18,1*7E
$GAGSV,2,2,06,12,74,032,30,16,64,298,37,1*73
$GAGSV,2,1,05,10,76,249,41,11,47,234,26,24,78,200,44,12,74,032,34,2*75
$GAGSV,2,2,05,16,64,298,40,2*41
$GAGSV,2,1,06,10,76,249,44,11,47,234,27,24,78,200,38,25,39,311,30,7*77
$GAGSV,2,2,06,12,74,032,37,16,64,298,44,7*76
$GNGGA,051705.00,3954.79471411,N,11626.92827592,E,4,09,2.2,39.6910,M,-8.2918,M,1.0,1828*7E
$GNRMC,051705.00,D,3954.79471411,N,11626.92827592,E,14.478,268.6,080425,7.2,W,R,S*65
$GPGSV,2,1,05,14,68,187,40,17,69,347,28,19,45,300,34,22,75,268,43,1*64
$GPGSV,2,2,05,03,46,083,45,1*5A
$GPGSV,1,1,04,14,68,187,43,17,69,347,20,22,75,268,35,03,46,083,39,4*64
$GPGSV,1,1,03,01,33,048,35,14,68,187,43,03,46,083,40,8*59
$GLGSV,1,1,01,77,55,295,40,1*43
$GBGSV,3,1,11,07,82,341,42,24,36,293,37,10,70,307,41,26,44,224,33,1*71
$GBGSV,3,2,11,44,44,278,45,35,70,014,30,01,35,140,31,12,21,266,43,1*79
$GBGSV,3,3,11,03,42,189,37,40,71,039,33,59,35,146,32,1*47
$GBGSV,2,1,06,07,82,341,33,24,36,293,18,10,70,307,28,44,44,278,35,8*70
$GBGSV,2,2,06,12,21,266,36,40,71,039,26,8*72
$GBGSV,2,1,05,07,82,341,37,10,70,307,33,01,35,140,27,12,21,266,40,B*0F
$GBGSV,2,2,05,03,42,189,30,B*36
$GAGSV,1,1,04,10,76,249,37,24,78,200,38,25,39,311,19,16,64,298,37,1*7E
$GAGSV,1,1,03,10,76,249,42,24,78,200,43,16,64,298,40,2*42
$GAGSV,2,1,06,10,76,249,45,11,47,234,29,24,78,200,40,25,39,311,31,7*76
$GAGSV,2,2,06,12,74,032,27,16,64,298,45,7*76
$GNGGA,051706.00,3954.79467430,N,11626.92324535,E,4,09,2.2,39.7068,M,-8.2919,M,1.0,1828*7A
$GNRMC,051706.00,D,3954.79467430,N,11626.92324535,E,13.285,265.3,080425,7.2,W,R,S*6C
$GPGSV,2,1,05,14,68,187,41,17,69,347,38,19,45,300,32,22,75,268,43,1*62
$GPGSV,2,2,05,03,46,083,45,1*5A
$GPGSV,1,1,04,14,68,187,45,17,69,347,34,22,75,268,36,03,46,083,39,4*64
$GPGSV,1,1,03,01,33,048,29,14,68,187,45,03,46,083,40,8*52
$GLGSV,1,1,01,77,55,295,38,1*4C
$GBGSV,3,1,11,07,82,341,43,24,36,293,36,10,70,307,41,26,44,224,31,1*73
$GBGSV,3,2,11,44,44,278,47,35,70,014,29,01,35,140,29,12,21,266,42,1*7B
$GBGSV,3,3,11,03,42,189,34,40,71,039,30,59,35,146,32,1*47
$GBGSV,2,1,05,07,82,341,34,24,36,293,16,10,70,307,31,44,44,278,37,8*70
$GBGSV,2,2,05,12,21,266,36,8*4D
$GBGSV,2,1,05,07,82,341,38,10,70,307,36,01,35,140,29,12,21,266,40,B*0B
$GBGSV,2,2,05,03,42,189,27,B*30
$GAGSV,1,1,04,10,76,249,37,24,78,200,40,25,39,311,18,16,64,298,38,1*7F
$GAGSV,1,1,04,10,76,249,42,11,47,234,21,24,78,200,43,16,64,298,39,2*7E
$GAGSV,2,1,06,10,76,249,45,11,47,234,28,24,78,200,40,25,39,311,31,7*77
$GAGSV,2,2,06,12,74,032,27,16,64,298,45,7*76
$GNGGA,051707.00,3954.79461014,N,11626.91876332,E,4,09,2.2,39.7739,M,-8.2921,M,1.0,1828*79
$GNRMC,051707.00,D,3954.79461014,N,11626.91876332,E,11.998,267.4,080425,7.2,W,R,S*67
$GPGSV,2,1,05,14,68,187,40,17,69,347,43,19,45,300,33,22,75,268,44,1*69
$GPGSV,2,2,05,03,46,083,46,1*59
$GPGSV,1,1,04,14,68,187,45,17,69,347,38,22,75,268,36,03,46,083,39,4*68
$GPGSV,1,1,02,14,68,187,44,03,46,083,40,8*64
$GLGSV,1,1,01,77,55,295,27,1*42
$GBGSV,3,1,11,07,82,341,42,24,36,293,34,10,70,307,40,26,44,224,31,1*71
$GBGSV,3,2,11,44,44,278,46,35,70,014,27,01,35,140,32,12,21,266,42,1*7E
$GBGSV,3,3,11,03,42,189,31,40,71,039,28,59,35,146,34,1*4D
$GBGSV,2,1,05,07,82,341,34,24,36,293,15,10,70,307,30,44,44,278,37,8*72
$GBGSV,2,2,05,12,21,266,36,8*4D
$GBGSV,2,1,06,07,82,341,38,10,70,307,36,01,35,140,28,12,21,266,39,B*07
$GBGSV,2,2,06,03,42,189,25,09,19,215,26,B*02
$GAGSV,1,1,04,10,76,249,37,24,78,200,40,25,39,311,20,16,64,298,37,1*7B
$GAGSV,2,1,05,10,76,249,42,11,47,234,21,24,78,200,43,25,39,311,28,2*74
$GAGSV,2,2,05,16,64,298,39,2*4F
$GAGSV,2,1,06,10,76,249,45,11,47,234,30,24,78,200,40,25,39,311,32,7*7D
$GAGSV,2,2,06,12,74,032,25,16,64,298,44,7*75
$GNGGA,051708.00,3954.79449053,N,11626.91448573,E,4,10,1.9,39.7941,M,-8.2922,M,1.0,1828*7F
$GNRMC,051708.00,D,3954.79449053,N,11626.91448573,E,11.973,268.6,080425,7.2,W,R,S*6B
$GPGSV,2,1,05,14,68,187,39,17,69,347,43,19,45,300,33,22,75,268,44,1*67
$GPGSV,2,2,05,03,46,083,45,1*5A
$GPGSV,1,1,04,14,68,187,45,17,69,347,39,22,75,268,36,03,46,083,39,4*69
$GPGSV,1,1,02,14,68,187,43,03,46,083,40,8*63
$GLGSV,1,1,01,77,55,295,27,1*42
$GBGSV,3,1,11,07,82,341,43,24,36,293,35,10,70,307,41,26,44,224,32,1*73
$GBGSV,3,2,11,44,44,278,46,35,70,014,38,01,35,140,31,12,21,266,44,1*75
$GBGSV,3,3,11,03,42,189,32,40,71,039,30,59,35,146,33,1*40
$GBGSV,2,1,05,07,82,341,34,24,36,293,15,10,70,307,30,44,44,278,37,8*72
$GBGSV,2,2,05,12,21,266,36,8*4D
$GBGSV,1,1,04,07,82,341,38,10,70,307,37,01,35,140,29,12,21,266,40,B*08
$GAGSV,2,1,06,10,76,249,37,11,47,234,19,24,78,200,40,25,39,311,20,1*76
$GAGSV,2,2,06,12,74,032,19,16,64,298,36,1*79
$GAGSV,2,1,05,10,76,249,42,11,47,234,21,24,78,200,43,25,39,311,26,2*7A
$GAGSV,2,2,05,16,64,298,38,2*4E
$GAGSV,2,1,06,10,76,249,44,11,47,234,31,24,78,200,40,25,39,311,34,7*7B
$GAGSV,2,2,06,12,74,032,23,16,64,298,44,7*73
$GNGGA,051709.00,3954.79450914,N,11626.90978283,E,4,09,2.0,39.8120,M,-8.2924,M,1.0,1828*7F
$GNRMC,051709.00,D,3954.79450914,N,11626.90978283,E,13.963,273.0,080425,7.2,W,R,S*60
$GPGSV,2,1,05,14,68,187,39,17,69,347,43,19,45,300,37,22,75,268,44,1*63
$GPGSV,2,2,05,03,46,083,45,1*5A
$GPGSV,1,1,04,14,68,187,44,17,69,347,39,22,75,268,36,03,46,083,39,4*68
$GPGSV,1,1,02,14,68,187,44,03,46,083,40,8*64
$GLGSV,1,1,01,77,55,295,29,1*4C
$GBGSV,3,1,11,07,82,341,43,24,36,293,35,10,70,307,41,26,44,224,34,1*75
$GBGSV,3,2,11,44,44,278,46,35,70,014,44,01,35,140,30,12,21,266,44,1*7F
$GBGSV,3,3,11,03,42,189,30,40,71,039,31,59,35,146,33,1*43
$GBGSV,2,1,06,07,82,341,34,24,36,293,14,10,70,307,30,44,44,278,36,8*71
$GBGSV,2,2,06,35,70,014,39,12,21,266,36,8*70
$GBGSV,1,1,04,07,82,341,38,10,70,307,37,01,35,140,29,12,21,266,41,B*09
$GAGSV,2,1,06,10,76,249,37,11,47,234,22,24,78,200,40,25,39,311,21,1*7F
$GAGSV,2,2,06,12,74,032,24,16,64,298,32,1*73
$GAGSV,2,1,05,10,76,249,42,11,47,234,24,24,78,200,43,12,74,032,27,2*71
$GAGSV,2,2,05,16,64,298,34,2*42
$GAGSV,2,1,06,10,76,249,44,11,47,234,31,24,78,200,39,25,39,311,33,7*72
$GAGSV,2,2,06,12,74,032,36,16,64,298,37,7*73
$GNGGA,051710.00,3954.79472096,N,11626.90440039,E,4,09,2.0,39.8070,M,-8.2925,M,1.0,1828*74
$GNRMC,051710.00,D,3954.79472096,N,11626.90440039,E,15.944,273.3,080425,7.2,W,R,S*6E
$GPGSV,2,1,06,01,33,048,39,14,68,187,40,17,69,347,43,19,45,300,34,1*64
$GPGSV,2,2,06,22,75,268,44,03,46,083,45,1*67
$GPGSV,2,1,05,01,33,048,29,14,68,187,45,17,69,347,39,22,75,268,35,4*6E
$GPGSV,2,2,05,03,46,083,39,4*54
$GPGSV,1,1,03,01,33,048,20,14,68,187,44,03,46,083,39,8*54
$GLGSV,1,1,01,77,55,295,29,1*4C
$GBGSV,3,1,11,07,82,341,43,24,36,293,35,10,70,307,40,26,44,224,33,1*73
$GBGSV,3,2,11,44,44,278,46,35,70,014,44,01,35,140,25,12,21,266,41,1*7E
$GBGSV,3,3,11,03,42,189,30,40,71,039,40,59,35,146,32,1*44
$GBGSV,2,1,07,07,82,341,34,24,36,293,12,10,70,307,29,44,44,278,37,8*7F
$GBGSV,2,2,07,35,70,014,39,12,21,266,35,40,71,039,27,8*4F
$GBGSV,1,1,04,07,82,341,38,10,70,307,37,01,35,140,27,12,21,266,39,B*08
$GAGSV,2,1,06,10,76,249,37,11,47,234,31,24,78,200,40,25,39,311,21,1*7D
$GAGSV,2,2,06,12,74,032,31,16,64,298,27,1*73
$GAGSV,2,1,05,10,76,249,42,11,47,234,36,24,78,200,44,12,74,032,35,2*76
$GAGSV,2,2,05,16,64,298,30,2*46
$GAGSV,2,1,06,10,76,249,45,11,47,234,40,24,78,200,40,25,39,311,33,7*7B
$GAGSV,2,2,06,12,74,032,40,16,64,298,35,7*70
$GNGGA,051711.00,3954.79495047,N,11626.89872207,E,4,12,1.6,39.7666,M,-8.2927,M,1.0,1828*79
$GNRMC,051711.00,D,3954.79495047,N,11626.89872207,E,15.623,271.7,080425,7.2,W,R,S*68
$GPGSV,2,1,06,01,33,048,35,14,68,187,42,17,69,347,43,19,45,300,35,1*6B
$GPGSV,2,2,06,22,75,268,43,03,46,083,45,1*60
$GPGSV,2,1,05,01,33,048,30,14,68,187,45,17,69,347,39,22,75,268,35,4*66
$GPGSV,2,2,05,03,46,083,39,4*54
$GPGSV,1,1,03,01,33,048,19,14,68,187,44,03,46,083,39,8*5E
$GLGSV,1,1,01,77,55,295,28,1*4D
$GBGSV,3,1,11,07,82,341,43,24,36,293,34,10,70,307,36,26,44,224,33,1*73
$GBGSV,3,2,11,44,44,278,45,35,70,014,44,01,35,140,30,12,21,266,39,1*76
$GBGSV,3,3,11,03,42,189,30,40,71,039,45,59,35,146,31,1*42
$GBGSV,2,1,07,07,82,341,34,24,36,293,11,10,70,307,24,44,44,278,36,8*70
$GBGSV,2,2,07,35,70,014,39,12,21,266,31,40,71,039,30,8*4D
$GBGSV,1,1,04,07,82,341,38,10,70,307,29,01,35,140,24,12,21,266,37,B*0A
$GAGSV,2,1,06,10,76,249,37,11,47,234,37,24,78,200,40,25,39,311,21,1*7B
$GAGSV,2,2,06,12,74,032,35,16,64,298,25,1*75
$GAGSV,2,1,05,10,76,249,41,11,47,234,36,24,78,200,44,12,74,032,38,2*78
$GAGSV,2,2,05,16,64,298,26,2*41
$GAGSV,2,1,06,10,76,249,45,11,47,234,42,24,78,200,42,25,39,311,31,7*79
$GAGSV,2,2,06,12,74,032,40,16,64,298,32,7*77
$GNGGA,051712.00,3954.79513810,N,11626.89306077,E,4,11,1.7,39.7256,M,-8.2929,M,1.0,1828*79
$GNRMC,051712.00,D,3954.79513810,N,11626.89306077,E,15.609,271.3,080425,7.2,W,R,S*6F
$GPGSV,2,1,06,01,33,048,35,14,68,187,42,17,69,347,43,19,45,300,36,1*68
$GPGSV,2,2,06,22,75,267,44,03,46,083,45,1*68
$GPGSV,2,1,05,01,33,048,30,14,68,187,45,17,69,347,39,22,75,267,36,4*6A
$GPGSV,2,2,05,03,46,083,39,4*54
$GPGSV,1,1,03,01,33,048,20,14,68,187,45,03,46,083,39,8*55
$GLGSV,1,1,01,77,55,295,29,1*4C
